# 
# Header Description:
# 
# Version: v3.1.0.3 Platform: 13 Manufacturer: OPPO Model: CPH2371 GNSS Hardware Model Name: MTK_MNLD_6_0_0_20040301,MNL_VER_22051902ALPS05_6.7o_00
# 
# Raw,utcTimeMillis,TimeNanos,LeapSecond,TimeUncertaintyNanos,FullBiasNanos,BiasNanos,BiasUncertaintyNanos,DriftNanosPerSecond,DriftUncertaintyNanosPerSecond,HardwareClockDiscontinuityCount,Svid,TimeOffsetNanos,State,ReceivedSvTimeNanos,ReceivedSvTimeUncertaintyNanos,Cn0DbHz,PseudorangeRateMetersPerSecond,PseudorangeRateUncertaintyMetersPerSecond,AccumulatedDeltaRangeState,AccumulatedDeltaRangeMeters,AccumulatedDeltaRangeUncertaintyMeters,CarrierFrequencyHz,CarrierCycles,CarrierPhase,CarrierPhaseUncertainty,MultipathIndicator,SnrInDb,ConstellationType,AgcDb,BasebandCn0DbHz,FullInterSignalBiasNanos,FullInterSignalBiasUncertaintyNanos,SatelliteInterSignalBiasNanos,SatelliteInterSignalBiasUncertaintyNanos,CodeType,ChipsetElapsedRealtimeNanos,IsFullTracking
# 
# UncalAccel,utcTimeMillis,elapsedRealtimeNanos,UncalAccelXMps2,UncalAccelYMps2,UncalAccelZMps2,BiasXMps2,BiasYMps2,BiasZMps2
# 
# Accel,utcTimeMillis,elapsedRealtimeNanos,AccelXMps2,AccelYMps2,AccelZMps2
# 
# UncalGyro,utcTimeMillis,elapsedRealtimeNanos,UncalGyroXRadPerSec,UncalGyroYRadPerSec,UncalGyroZRadPerSec,DriftXRadPerSec,DriftYRadPerSec,DriftZRadPerSec
# 
# Gyro,utcTimeMillis,elapsedRealtimeNanos,GyroXRadPerSec,GyroYRadPerSec,GyroZRadPerSec
# 
# UncalMag,utcTimeMillis,elapsedRealtimeNanos,UncalMagXMicroT,UncalMagYMicroT,UncalMagZMicroT,BiasXMicroT,BiasYMicroT,BiasZMicroT
# 
# Mag,utcTimeMillis,elapsedRealtimeNanos,MagXMicroT,MagYMicroT,MagZMicroT
# 
# Pressure,utcTimeMillis,elapsedRealtimeNanos,PressureHpa
# 
# OrientationDeg,utcTimeMillis,elapsedRealtimeNanos,yawDeg,rollDeg,pitchDeg
# 
# Fix,Provider,LatitudeDegrees,LongitudeDegrees,AltitudeMeters,SpeedMps,AccuracyMeters,BearingDegrees,UnixTimeMillis,SpeedAccuracyMps,BearingAccuracyDegrees,elapsedRealtimeNanos,VerticalAccuracyMeters,MockLocation,NumberOfUsedSignals,VerticalSpeedAccuracyMps,SolutionType
# 
# Nav,Svid,Type,Status,MessageId,Sub-messageId,Data(Bytes)
# 
# Status,UnixTimeMillis,SignalCount,SignalIndex,ConstellationType,Svid,CarrierFrequencyHz,Cn0DbHz,AzimuthDegrees,ElevationDegrees,UsedInFix,HasAlmanacData,HasEphemerisData,BasebandCn0DbHz
# 
# Agc,utcTimeMillis,TimeNanos,LeapSecond,TimeUncertaintyNanos,FullBiasNanos,BiasNanos,BiasUncertaintyNanos,DriftNanosPerSecond,DriftUncertaintyNanosPerSecond,HardwareClockDiscontinuityCount,AgcDb,CarrierFrequencyHz,ConstellationType
# 
Fix,FLP,12.9313374000,77.5165921000,736.5,0.13068232,3.218,70.28697,1733206627085,0.16388719,45.0,630089229122471,1.03299,0,,,
Fix,FLP,12.9313371000,77.5165925000,736.5,0.17686652,3.318,146.4704,1733206627971,0.21726254,45.0,630090115081240,1.03299,0,,,
Fix,FLP,12.9313381000,77.5165923000,736.5,0.16741662,3.51,214.70123,1733206629110,0.19721073,45.0,630091254919932,1.03299,0,,,
Fix,FLP,12.9313389000,77.5165916000,736.5,0.15078561,3.778,215.84834,1733206629695,0.17248921,45.0,630091839032548,1.03299,0,,,
Fix,GPS,12.9313333333,77.5166400000,722.7,0.0,2.5,0.0,1733206629218,1.6,134.1,630092040000000,48.8,0,,,
Raw,1733206629220,232104000000,18,707074.1064973689,-1417241615116000000,0.0,154.75883219411608,-3294.1507476181605,0.0,0,194,0.0,17,895728,74,30.0,-865.699809322566,0.14999,20,-3318.9943967081285,0.0006249999860301614,1575420030,,,,0,11.779669413954876,4,6.0,30.0,0.0,,0.0,,C,,
Raw,1733206629220,232104000000,18,707074.1064973689,-1417241615116000000,0.0,154.75883219411608,-3294.1507476181605,0.0,0,3,0.0,47,195447151621254,487,20.572999954223633,-871.7538055389613,0.14999,16,-3436.440680543563,0.009999999776482582,1575420030,,,,0,0.0,1,6.0,20.572999954223633,0.0,0.0,0.0,66.7128,C,,
Raw,1733206629220,232104000000,18,707074.1064973689,-1417241615116000000,0.0,154.75883219411608,-3294.1507476181605,0.0,0,27,0.0,47,195447144875256,797,16.11400032043457,-1292.8460142256813,0.14999,16,-4555.66794640479,0.02250000089406967,1575420030,,,,0,0.0,1,6.0,16.11400032043457,0.0,0.0,0.0,66.7128,C,,
Raw,1733206629220,232104000000,18,707074.1064973689,-1417241615116000000,0.0,154.75883219411608,-3294.1507476181605,0.0,0,38,0.0,47,195433087978544,235,27.399999618530273,-709.2127075195312,0.14999,16,-2978.7547340756732,0.0008999999845400453,1561097980,,,,0,9.015846319946267,5,6.0,27.399999618530273,0.0,0.0,22.414521801671967,66.7128,I,,
Raw,1733206629220,232104000000,18,707074.1064973689,-1417241615116000000,0.0,154.75883219411608,-3294.1507476181605,0.0,0,6,0.0,47,195433092195420,235,26.299999237060547,-972.3360595703125,0.14999,16,-3767.8463043517418,0.0008999999845400453,1561097980,,,,0,7.717030181285973,5,6.0,26.299999237060547,0.0,0.0,22.414521801671967,66.7128,I,,
Raw,1733206629220,232104000000,18,707074.1064973689,-1417241615116000000,0.0,154.75883219411608,-3294.1507476181605,0.0,0,16,0.0,47,195433090159584,235,28.5,-1001.6854858398438,0.14999,16,-3791.8350009024593,0.0008999999845400453,1561097980,,,,0,10.244280002263139,5,6.0,28.5,0.0,0.0,22.414521801671967,66.7128,I,,
Raw,1733206629220,232104000000,18,707074.1064973689,-1417241615116000000,0.0,154.75883219411608,-3294.1507476181605,0.0,0,12,0.0,17,255405,396,0.0,-983.0152123968127,0.14999,16,-3730.289630388881,0.004900000058114529,1601437440,,,,0,1.213956807072233,3,6.0,22.0,0.0,0.0,-27.214227504668873,66.7128,C,,
Raw,1733206629220,232104000000,18,707074.1064973689,-1417241615116000000,0.0,154.75883219411608,-3294.1507476181605,0.0,0,11,0.0,17,531844,487,19.700000762939453,-370.4241461252435,0.14999,16,-2225.2652588493825,0.009999999776482582,1602000000,,,,0,0.0,3,6.0,19.700000762939453,0.0,0.0,-27.214227504668873,66.7128,C,,
Raw,1733206629220,232104000000,18,707074.1064973689,-1417241615116000000,0.0,154.75883219411608,-3294.1507476181605,0.0,0,8,0.0,17,406196,487,0.0,-785.9630391627704,0.14999,16,-3240.7599836086715,0.009999999776482582,1605374980,,,,0,0.0,3,6.0,20.0,0.0,0.0,-27.214227504668873,66.7128,C,,
Raw,1733206629220,232104000000,18,707074.1064973689,-1417241615116000000,0.0,154.75883219411608,-3294.1507476181605,0.0,0,4,0.0,47,195447146617650,487,20.11400032043457,-1403.0474216473913,0.14999,16,-4088.3727934346225,0.009999999776482582,1575420030,,,,0,0.0,1,6.0,20.11400032043457,0.0,0.0,0.0,66.7128,C,,
Raw,1733206629220,232104000000,18,707074.1064973689,-1417241615116000000,0.0,154.75883219411608,-3294.1507476181605,0.0,0,16,0.0,47,195447150204581,797,17.829999923706055,-590.4458189217576,0.14999,16,-2680.148539505401,0.02250000089406967,1575420030,,,,0,0.0,1,6.0,17.829999923706055,0.0,0.0,0.0,66.7128,C,,
Fix,FLP,12.9313391000,77.5165916000,736.5,0.1507747,3.843,219.04608,1733206629909,0.17248921,45.0,630092054620280,1.08523,0,,,
Fix,GPS,12.9313416667,77.5166366667,722.7,0.0,2.6,0.0,1733206630218,2.7,102.3,630093040000000,31.6,0,,,
Raw,1733206630220,233104000000,18,707068.9466777713,-1417241615116000000,0.0,108.78704905483912,-3297.6865228572437,0.0,0,194,0.0,17,898612,235,29.0,-867.5704109928671,0.14999,17,-4185.390307347471,0.0008999999845400453,1575420030,,,,0,10.711460318170865,4,6.0,29.0,0.0,,0.0,,C,,
Raw,1733206630220,233104000000,18,707068.9466777713,-1417241615116000000,0.0,108.78704905483912,-3297.6865228572437,0.0,0,3,0.0,47,195448151624129,487,18.204999923706055,-872.9856969031999,0.14999,16,-4308.7953795862295,0.009999999776482582,1575420030,,,,0,0.0,1,6.0,18.204999923706055,0.0,0.0,0.0,66.7128,C,,
Raw,1733206630220,233104000000,18,707068.9466777713,-1417241615116000000,0.0,108.78704905483912,-3297.6865228572437,0.0,0,27,0.0,47,195448144879570,797,12.699999809265137,-1294.0458492827347,0.14999,16,-5849.218058602138,0.02250000089406967,1575420030,,,,0,0.0,1,6.0,12.699999809265137,0.0,0.0,0.0,66.7128,C,,
Raw,1733206630220,233104000000,18,707068.9466777713,-1417241615116000000,0.0,108.78704905483912,-3297.6865228572437,0.0,0,38,0.0,47,195434087980916,316,27.399999618530273,-709.669921875,0.14999,16,-3690.124993499125,0.002025000052526593,1561097980,,,,0,9.015846319946267,5,6.0,27.399999618530273,0.0,0.0,25.532140853478708,66.7128,I,,
Raw,1733206630220,233104000000,18,707068.9466777713,-1417241615116000000,0.0,108.78704905483912,-3297.6865228572437,0.0,0,6,0.0,47,195434092198683,316,25.399999618530273,-984.6676635742188,0.14999,16,-4748.354282497418,0.002025000052526593,1561097980,,,,0,6.567592068774753,5,6.0,25.399999618530273,0.0,0.0,25.532140853478708,66.7128,I,,
Raw,1733206630220,233104000000,18,707068.9466777713,-1417241615116000000,0.0,108.78704905483912,-3297.6865228572437,0.0,0,19,0.0,47,195434146544053,316,24.600000381469727,-974.72314453125,0.14999,16,-4778.837717904117,0.002025000052526593,1561097980,,,,0,5.6021872012375376,5,6.0,24.600000381469727,0.0,0.0,25.532140853478708,66.7128,I,,
Raw,1733206630220,233104000000,18,707068.9466777713,-1417241615116000000,0.0,108.78704905483912,-3297.6865228572437,0.0,0,12,0.0,17,258704,316,0.0,-984.3148410165599,0.14999,16,-4713.578122312541,0.002025000052526593,1601437440,,,,0,4.283626173276413,3,6.0,24.0,0.0,0.0,-27.214227504668873,66.7128,C,,
Raw,1733206630220,233104000000,18,707068.9466777713,-1417241615116000000,0.0,108.78704905483912,-3297.6865228572437,0.0,0,11,0.0,17,533054,797,18.399999618530273,-374.71576413900743,0.14999,16,-2597.7666258307213,0.02250000089406967,1602000000,,,,0,0.0,3,6.0,18.399999618530273,0.0,0.0,-27.214227504668873,66.7128,C,,
Raw,1733206630220,233104000000,18,707068.9466777713,-1417241615116000000,0.0,108.78704905483912,-3297.6865228572437,0.0,0,8,0.0,17,408865,487,0.0,-787.7067331906254,0.14999,16,-4027.6291948577677,0.009999999776482582,1605374980,,,,0,0.0,3,6.0,19.0,0.0,0.0,-27.214227504668873,66.7128,C,,
Raw,1733206630220,233104000000,18,707068.9466777713,-1417241615116000000,0.0,108.78704905483912,-3297.6865228572437,0.0,0,4,0.0,47,195448146622372,487,19.788999557495117,-1403.7707791877895,0.14999,16,-5491.814557370898,0.009999999776482582,1575420030,,,,0,0.0,1,6.0,19.788999557495117,0.0,0.0,0.0,66.7128,C,,
Raw,1733206630220,233104000000,18,707068.9466777713,-1417241615116000000,0.0,108.78704905483912,-3297.6865228572437,0.0,0,16,0.0,47,195448150206511,487,18.204999923706055,-590.7557894747142,0.14999,16,-3270.9327270354624,0.009999999776482582,1575420030,,,,0,0.0,1,6.0,18.204999923706055,0.0,0.0,0.0,66.7128,C,,
Raw,1733206630220,233104000000,18,707068.9466777713,-1417241615116000000,0.0,108.78704905483912,-3297.6865228572437,0.0,0,45,0.0,47,195434141409878,316,25.100000381469727,-1162.9136962890625,0.14999,17,-4938.482575526567,0.002025000052526593,1561097980,,,,0,6.169809048588909,5,6.0,25.100000381469727,0.0,0.0,25.532140853478708,66.7128,I,,
Fix,FLP,12.9313383000,77.5165962000,736.5,0.11712533,3.843,273.2951,1733206630896,0.14228743,45.0,630093040175317,1.09523,0,,,
Fix,GPS,12.9313583333,77.5166316667,722.7,0.0,3.1,0.0,1733206632000,4.2,122.8,630094821000000,38.2,0,,,
Raw,1733206632001,234885000000,18,707031.5249558412,-1417241615116000000,0.0,116.0634808473914,-3336.8263716400556,0.0,0,194,0.0,17,903791,316,26.0,-879.0810411100225,0.14999,21,-5745.964024389476,0.002025000052526593,1575420030,,,,0,7.221745671365607,4,6.0,26.0,0.0,,0.0,,C,,
Raw,1733206632001,234885000000,18,707031.5249558412,-1417241615116000000,0.0,116.0634808473914,-3336.8263716400556,0.0,0,3,0.0,47,195449932629335,487,20.673999786376953,-884.4610186240353,0.14999,16,-5879.256803602861,0.009999999776482582,1575420030,,,,0,0.0,1,6.0,20.673999786376953,0.0,0.0,0.0,66.7128,C,,
Raw,1733206632001,234885000000,18,707031.5249558412,-1417241615116000000,0.0,116.0634808473914,-3336.8263716400556,0.0,0,27,0.0,47,195449925887280,1797,12.699999809265137,-1305.1371457351736,0.14999,16,-8168.555687354719,0.02250000089406967,1575420030,,,,0,0.0,1,6.0,12.699999809265137,0.0,0.0,0.0,66.7128,C,,
Raw,1733206632001,234885000000,18,707031.5249558412,-1417241615116000000,0.0,116.0634808473914,-3336.8263716400556,0.0,0,16,0.0,47,195435871168950,316,24.700000762939453,-1016.071533203125,0.14999,16,-6600.682845390424,0.002025000052526593,1561097980,,,,0,5.666024574070992,5,6.0,24.700000762939453,0.0,0.0,23.19772130692182,66.7128,I,,
Raw,1733206632001,234885000000,18,707031.5249558412,-1417241615116000000,0.0,116.0634808473914,-3336.8263716400556,0.0,0,22,0.0,47,195435922741569,396,22.100000381469727,-1486.255126953125,0.14999,16,-7495.710725107718,0.004900000058114529,1561097980,,,,0,2.3454259131152853,5,6.0,22.100000381469727,0.0,0.0,23.19772130692182,66.7128,I,,
Raw,1733206632001,234885000000,18,707031.5249558412,-1417241615116000000,0.0,116.0634808473914,-3336.8263716400556,0.0,0,38,0.0,47,195435868985163,316,27.399999618530273,-722.0686645507812,0.14999,16,-4971.846573038863,0.002025000052526593,1561097980,,,,0,9.015846319946267,5,6.0,27.399999618530273,0.0,0.0,23.19772130692182,66.7128,I,,
Raw,1733206632001,234885000000,18,707031.5249558412,-1417241615116000000,0.0,116.0634808473914,-3336.8263716400556,0.0,0,6,0.0,47,195435873204550,316,25.399999618530273,-996.6774291992188,0.14999,16,-6515.695789129262,0.002025000052526593,1561097980,,,,0,6.567592068774753,5,6.0,25.399999618530273,0.0,0.0,23.19772130692182,66.7128,I,,
Raw,1733206632001,234885000000,18,707031.5249558412,-1417241615116000000,0.0,116.0634808473914,-3336.8263716400556,0.0,0,19,0.0,47,195435927549874,316,23.100000381469727,-985.835205078125,0.14999,16,-6529.186150113026,0.002025000052526593,1561097980,,,,0,3.579538945863389,5,6.0,23.100000381469727,0.0,0.0,23.19772130692182,66.7128,I,,
Raw,1733206632001,234885000000,18,707031.5249558412,-1417241615116000000,0.0,116.0634808473914,-3336.8263716400556,0.0,0,40,0.0,47,195435874057182,396,22.399999618530273,-1253.82861328125,0.14999,16,-7037.78957877287,0.004900000058114529,1561097980,,,,0,2.734411343128136,5,6.0,22.399999618530273,0.0,0.0,23.19772130692182,66.7128,I,,
Raw,1733206632001,234885000000,18,707031.5249558412,-1417241615116000000,0.0,116.0634808473914,-3336.8263716400556,0.0,0,12,0.0,17,264587,316,0.0,-996.6482416639958,0.14999,16,-6483.805261943349,0.002025000052526593,1601437440,,,,0,5.966142746570158,3,6.0,26.0,0.0,0.0,-30.1512356968742,66.7128,C,,
Raw,1733206632001,234885000000,18,707031.5249558412,-1417241615116000000,0.0,116.0634808473914,-3336.8263716400556,0.0,0,11,0.0,17,535316,797,0.0,-388.4475346053014,0.14999,16,-3282.2961285116185,0.02250000089406967,1602000000,,,,0,0.0,3,6.0,17.0,0.0,0.0,-30.1512356968742,66.7128,C,,
Raw,1733206632001,234885000000,18,707031.5249558412,-1417241615116000000,0.0,116.0634808473914,-3336.8263716400556,0.0,0,16,0.0,47,195449931210050,487,18.1299991607666,-603.4401914774289,0.14999,16,-4339.807437117517,0.009999999776482582,1575420030,,,,0,0.0,1,6.0,18.1299991607666,0.0,0.0,0.0,66.7128,C,,
Raw,1733206632001,234885000000,18,707031.5249558412,-1417241615116000000,0.0,116.0634808473914,-3336.8263716400556,0.0,0,45,0.0,47,195435922416804,316,24.899999618530273,-1174.5010986328125,0.14999,20,-7025.450013024871,0.002025000052526593,1561097980,,,,0,5.933303805230622,5,6.0,24.899999618530273,0.0,0.0,23.19772130692182,66.7128,I,,
Raw,1733206632001,234885000000,18,707031.5249558412,-1417241615116000000,0.0,116.0634808473914,-3336.8263716400556,0.0,0,29,0.0,47,195449919607081,316,21.899999618530273,-1173.0147062918509,0.14999,24,-6783.152629201351,0.002025000052526593,1575420030,,,,0,1.96759416177664,6,6.0,21.899999618530273,0.0,0.0,29.071067610349537,66.7128,C,,
Raw,1733206632001,234885000000,18,707031.5249558412,-1417241615116000000,0.0,116.0634808473914,-3336.8263716400556,0.0,0,27,0.0,47,195449915862851,74,29.700000762939453,-587.9000835470849,0.14999,24,-5937.408507001189,0.0006249999860301614,1575420030,,,,0,11.665128550105134,6,6.0,29.700000762939453,0.0,0.0,29.071067610349537,66.7128,C,,
Fix,FLP,12.9313391000,77.5166015000,736.5,0.092945546,3.914,,1733206632756,0.120327726,,630094901781636,1.11304,0,,,
Fix,GPS,12.9313633333,77.5166283333,722.7,0.28000888,3.2,323.72,1733206633000,3.4,179.9,630095821000000,38.8,0,,,
Raw,1733206633001,235885000000,18,706987.5883101769,-1417241615116000000,0.0,113.3141321336587,-3372.5201068355213,0.0,0,194,0.0,17,906745,74,30.0,-890.5276515296398,0.14999,21,-6623.678853097729,0.0006249999860301614,1575420030,,,,0,11.665128550105134,4,6.0,30.0,0.0,,0.0,,C,,
Raw,1733206633001,235885000000,18,706987.5883101769,-1417241615116000000,0.0,113.3141321336587,-3372.5201068355213,0.0,0,3,0.0,47,195450932632316,396,23.110000610351562,-895.4378415389316,0.14999,16,-6761.762607120759,0.004900000058114529,1575420030,,,,0,2.256188470229469,1,6.0,23.110000610351562,0.0,0.0,0.0,66.7128,C,,
Raw,1733206633001,235885000000,18,706987.5883101769,-1417241615116000000,0.0,113.3141321336587,-3372.5201068355213,0.0,0,16,0.0,47,195436871172358,316,25.399999618530273,-1026.1719970703125,0.14999,16,-7614.493949664015,0.002025000052526593,1561097980,,,,0,6.526717218575029,5,6.0,25.399999618530273,0.0,0.0,20.72710914762193,66.7128,I,,
Raw,1733206633001,235885000000,18,706987.5883101769,-1417241615116000000,0.0,113.3141321336587,-3372.5201068355213,0.0,0,22,0.0,47,195436922746543,396,22.700000762939453,-1496.6966552734375,0.14999,16,-8979.824775734874,0.004900000058114529,1561097980,,,,0,3.0457668876611295,5,6.0,22.700000762939453,0.0,0.0,20.72710914762193,66.7128,I,,
Raw,1733206633001,235885000000,18,706987.5883101769,-1417241615116000000,0.0,113.3141321336587,-3372.5201068355213,0.0,0,38,0.0,47,195436868987608,316,24.600000381469727,-736.679443359375,0.14999,16,-5694.075724163865,0.002025000052526593,1561097980,,,,0,5.6021872012375376,5,6.0,24.600000381469727,0.0,0.0,20.72710914762193,66.7128,I,,
Raw,1733206633001,235885000000,18,706987.5883101769,-1417241615116000000,0.0,113.3141321336587,-3372.5201068355213,0.0,0,6,0.0,47,195436873207890,316,24.299999237060547,-1005.2252807617188,0.14999,16,-7508.794331472557,0.002025000052526593,1561097980,,,,0,5.186293896109312,5,6.0,24.299999237060547,0.0,0.0,20.72710914762193,66.7128,I,,
Raw,1733206633001,235885000000,18,706987.5883101769,-1417241615116000000,0.0,113.3141321336587,-3372.5201068355213,0.0,0,19,0.0,47,195436927553181,316,24.899999618530273,-996.537841796875,0.14999,17,-7512.9073188419725,0.002025000052526593,1561097980,,,,0,5.933303805230622,5,6.0,24.899999618530273,0.0,0.0,20.72710914762193,66.7128,I,,
Raw,1733206633001,235885000000,18,706987.5883101769,-1417241615116000000,0.0,113.3141321336587,-3372.5201068355213,0.0,0,40,0.0,47,195436874061378,396,22.399999618530273,-1264.455322265625,0.14999,16,-8289.52407290177,0.004900000058114529,1561097980,,,,0,2.6707781674043507,5,6.0,22.399999618530273,0.0,0.0,20.72710914762193,66.7128,I,,
Raw,1733206633001,235885000000,18,706987.5883101769,-1417241615116000000,0.0,113.3141321336587,-3372.5201068355213,0.0,0,12,0.0,17,267882,235,0.0,-1006.5893311399573,0.14999,16,-7477.874546323749,0.0008999999845400453,1601437440,,,,0,10.195276263605802,3,6.0,29.0,0.0,0.0,-30.960824925863637,66.7128,C,,
Raw,1733206633001,235885000000,18,706987.5883101769,-1417241615116000000,0.0,113.3141321336587,-3372.5201068355213,0.0,0,4,0.0,47,195450927635496,487,19.89900016784668,-1426.82158697481,0.14999,16,-9421.337033842343,0.009999999776482582,1575420030,,,,0,0.0,1,6.0,19.89900016784668,0.0,0.0,0.0,66.7128,C,,
Raw,1733206633001,235885000000,18,706987.5883101769,-1417241615116000000,0.0,113.3141321336587,-3372.5201068355213,0.0,0,16,0.0,47,195450931212077,487,20.673999786376953,-614.3424486343073,0.14999,16,-4941.046000952878,0.009999999776482582,1575420030,,,,0,0.0,1,6.0,20.673999786376953,0.0,0.0,0.0,66.7128,C,,
Raw,1733206633001,235885000000,18,706987.5883101769,-1417241615116000000,0.0,113.3141321336587,-3372.5201068355213,0.0,0,39,0.0,47,195436870796786,396,20.200000762939453,-1048.9981689453125,0.14999,16,-7644.863968193721,0.004900000058114529,1561097980,,,,0,0.0,5,6.0,20.200000762939453,0.0,0.0,20.72710914762193,66.7128,I,,
Raw,1733206633001,235885000000,18,706987.5883101769,-1417241615116000000,0.0,113.3141321336587,-3372.5201068355213,0.0,0,45,0.0,47,195436922420744,235,29.0,-1186.267822265625,0.14999,17,-8198.434813581249,0.0008999999845400453,1561097980,,,,0,10.831584878931618,5,6.0,29.0,0.0,0.0,20.72710914762193,66.7128,I,,
Raw,1733206633001,235885000000,18,706987.5883101769,-1417241615116000000,0.0,113.3141321336587,-3372.5201068355213,0.0,0,29,0.0,47,195450919611049,396,20.799999237060547,-1185.2613306386136,0.14999,25,-7955.775524491126,0.004900000058114529,1575420030,,,,0,0.3604620826654519,6,6.0,20.799999237060547,0.0,0.0,32.48154040341348,66.7128,C,,
Raw,1733206633001,235885000000,18,706987.5883101769,-1417241615116000000,0.0,113.3141321336587,-3372.5201068355213,0.0,0,27,0.0,47,195450915864832,74,29.600000381469727,-598.6411299997127,0.14999,25,-6523.35608164488,0.0006249999860301614,1575420030,,,,0,11.51001925616989,6,6.0,29.600000381469727,0.0,0.0,32.48154040341348,66.7128,C,,
Raw,1733206633001,235885000000,18,706987.5883101769,-1417241615116000000,0.0,113.3141321336587,-3372.5201068355213,0.0,0,19,0.0,47,195450915024895,487,19.100000381469727,-1362.1662453860959,0.14999,24,-8293.19501929163,0.009999999776482582,1575420030,,,,0,0.0,6,6.0,19.100000381469727,0.0,0.0,32.48154040341348,66.7128,C,,
Fix,FLP,12.9313401000,77.5166050000,736.5,0.09150713,3.962,,1733206633743,0.11451521,,630095887341221,1.12304,0,,,
Fix,GPS,12.9313633333,77.5166300000,722.8000000000001,0.2830972,3.2,194.73,1733206634000,2.8,179.9,630096821000000,41.5,0,,,
Raw,1733206634001,236885000000,18,706938.8566806441,-1417241615116000000,0.0,124.96770196345743,-3391.004018250202,0.0,0,194,0.0,17,909723,316,26.0,-896.2888668070763,0.14999,21,-7517.206324300754,0.002025000052526593,1575420030,,,,0,7.092585081168997,4,6.0,26.0,0.0,,0.0,,C,,
Raw,1733206634001,236885000000,18,706938.8566806441,-1417241615116000000,0.0,124.96770196345743,-3391.004018250202,0.0,0,3,0.0,47,195451932635308,316,25.391000747680664,-901.0591240667419,0.14999,16,-7660.601997161699,0.002025000052526593,1575420030,,,,0,5.567320220560749,1,6.0,25.391000747680664,0.0,0.0,0.0,66.7128,C,,
Raw,1733206634001,236885000000,18,706938.8566806441,-1417241615116000000,0.0,124.96770196345743,-3391.004018250202,0.0,0,7,0.0,47,195451920060004,487,19.011999130249023,-1128.4187150703606,0.14999,16,-8678.616754826624,0.009999999776482582,1575420030,,,,0,0.0,1,6.0,19.011999130249023,0.0,0.0,0.0,66.7128,C,,
Raw,1733206634001,236885000000,18,706938.8566806441,-1417241615116000000,0.0,124.96770196345743,-3391.004018250202,0.0,0,16,0.0,47,195437871175792,235,28.600000381469727,-1031.3726806640625,0.14999,16,-8644.007394983577,0.0008999999845400453,1561097980,,,,0,10.391522194605038,5,6.0,28.600000381469727,0.0,0.0,19.195103292112876,66.7128,I,,
Raw,1733206634001,236885000000,18,706938.8566806441,-1417241615116000000,0.0,124.96770196345743,-3391.004018250202,0.0,0,22,0.0,47,195437922751536,316,23.200000762939453,-1501.6925048828125,0.14999,16,-10479.612863736254,0.002025000052526593,1561097980,,,,0,3.7526929817050947,5,6.0,23.200000762939453,0.0,0.0,19.195103292112876,66.7128,I,,
Raw,1733206634001,236885000000,18,706938.8566806441,-1417241615116000000,0.0,124.96770196345743,-3391.004018250202,0.0,0,38,0.0,47,195437868990047,487,17.700000762939453,-741.122802734375,0.14999,16,-6433.337538721767,0.009999999776482582,1561097980,,,,0,0.0,5,6.0,17.700000762939453,0.0,0.0,19.195103292112876,66.7128,I,,
Raw,1733206634001,236885000000,18,706938.8566806441,-1417241615116000000,0.0,124.96770196345743,-3391.004018250202,0.0,0,6,0.0,47,195437873211255,316,24.299999237060547,-1009.3571166992188,0.14999,16,-8517.98311493956,0.002025000052526593,1561097980,,,,0,5.186293896109312,5,6.0,24.299999237060547,0.0,0.0,19.195103292112876,66.7128,I,,
Raw,1733206634001,236885000000,18,706938.8566806441,-1417241615116000000,0.0,124.96770196345743,-3391.004018250202,0.0,0,19,0.0,47,195437927556515,316,25.700000762939453,-1001.7699584960938,0.14999,20,-8512.423712951391,0.002025000052526593,1561097980,,,,0,6.99477071923077,5,6.0,25.700000762939453,0.0,0.0,19.195103292112876,66.7128,I,,
Raw,1733206634001,236885000000,18,706938.8566806441,-1417241615116000000,0.0,124.96770196345743,-3391.004018250202,0.0,0,40,0.0,47,195437874065597,316,24.0,-1269.885498046875,0.14999,16,-9557.349095322801,0.002025000052526593,1561097980,,,,0,4.82307809623486,5,6.0,24.0,0.0,0.0,19.195103292112876,66.7128,I,,
Raw,1733206634001,236885000000,18,706938.8566806441,-1417241615116000000,0.0,124.96770196345743,-3391.004018250202,0.0,0,12,0.0,17,271248,235,0.0,-1011.2127110518163,0.14999,17,-8487.828770341404,0.0008999999845400453,1601437440,,,,0,9.597225841713827,3,6.0,28.0,0.0,0.0,-31.754637608117395,66.7128,C,,
Raw,1733206634001,236885000000,18,706938.8566806441,-1417241615116000000,0.0,124.96770196345743,-3391.004018250202,0.0,0,8,0.0,17,419004,797,0.0,-819.6461598856527,0.14999,16,-7067.889706009703,0.02250000089406967,1605374980,,,,0,0.0,3,6.0,17.0,0.0,0.0,-31.754637608117395,66.7128,C,,
Raw,1733206634001,236885000000,18,706938.8566806441,-1417241615116000000,0.0,124.96770196345743,-3391.004018250202,0.0,0,4,0.0,47,195451927640261,487,20.474000930786133,-1431.6758410509844,0.14999,16,-10851.299839583926,0.009999999776482582,1575420030,,,,0,0.0,1,6.0,20.474000930786133,0.0,0.0,0.0,66.7128,C,,
Raw,1733206634001,236885000000,18,706938.8566806441,-1417241615116000000,0.0,124.96770196345743,-3391.004018250202,0.0,0,16,0.0,47,195451931214079,396,22.19499969482422,-619.6290911901531,0.14999,16,-5558.974606413309,0.004900000058114529,1575420030,,,,0,0.8412269000142272,1,6.0,22.19499969482422,0.0,0.0,0.0,66.7128,C,,
Raw,1733206634001,236885000000,18,706938.8566806441,-1417241615116000000,0.0,124.96770196345743,-3391.004018250202,0.0,0,39,0.0,47,195437870800275,316,23.899999618530273,-1053.948974609375,0.14999,17,-8696.917251583332,0.002025000052526593,1561097980,,,,0,4.670690158831022,5,6.0,23.899999618530273,0.0,0.0,19.195103292112876,66.7128,I,,
Raw,1733206634001,236885000000,18,706938.8566806441,-1417241615116000000,0.0,124.96770196345743,-3391.004018250202,0.0,0,45,0.0,47,195437922424710,316,26.200000762939453,-1191.048095703125,0.14999,17,-9387.607278615147,0.002025000052526593,1561097980,,,,0,7.6005683872667085,5,6.0,26.200000762939453,0.0,0.0,19.195103292112876,66.7128,I,,
Raw,1733206634001,236885000000,18,706938.8566806441,-1417241615116000000,0.0,124.96770196345743,-3391.004018250202,0.0,0,29,0.0,47,195451919615011,487,20.0,-1189.6500713843582,0.14999,28,-9143.828407530555,0.009999999776482582,1575420030,,,,0,0.0,6,6.0,20.0,0.0,0.0,35.66524747916248,66.7128,C,,
Raw,1733206634001,236885000000,18,706938.8566806441,-1417241615116000000,0.0,124.96770196345743,-3391.004018250202,0.0,0,27,0.0,47,195451915866840,74,30.100000381469727,-603.2419998738748,0.14999,29,-7125.174331152492,0.0006249999860301614,1575420030,,,,0,12.114498908287354,6,6.0,30.100000381469727,0.0,0.0,35.66524747916248,66.7128,C,,
Raw,1733206634001,236885000000,18,706938.8566806441,-1417241615116000000,0.0,124.96770196345743,-3391.004018250202,0.0,0,19,0.0,47,195451915029487,396,20.5,-1367.8674363897883,0.14999,24,-9658.926230658755,0.004900000058114529,1575420030,,,,0,0.0,6,6.0,20.5,0.0,0.0,35.66524747916248,66.7128,C,,
Fix,FLP,12.9313522000,77.5166184000,736.5999755859375,0.08137585,3.689,,1733206634727,0.11175116,,630096872903083,1.04269,0,,,
Fix,GPS,12.9313650000,77.5166300000,722.8000000000001,0.25633165,3.2,186.19,1733206635000,2.3,179.9,630097821000000,40.6,0,,,
Raw,1733206635001,237885000000,18,706908.054121228,-1417241615116000000,0.0,120.2772877107043,-3392.6062840201753,0.0,0,194,0.0,17,912707,74,31.0,-896.2616421751768,0.14999,17,-8413.334211389018,0.0006249999860301614,1575420030,,,,0,12.471993383681442,4,6.0,31.0,0.0,,0.0,,C,,
Raw,1733206635001,237885000000,18,706908.054121228,-1417241615116000000,0.0,120.2772877107043,-3392.6062840201753,0.0,0,3,0.0,47,195452932638314,235,27.05699920654297,-901.5266815674847,0.14999,17,-8561.55594677845,0.0008999999845400453,1575420030,,,,0,7.810319811856614,1,6.0,27.05699920654297,0.0,0.0,0.0,66.7128,C,,
Raw,1733206635001,237885000000,18,706908.054121228,-1417241615116000000,0.0,120.2772877107043,-3392.6062840201753,0.0,0,7,0.0,47,195452920063788,487,20.722999572753906,-1128.065538190328,0.14999,16,-9807.007671939193,0.009999999776482582,1575420030,,,,0,0.0,1,6.0,20.722999572753906,0.0,0.0,0.0,66.7128,C,,
Raw,1733206635001,237885000000,18,706908.054121228,-1417241615116000000,0.0,120.2772877107043,-3392.6062840201753,0.0,0,16,0.0,47,195438871179234,74,30.700000762939453,-1032.1015625,0.14999,17,-9676.020611097487,0.0006249999860301614,1561097980,,,,0,12.709674936298242,5,6.0,30.700000762939453,0.0,0.0,16.819714073456666,66.7128,I,,
Raw,1733206635001,237885000000,18,706908.054121228,-1417241615116000000,0.0,120.2772877107043,-3392.6062840201753,0.0,0,22,0.0,47,195438922756542,396,22.5,-1502.379638671875,0.14999,16,-11982.119325101175,0.004900000058114529,1561097980,,,,0,2.8533500713746305,5,6.0,22.5,0.0,0.0,16.819714073456666,66.7128,I,,
Raw,1733206635001,237885000000,18,706908.054121228,-1417241615116000000,0.0,120.2772877107043,-3392.6062840201753,0.0,0,38,0.0,47,195438868992521,797,17.700000762939453,-741.254638671875,0.14999,16,-7175.238230804014,0.02250000089406967,1561097980,,,,0,0.0,5,6.0,17.700000762939453,0.0,0.0,16.819714073456666,66.7128,I,,
Raw,1733206635001,237885000000,18,706908.054121228,-1417241615116000000,0.0,120.2772877107043,-3392.6062840201753,0.0,0,6,0.0,47,195438873214615,396,20.600000381469727,-1011.0315551757812,0.14999,16,-9528.397839876157,0.004900000058114529,1561097980,,,,0,0.08642747565285157,5,6.0,20.600000381469727,0.0,0.0,16.819714073456666,66.7128,I,,
Raw,1733206635001,237885000000,18,706908.054121228,-1417241615116000000,0.0,120.2772877107043,-3392.6062840201753,0.0,0,19,0.0,47,195438927559853,316,27.299999237060547,-1000.5260009765625,0.14999,16,-9513.560154962503,0.002025000052526593,1561097980,,,,0,8.858143083771216,5,6.0,27.299999237060547,0.0,0.0,16.819714073456666,66.7128,I,,
Raw,1733206635001,237885000000,18,706908.054121228,-1417241615116000000,0.0,120.2772877107043,-3392.6062840201753,0.0,0,40,0.0,47,195438874069834,396,23.399999618530273,-1269.98193359375,0.14999,16,-10827.762497579479,0.004900000058114529,1561097980,,,,0,3.977582945698348,5,6.0,23.399999618530273,0.0,0.0,16.819714073456666,66.7128,I,,
Raw,1733206635001,237885000000,18,706908.054121228,-1417241615116000000,0.0,120.2772877107043,-3392.6062840201753,0.0,0,12,0.0,17,274630,316,0.0,-1012.4935097731482,0.14999,17,-9500.427157249982,0.002025000052526593,1601437440,,,,0,6.732740661766957,3,6.0,26.0,0.0,0.0,-31.316275400473135,66.7128,C,,
Raw,1733206635001,237885000000,18,706908.054121228,-1417241615116000000,0.0,120.2772877107043,-3392.6062840201753,0.0,0,8,0.0,17,421742,797,0.0,-819.0151729760278,0.14999,16,-7888.874748510367,0.02250000089406967,1605374980,,,,0,0.0,3,6.0,17.0,0.0,0.0,-31.316275400473135,66.7128,C,,
Raw,1733206635001,237885000000,18,706908.054121228,-1417241615116000000,0.0,120.2772877107043,-3392.6062840201753,0.0,0,4,0.0,47,195452927645038,797,20.474000930786133,-1432.2548987506325,0.14999,16,-12283.485272984728,0.02250000089406967,1575420030,,,,0,0.0,1,6.0,20.474000930786133,0.0,0.0,0.0,66.7128,C,,
Raw,1733206635001,237885000000,18,706908.054121228,-1417241615116000000,0.0,120.2772877107043,-3392.6062840201753,0.0,0,16,0.0,47,195452931216147,797,22.19499969482422,-619.1038787948929,0.14999,16,-6178.87653786427,0.02250000089406967,1575420030,,,,0,0.8412269000142272,1,6.0,22.19499969482422,0.0,0.0,0.0,66.7128,C,,
Raw,1733206635001,237885000000,18,706908.054121228,-1417241615116000000,0.0,120.2772877107043,-3392.6062840201753,0.0,0,39,0.0,47,195438870803815,396,22.299999237060547,-1054.1610107421875,0.14999,20,-9751.332667112616,0.004900000058114529,1561097980,,,,0,2.542095967296153,5,6.0,22.299999237060547,0.0,0.0,16.819714073456666,66.7128,I,,
Raw,1733206635001,237885000000,18,706908.054121228,-1417241615116000000,0.0,120.2772877107043,-3392.6062840201753,0.0,0,36,0.0,47,195438926416032,797,17.200000762939453,-777.6893310546875,0.14999,16,-8362.724525149712,0.02250000089406967,1561097980,,,,0,0.0,5,6.0,17.200000762939453,0.0,0.0,16.819714073456666,66.7128,I,,
Raw,1733206635001,237885000000,18,706908.054121228,-1417241615116000000,0.0,120.2772877107043,-3392.6062840201753,0.0,0,45,0.0,47,195438922428684,235,28.799999237060547,-1191.3070068359375,0.14999,17,-10578.998704746398,0.0008999999845400453,1561097980,,,,0,10.603993964061644,5,6.0,28.799999237060547,0.0,0.0,16.819714073456666,66.7128,I,,
Raw,1733206635001,237885000000,18,706908.054121228,-1417241615116000000,0.0,120.2772877107043,-3392.6062840201753,0.0,0,29,0.0,47,195452919618988,487,20.399999618530273,-1190.8172926332318,0.14999,24,-10334.699497703115,0.009999999776482582,1575420030,,,,0,0.0,6,6.0,20.399999618530273,0.0,0.0,40.71972964530716,66.7128,C,,
Raw,1733206635001,237885000000,18,706908.054121228,-1417241615116000000,0.0,120.2772877107043,-3392.6062840201753,0.0,0,27,0.0,47,195452915868854,74,30.799999237060547,-604.4934037729219,0.14999,25,-7729.508282527034,0.0006249999860301614,1575420030,,,,0,12.848955048782154,6,6.0,30.799999237060547,0.0,0.0,40.71972964530716,66.7128,C,,
Raw,1733206635001,237885000000,18,706908.054121228,-1417241615116000000,0.0,120.2772877107043,-3392.6062840201753,0.0,0,19,0.0,47,195452915034054,487,18.399999618530273,-1368.1748981882695,0.14999,24,-11027.467147268846,0.009999999776482582,1575420030,,,,0,0.0,6,6.0,18.399999618530273,0.0,0.0,40.71972964530716,66.7128,C,,
Fix,FLP,12.9313533000,77.5166185000,736.5999755859375,0.0766937,3.542,,1733206635713,0.103855304,,630097858465935,1.05269,0,,,
Fix,GPS,12.9313666667,77.5166283333,722.8000000000001,0.1528725,3.2,197.94,1733206636000,1.8,179.9,630098821000000,39.6,0,,,
Raw,1733206636001,238885000000,18,706878.8672628982,-1417241615116000000,0.0,116.15127962427995,-3384.18676769742,0.0,0,194,0.0,17,915696,235,29.0,-893.9666893312087,0.14999,21,-9308.558153205411,0.0008999999845400453,1575420030,,,,0,10.60355968043674,4,6.0,29.0,0.0,,0.0,,C,,
Raw,1733206636001,238885000000,18,706878.8672628982,-1417241615116000000,0.0,116.15127962427995,-3384.18676769742,0.0,0,3,0.0,47,195453932641316,235,27.07900047302246,-898.4034680793151,0.14999,21,-9461.429989871933,0.0008999999845400453,1575420030,,,,0,8.417567634414242,1,6.0,27.07900047302246,0.0,0.0,0.0,66.7128,C,,
Raw,1733206636001,238885000000,18,706878.8672628982,-1417241615116000000,0.0,116.15127962427995,-3384.18676769742,0.0,0,7,0.0,47,195453920067598,487,21.19099998474121,-1125.0677624259267,0.14999,16,-10934.083539062145,0.009999999776482582,1575420030,,,,0,0.0,1,6.0,21.19099998474121,0.0,0.0,0.0,66.7128,C,,
Raw,1733206636001,238885000000,18,706878.8672628982,-1417241615116000000,0.0,116.15127962427995,-3384.18676769742,0.0,0,16,0.0,47,195439871182672,74,29.899999618530273,-1029.9140625,0.14999,17,-10707.100933232645,0.0006249999860301614,1561097980,,,,0,11.887851007508534,5,6.0,29.899999618530273,0.0,0.0,14.733383631714887,66.7128,I,,
Raw,1733206636001,238885000000,18,706878.8672628982,-1417241615116000000,0.0,116.15127962427995,-3384.18676769742,0.0,0,22,0.0,47,195439922761550,396,21.799999237060547,-1500.0128173828125,0.14999,16,-13483.701422561726,0.004900000058114529,1561097980,,,,0,1.7981022287879587,5,6.0,21.799999237060547,0.0,0.0,14.733383631714887,66.7128,I,,
Raw,1733206636001,238885000000,18,706878.8672628982,-1417241615116000000,0.0,116.15127962427995,-3384.18676769742,0.0,0,38,0.0,47,195439868994991,396,17.700000762939453,-738.56884765625,0.14999,16,-7915.528044764717,0.004900000058114529,1561097980,,,,0,0.0,5,6.0,17.700000762939453,0.0,0.0,14.733383631714887,66.7128,I,,
Raw,1733206636001,238885000000,18,706878.8672628982,-1417241615116000000,0.0,116.15127962427995,-3384.18676769742,0.0,0,6,0.0,47,195439873218009,235,26.700000762939453,-1009.1367797851562,0.14999,17,-10538.901527446296,0.0008999999845400453,1561097980,,,,0,8.164799306236992,5,6.0,26.700000762939453,0.0,0.0,14.733383631714887,66.7128,I,,
Raw,1733206636001,238885000000,18,706878.8672628982,-1417241615116000000,0.0,116.15127962427995,-3384.18676769742,0.0,0,19,0.0,47,195439927563188,235,27.280000686645508,-999.3641967773438,0.14999,17,-10513.732319588258,0.0008999999845400453,1561097980,,,,0,8.399114969795157,5,6.0,27.280000686645508,0.0,0.0,14.733383631714887,66.7128,I,,
Raw,1733206636001,238885000000,18,706878.8672628982,-1417241615116000000,0.0,116.15127962427995,-3384.18676769742,0.0,0,40,0.0,47,195439874074070,487,19.799999237060547,-1267.55029296875,0.14999,16,-12097.108848387326,0.009999999776482582,1561097980,,,,0,0.0,5,6.0,19.799999237060547,0.0,0.0,14.733383631714887,66.7128,I,,
Raw,1733206636001,238885000000,18,706878.8672628982,-1417241615116000000,0.0,116.15127962427995,-3384.18676769742,0.0,0,12,0.0,17,278004,316,0.0,-1009.7144544259705,0.14999,20,-10511.793136070957,0.002025000052526593,1601437440,,,,0,4.359668407677166,3,6.0,24.0,0.0,0.0,-30.986645521525222,66.7128,C,,
Raw,1733206636001,238885000000,18,706878.8672628982,-1417241615116000000,0.0,116.15127962427995,-3384.18676769742,0.0,0,8,0.0,17,424462,487,0.0,-812.7944809314571,0.14999,16,-8704.318266639126,0.009999999776482582,1605374980,,,,0,0.0,3,6.0,18.0,0.0,0.0,-30.986645521525222,66.7128,C,,
Raw,1733206636001,238885000000,18,706878.8672628982,-1417241615116000000,0.0,116.15127962427995,-3384.18676769742,0.0,0,4,0.0,47,195453927649831,487,20.15999984741211,-1429.4935034079106,0.14999,16,-13714.890944460189,0.009999999776482582,1575420030,,,,0,0.0,1,6.0,20.15999984741211,0.0,0.0,0.0,66.7128,C,,
Raw,1733206636001,238885000000,18,706878.8672628982,-1417241615116000000,0.0,116.15127962427995,-3384.18676769742,0.0,0,16,0.0,47,195453931218210,487,22.19499969482422,-616.6639756923479,0.14999,16,-6797.467362483692,0.009999999776482582,1575420030,,,,0,0.8412269000142272,1,6.0,22.19499969482422,0.0,0.0,0.0,66.7128,C,,
Raw,1733206636001,238885000000,18,706878.8672628982,-1417241615116000000,0.0,116.15127962427995,-3384.18676769742,0.0,0,39,0.0,47,195439870807328,396,22.0,-1051.7801513671875,0.14999,16,-10804.876991410923,0.004900000058114529,1561097980,,,,0,2.2117942059849796,5,6.0,22.0,0.0,0.0,14.733383631714887,66.7128,I,,
Raw,1733206636001,238885000000,18,706878.8672628982,-1417241615116000000,0.0,116.15127962427995,-3384.18676769742,0.0,0,36,0.0,47,195439926418624,1797,17.200000762939453,-775.3048706054688,0.14999,16,-9139.846288968527,0.02250000089406967,1561097980,,,,0,0.0,5,6.0,17.200000762939453,0.0,0.0,14.733383631714887,66.7128,I,,
Raw,1733206636001,238885000000,18,706878.8672628982,-1417241615116000000,0.0,116.15127962427995,-3384.18676769742,0.0,0,45,0.0,47,195439922432656,235,28.815000534057617,-1189.2244873046875,0.14999,21,-11769.424599328146,0.0008999999845400453,1561097980,,,,0,10.90614232931648,5,6.0,28.815000534057617,0.0,0.0,14.733383631714887,66.7128,I,,
Raw,1733206636001,238885000000,18,706878.8672628982,-1417241615116000000,0.0,116.15127962427995,-3384.18676769742,0.0,0,27,0.0,47,195453915870865,74,30.200000762939453,-602.1408424928526,0.14999,29,-8332.937919866026,0.0006249999860301614,1575420030,,,,0,12.205261381354129,6,6.0,30.200000762939453,0.0,0.0,45.90034025247662,66.7128,C,,
Raw,1733206636001,238885000000,18,706878.8672628982,-1417241615116000000,0.0,116.15127962427995,-3384.18676769742,0.0,0,19,0.0,47,195453915038630,487,19.5,-1365.9864280342558,0.14999,24,-12394.83175614203,0.009999999776482582,1575420030,,,,0,0.0,6,6.0,19.5,0.0,0.0,45.90034025247662,66.7128,C,,
Fix,FLP,12.9313540000,77.5166186000,736.5999755859375,0.06824882,3.392,,1733206636700,0.096643634,,630098844029223,1.06269,0,,,
Fix,GPS,12.9313666667,77.5166250000,722.7,0.0,3.2,197.94,1733206637000,1.9,179.9,630099821000000,36.1,0,,,
Raw,1733206637001,239885000000,18,706847.2307932443,-1417241615116000000,0.0,101.91694109460477,-3368.7630308921325,0.0,0,194,0.0,17,918675,235,29.0,-889.5268443276324,0.14999,17,-10200.188738572666,0.0008999999845400453,1575420030,,,,0,10.51626357238774,4,6.0,29.0,0.0,,0.0,,C,,
Raw,1733206637001,239885000000,18,706847.2307932443,-1417241615116000000,0.0,101.91694109460477,-3368.7630308921325,0.0,0,3,0.0,47,195454932644297,396,27.125,-892.7938930723899,0.14999,20,-10357.232901067619,0.004900000058114529,1575420030,,,,0,9.063255994614396,1,6.0,27.125,0.0,0.0,0.0,66.7128,C,,
Raw,1733206637001,239885000000,18,706847.2307932443,-1417241615116000000,0.0,101.91694109460477,-3368.7630308921325,0.0,0,7,0.0,47,195454920071353,316,25.261999130249023,-1120.7853185364718,0.14999,17,-12057.346324656492,0.002025000052526593,1575420030,,,,0,5.371242150679859,1,6.0,25.261999130249023,0.0,0.0,0.0,66.7128,C,,
Raw,1733206637001,239885000000,18,706847.2307932443,-1417241615116000000,0.0,101.91694109460477,-3368.7630308921325,0.0,0,27,0.0,47,195454925909288,396,26.804000854492188,-1315.5284067721523,0.14999,17,-12006.829902261561,0.004900000058114529,1575420030,,,,0,7.474443919349443,1,6.0,26.804000854492188,0.0,0.0,0.0,66.7128,C,,
Raw,1733206637001,239885000000,18,706847.2307932443,-1417241615116000000,0.0,101.91694109460477,-3368.7630308921325,0.0,0,16,0.0,47,195440871186099,487,26.600000381469727,-1024.869384765625,0.14999,21,-11734.202512155232,0.009999999776482582,1561097980,,,,0,7.993474429620761,5,6.0,26.600000381469727,0.0,0.0,13.119903837499109,66.7128,I,,
Raw,1733206637001,239885000000,18,706847.2307932443,-1417241615116000000,0.0,101.91694109460477,-3368.7630308921325,0.0,0,22,0.0,47,195440922766546,487,18.600000381469727,-1495.4622802734375,0.14999,16,-14981.666468373096,0.009999999776482582,1561097980,,,,0,0.0,5,6.0,18.600000381469727,0.0,0.0,13.119903837499109,66.7128,I,,
Raw,1733206637001,239885000000,18,706847.2307932443,-1417241615116000000,0.0,101.91694109460477,-3368.7630308921325,0.0,0,38,0.0,47,195440868997496,487,17.815000534057617,-734.2936401367188,0.14999,16,-8652.159182305859,0.009999999776482582,1561097980,,,,0,0.0,5,6.0,17.815000534057617,0.0,0.0,13.119903837499109,66.7128,I,,
Raw,1733206637001,239885000000,18,706847.2307932443,-1417241615116000000,0.0,101.91694109460477,-3368.7630308921325,0.0,0,6,0.0,47,195440873221371,396,23.399999618530273,-1004.4488525390625,0.14999,20,-11546.046248664792,0.004900000058114529,1561097980,,,,0,4.02794248640903,5,6.0,23.399999618530273,0.0,0.0,13.119903837499109,66.7128,I,,
Raw,1733206637001,239885000000,18,706847.2307932443,-1417241615116000000,0.0,101.91694109460477,-3368.7630308921325,0.0,0,19,0.0,47,195440927566514,316,24.200000762939453,-994.3418579101562,0.14999,20,-11510.413681182024,0.002025000052526593,1561097980,,,,0,5.0570606195978645,5,6.0,24.200000762939453,0.0,0.0,13.119903837499109,66.7128,I,,
Raw,1733206637001,239885000000,18,706847.2307932443,-1417241615116000000,0.0,101.91694109460477,-3368.7630308921325,0.0,0,40,0.0,47,195440874078293,487,19.8799991607666,-1263.2855224609375,0.14999,16,-13362.859140144024,0.009999999776482582,1561097980,,,,0,1.3637172349232323,5,6.0,19.8799991607666,0.0,0.0,13.119903837499109,66.7128,I,,
Raw,1733206637001,239885000000,18,706847.2307932443,-1417241615116000000,0.0,101.91694109460477,-3368.7630308921325,0.0,0,12,0.0,17,281366,316,0.0,-1005.6297375789709,0.14999,16,-11519.64526384381,0.002025000052526593,1601437440,,,,0,4.876453642200519,3,6.0,24.0,0.0,0.0,-31.12089872729987,66.7128,C,,
Raw,1733206637001,239885000000,18,706847.2307932443,-1417241615116000000,0.0,101.91694109460477,-3368.7630308921325,0.0,0,8,0.0,17,427171,487,0.0,-810.7209777053198,0.14999,16,-9516.524143129018,0.009999999776482582,1605374980,,,,0,0.0,3,6.0,20.0,0.0,0.0,-31.12089872729987,66.7128,C,,
Raw,1733206637001,239885000000,18,706847.2307932443,-1417241615116000000,0.0,101.91694109460477,-3368.7630308921325,0.0,0,4,0.0,47,195454927654593,797,20.15999984741211,-1425.1953565737765,0.14999,16,-15142.377101079157,0.02250000089406967,1575420030,,,,0,0.0,1,6.0,20.15999984741211,0.0,0.0,0.0,66.7128,C,,
Raw,1733206637001,239885000000,18,706847.2307932443,-1417241615116000000,0.0,101.91694109460477,-3368.7630308921325,0.0,0,8,0.0,47,195454925201237,396,21.667999267578125,-1494.5554490552995,0.14999,16,-12893.846389298466,0.004900000058114529,1575420030,,,,0,0.0,1,6.0,21.667999267578125,0.0,0.0,0.0,66.7128,C,,
Raw,1733206637001,239885000000,18,706847.2307932443,-1417241615116000000,0.0,101.91694109460477,-3368.7630308921325,0.0,0,16,0.0,47,195454931220219,396,24.993999481201172,-612.3031099963295,0.14999,16,-7412.3087942558295,0.004900000058114529,1575420030,,,,0,5.006745748555877,1,6.0,24.993999481201172,0.0,0.0,0.0,66.7128,C,,
Raw,1733206637001,239885000000,18,706847.2307932443,-1417241615116000000,0.0,101.91694109460477,-3368.7630308921325,0.0,0,39,0.0,47,195440870810831,316,22.0,-1047.4747314453125,0.14999,16,-11854.87559904141,0.002025000052526593,1561097980,,,,0,2.2117942059849796,5,6.0,22.0,0.0,0.0,13.119903837499109,66.7128,I,,
Raw,1733206637001,239885000000,18,706847.2307932443,-1417241615116000000,0.0,101.91694109460477,-3368.7630308921325,0.0,0,36,0.0,47,195440926421204,797,15.600000381469727,-770.9833374023438,0.14999,16,-9913.438238803708,0.02250000089406967,1561097980,,,,0,0.0,5,6.0,15.600000381469727,0.0,0.0,13.119903837499109,66.7128,I,,
Raw,1733206637001,239885000000,18,706847.2307932443,-1417241615116000000,0.0,101.91694109460477,-3368.7630308921325,0.0,0,45,0.0,47,195440922436619,74,28.854000091552734,-1184.375,0.14999,17,-12956.218981279239,0.0006249999860301614,1561097980,,,,0,11.50375689855322,5,6.0,28.854000091552734,0.0,0.0,13.119903837499109,66.7128,I,,
Raw,1733206637001,239885000000,18,706847.2307932443,-1417241615116000000,0.0,101.91694109460477,-3368.7630308921325,0.0,0,29,0.0,47,195454919626941,396,19.5,-1184.0311117773585,0.14999,24,-11827.186911392642,0.004900000058114529,1575420030,,,,0,0.0,6,6.0,19.5,0.0,0.0,48.00750669381075,66.7128,C,,
Raw,1733206637001,239885000000,18,706847.2307932443,-1417241615116000000,0.0,101.91694109460477,-3368.7630308921325,0.0,0,27,0.0,47,195454915872870,74,30.18000030517578,-597.3178549307879,0.14999,25,-8932.8413157454,0.0006249999860301614,1575420030,,,,0,11.703476911019571,6,6.0,30.18000030517578,0.0,0.0,48.00750669381075,66.7128,C,,
Raw,1733206637001,239885000000,18,706847.2307932443,-1417241615116000000,0.0,101.91694109460477,-3368.7630308921325,0.0,0,19,0.0,47,195454915043188,487,19.434999465942383,-1361.4651878854788,0.14999,24,-13758.849380450893,0.009999999776482582,1575420030,,,,0,0.0,6,6.0,19.434999465942383,0.0,0.0,48.00750669381075,66.7128,C,,
Fix,FLP,12.9313547000,77.5166190000,736.5999755859375,0.079158925,3.36,,1733206637685,0.10751443,,630099829591937,1.07269,0,,,
Fix,GPS,12.9313633333,77.5166283333,722.7,0.0,2.9,197.94,1733206638000,1.6,179.9,630100821000000,30.4,0,,,
Raw,1733206638001,240885000000,18,706382.8470294606,-1417241615116000000,0.0,83.75909790383753,-3358.4234738944247,0.0,0,194,0.0,17,921639,235,29.0,-887.1299617184983,0.14999,21,-11087.665117416467,0.0008999999845400453,1575420030,,,,0,10.494301766406696,4,6.0,29.0,0.0,,0.0,,C,,
Raw,1733206638001,240885000000,18,706382.8470294606,-1417241615116000000,0.0,83.75909790383753,-3358.4234738944247,0.0,0,3,0.0,47,195455932647265,235,27.167999267578125,-891.5033711868936,0.14999,17,-11248.424141330033,0.0008999999845400453,1575420030,,,,0,9.037289190108782,1,6.0,27.167999267578125,0.0,0.0,0.0,66.7128,C,,
Raw,1733206638001,240885000000,18,706382.8470294606,-1417241615116000000,0.0,83.75909790383753,-3358.4234738944247,0.0,0,7,0.0,47,195455920075095,316,24.577999114990234,-1117.6373891708781,0.14999,20,-13175.8808925732,0.002025000052526593,1575420030,,,,0,4.407481281007014,1,6.0,24.577999114990234,0.0,0.0,0.0,66.7128,C,,
Raw,1733206638001,240885000000,18,706382.8470294606,-1417241615116000000,0.0,83.75909790383753,-3358.4234738944247,0.0,0,27,0.0,47,195455925913703,487,24.72100067138672,-1312.2219612904485,0.14999,20,-13320.016523147384,0.009999999776482582,1575420030,,,,0,4.62628100228727,1,6.0,24.72100067138672,0.0,0.0,0.0,66.7128,C,,
Raw,1733206638001,240885000000,18,706382.8470294606,-1417241615116000000,0.0,83.75909790383753,-3358.4234738944247,0.0,0,16,0.0,47,195441871189511,487,18.200000762939453,-1021.3546142578125,0.14999,20,-12756.698241167967,0.009999999776482582,1561097980,,,,0,0.0,5,6.0,18.200000762939453,0.0,0.0,13.709668685568161,66.7128,I,,
Raw,1733206638001,240885000000,18,706382.8470294606,-1417241615116000000,0.0,83.75909790383753,-3358.4234738944247,0.0,0,22,0.0,47,195441922771527,487,18.670000076293945,-1492.2181396484375,0.14999,16,-16474.788805998312,0.009999999776482582,1561097980,,,,0,0.0,5,6.0,18.670000076293945,0.0,0.0,13.709668685568161,66.7128,I,,
Raw,1733206638001,240885000000,18,706382.8470294606,-1417241615116000000,0.0,83.75909790383753,-3358.4234738944247,0.0,0,38,0.0,47,195441868999941,487,21.5,-731.1041870117188,0.14999,16,-9384.172646216732,0.009999999776482582,1561097980,,,,0,1.4376401461225072,5,6.0,21.5,0.0,0.0,13.709668685568161,66.7128,I,,
Raw,1733206638001,240885000000,18,706382.8470294606,-1417241615116000000,0.0,83.75909790383753,-3358.4234738944247,0.0,0,6,0.0,47,195441873224715,487,19.100000381469727,-1001.65966796875,0.14999,16,-12548.623506773296,0.009999999776482582,1561097980,,,,0,0.0,5,6.0,19.100000381469727,0.0,0.0,13.709668685568161,66.7128,I,,
Raw,1733206638001,240885000000,18,706382.8470294606,-1417241615116000000,0.0,83.75909790383753,-3358.4234738944247,0.0,0,19,0.0,47,195441927569826,316,24.25,-992.2282104492188,0.14999,17,-12502.872600809005,0.002025000052526593,1561097980,,,,0,6.361266699255231,5,6.0,24.25,0.0,0.0,13.709668685568161,66.7128,I,,
Raw,1733206638001,240885000000,18,706382.8470294606,-1417241615116000000,0.0,83.75909790383753,-3358.4234738944247,0.0,0,40,0.0,47,195441874082501,396,19.97599983215332,-1260.1949462890625,0.14999,16,-14624.049710617084,0.004900000058114529,1561097980,,,,0,1.7981022287879587,5,6.0,19.97599983215332,0.0,0.0,13.709668685568161,66.7128,I,,
Raw,1733206638001,240885000000,18,706382.8470294606,-1417241615116000000,0.0,83.75909790383753,-3358.4234738944247,0.0,0,12,0.0,17,284716,487,0.0,-1002.0788392113159,0.14999,16,-12522.934009668352,0.009999999776482582,1601437440,,,,0,4.686244078399662,3,6.0,20.0,0.0,0.0,-28.019548883695986,66.7128,C,,
Raw,1733206638001,240885000000,18,706382.8470294606,-1417241615116000000,0.0,83.75909790383753,-3358.4234738944247,0.0,0,11,0.0,17,543274,487,19.399999618530273,-392.1827691565106,0.14999,16,-11730.04198378901,0.009999999776482582,1602000000,,,,0,0.0,3,6.0,19.399999618530273,0.0,0.0,-28.019548883695986,66.7128,C,,
Raw,1733206638001,240885000000,18,706382.8470294606,-1417241615116000000,0.0,83.75909790383753,-3358.4234738944247,0.0,0,8,0.0,17,429864,487,0.0,-805.9669654933092,0.14999,16,-10323.60916699339,0.009999999776482582,1605374980,,,,0,0.0,3,6.0,20.0,0.0,0.0,-28.019548883695986,66.7128,C,,
Raw,1733206638001,240885000000,18,706382.8470294606,-1417241615116000000,0.0,83.75909790383753,-3358.4234738944247,0.0,0,4,0.0,47,195455927659340,396,20.15999984741211,-1421.9679833164628,0.14999,16,-16565.37811335775,0.004900000058114529,1575420030,,,,0,0.0,1,6.0,20.15999984741211,0.0,0.0,0.0,66.7128,C,,
Raw,1733206638001,240885000000,18,706382.8470294606,-1417241615116000000,0.0,83.75909790383753,-3358.4234738944247,0.0,0,8,0.0,47,195455925206194,487,22.19499969482422,-1492.1594956144897,0.14999,16,-14386.549953562724,0.009999999776482582,1575420030,,,,0,0.8412269000142272,1,6.0,22.19499969482422,0.0,0.0,0.0,66.7128,C,,
Raw,1733206638001,240885000000,18,706382.8470294606,-1417241615116000000,0.0,83.75909790383753,-3358.4234738944247,0.0,0,16,0.0,47,195455931222244,396,24.974000930786133,-609.2835452347256,0.14999,16,-8022.468989423722,0.004900000058114529,1575420030,,,,0,4.45168437710935,1,6.0,24.974000930786133,0.0,0.0,0.0,66.7128,C,,
Raw,1733206638001,240885000000,18,706382.8470294606,-1417241615116000000,0.0,83.75909790383753,-3358.4234738944247,0.0,0,39,0.0,47,195441870814319,316,24.700000762939453,-1045.126220703125,0.14999,16,-12900.458866640376,0.002025000052526593,1561097980,,,,0,5.75603459860452,5,6.0,24.700000762939453,0.0,0.0,13.709668685568161,66.7128,I,,
Raw,1733206638001,240885000000,18,706382.8470294606,-1417241615116000000,0.0,83.75909790383753,-3358.4234738944247,0.0,0,36,0.0,47,195441926423768,487,15.600000381469727,-767.6419067382812,0.14999,16,-10682.04134981745,0.009999999776482582,1561097980,,,,0,0.0,5,6.0,15.600000381469727,0.0,0.0,13.709668685568161,66.7128,I,,
Raw,1733206638001,240885000000,18,706382.8470294606,-1417241615116000000,0.0,83.75909790383753,-3358.4234738944247,0.0,0,45,0.0,47,195441922440563,396,24.100000381469727,-1180.7320556640625,0.14999,20,-14138.554218292618,0.004900000058114529,1561097980,,,,0,4.910253356282997,5,6.0,24.100000381469727,0.0,0.0,13.709668685568161,66.7128,I,,
Raw,1733206638001,240885000000,18,706382.8470294606,-1417241615116000000,0.0,83.75909790383753,-3358.4234738944247,0.0,0,29,0.0,47,195455919630855,396,22.200000762939453,-1181.5254235574594,0.14999,25,-13008.891127206069,0.004900000058114529,1575420030,,,,0,2.3689938172833225,6,6.0,22.200000762939453,0.0,0.0,45.77711926350873,66.7128,C,,
Raw,1733206638001,240885000000,18,706382.8470294606,-1417241615116000000,0.0,83.75909790383753,-3358.4234738944247,0.0,0,27,0.0,47,195455915874869,316,25.100000381469727,-595.1495941878259,0.14999,29,-9528.288528299603,0.002025000052526593,1575420030,,,,0,6.238667173486117,6,6.0,25.100000381469727,0.0,0.0,45.77711926350873,66.7128,C,,
Raw,1733206638001,240885000000,18,706382.8470294606,-1417241615116000000,0.0,83.75909790383753,-3358.4234738944247,0.0,0,19,0.0,47,195455915047727,487,20.600000381469727,-1358.674709574209,0.14999,25,-15117.884769884184,0.009999999776482582,1575420030,,,,0,0.07329908172810728,6,6.0,20.600000381469727,0.0,0.0,45.77711926350873,66.7128,C,,
Fix,FLP,12.9313611000,77.5166258000,736.5999755859375,0.056490164,3.204,,1733206638676,1.6,,630100821000000,1.08269,0,,,
Fix,GPS,12.9313500000,77.5166333333,722.7,0.0,2.7,197.94,1733206639000,1.4,179.9,630101821000000,29.2,0,,,
Raw,1733206639001,241885000000,18,705738.5471318294,-1417241615116000000,0.0,80.16756169060714,-3369.057855069726,0.0,0,194,0.0,17,924598,316,25.0,-889.4882838421777,0.14999,21,-11974.903174585284,0.002025000052526593,1575420030,,,,0,9.011244524003889,4,6.0,25.0,0.0,,0.0,,C,,
Raw,1733206639001,241885000000,18,705738.5471318294,-1417241615116000000,0.0,80.16756169060714,-3369.057855069726,0.0,0,3,0.0,47,195456932650241,396,27.16200065612793,-894.1007683203923,0.14999,17,-12140.598132278024,0.004900000058114529,1575420030,,,,0,7.810319811856614,1,6.0,27.16200065612793,0.0,0.0,0.0,66.7128,C,,
Raw,1733206639001,241885000000,18,705738.5471318294,-1417241615116000000,0.0,80.16756169060714,-3369.057855069726,0.0,0,7,0.0,47,195456920078811,797,24.777000427246094,-1120.3793648956241,0.14999,16,-14293.882252728978,0.02250000089406967,1575420030,,,,0,4.712280612141751,1,6.0,24.777000427246094,0.0,0.0,0.0,66.7128,C,,
Raw,1733206639001,241885000000,18,705738.5471318294,-1417241615116000000,0.0,80.16756169060714,-3369.057855069726,0.0,0,27,0.0,47,195456925918082,797,24.72100067138672,-1315.8370764894553,0.14999,16,-14633.052956877425,0.02250000089406967,1575420030,,,,0,4.62628100228727,1,6.0,24.72100067138672,0.0,0.0,0.0,66.7128,C,,
Raw,1733206639001,241885000000,18,705738.5471318294,-1417241615116000000,0.0,80.16756169060714,-3369.057855069726,0.0,0,16,0.0,47,195442871192922,316,18.200000762939453,-1025.79736328125,0.14999,16,-13779.235851187372,0.002025000052526593,1561097980,,,,0,0.0,5,6.0,18.200000762939453,0.0,0.0,15.167364982570703,66.7128,I,,
Raw,1733206639001,241885000000,18,705738.5471318294,-1417241615116000000,0.0,80.16756169060714,-3369.057855069726,0.0,0,22,0.0,47,195442922776506,396,22.299999237060547,-1494.6817626953125,0.14999,16,-17967.1481765093,0.004900000058114529,1561097980,,,,0,2.542095967296153,5,6.0,22.299999237060547,0.0,0.0,15.167364982570703,66.7128,I,,
Raw,1733206639001,241885000000,18,705738.5471318294,-1417241615116000000,0.0,80.16756169060714,-3369.057855069726,0.0,0,38,0.0,47,195442869002383,487,21.479999542236328,-733.602783203125,0.14999,16,-10115.680273036352,0.009999999776482582,1561097980,,,,0,0.8278537031645016,5,6.0,21.479999542236328,0.0,0.0,15.167364982570703,66.7128,I,,
Raw,1733206639001,241885000000,18,705738.5471318294,-1417241615116000000,0.0,80.16756169060714,-3369.057855069726,0.0,0,6,0.0,47,195442873228059,797,19.100000381469727,-1004.5863037109375,0.14999,16,-13551.028916391657,0.02250000089406967,1561097980,,,,0,0.0,5,6.0,19.100000381469727,0.0,0.0,15.167364982570703,66.7128,I,,
Raw,1733206639001,241885000000,18,705738.5471318294,-1417241615116000000,0.0,80.16756169060714,-3369.057855069726,0.0,0,19,0.0,47,195442927573138,487,24.246999740600586,-995.2557983398438,0.14999,17,-13495.980715779933,0.009999999776482582,1561097980,,,,0,5.0570606195978645,5,6.0,24.246999740600586,0.0,0.0,15.167364982570703,66.7128,I,,
Raw,1733206639001,241885000000,18,705738.5471318294,-1417241615116000000,0.0,80.16756169060714,-3369.057855069726,0.0,0,40,0.0,47,195442874086708,487,20.02199935913086,-1264.777099609375,0.14999,16,-15885.238471471934,0.009999999776482582,1561097980,,,,0,0.5876755537041933,5,6.0,20.02199935913086,0.0,0.0,15.167364982570703,66.7128,I,,
Raw,1733206639001,241885000000,18,705738.5471318294,-1417241615116000000,0.0,80.16756169060714,-3369.057855069726,0.0,0,12,0.0,17,288060,487,0.0,-1005.1553338276353,0.14999,16,-13526.287313148334,0.009999999776482582,1601437440,,,,0,0.0,3,6.0,19.0,0.0,0.0,-22.938626534175253,66.7128,C,,
Raw,1733206639001,241885000000,18,705738.5471318294,-1417241615116000000,0.0,80.16756169060714,-3369.057855069726,0.0,0,11,0.0,17,544575,235,19.399999618530273,-395.9753873198867,0.14999,16,-12122.858849355585,0.0008999999845400453,1602000000,,,,0,8.04743246942225,3,6.0,19.399999618530273,0.0,0.0,-22.938626534175253,66.7128,C,,
Raw,1733206639001,241885000000,18,705738.5471318294,-1417241615116000000,0.0,80.16756169060714,-3369.057855069726,0.0,0,8,0.0,17,432555,487,0.0,-809.2057884745052,0.14999,16,-11130.50142539408,0.009999999776482582,1605374980,,,,0,0.0,3,6.0,18.0,0.0,0.0,-22.938626534175253,66.7128,C,,
Raw,1733206639001,241885000000,18,705738.5471318294,-1417241615116000000,0.0,80.16756169060714,-3369.057855069726,0.0,0,4,0.0,47,195456927664157,396,24.777000427246094,-1425.3963356823033,0.14999,16,-17988.162735237463,0.004900000058114529,1575420030,,,,0,4.712280612141751,1,6.0,24.777000427246094,0.0,0.0,0.0,66.7128,C,,
Raw,1733206639001,241885000000,18,705738.5471318294,-1417241615116000000,0.0,80.16756169060714,-3369.057855069726,0.0,0,8,0.0,47,195456925211175,797,22.19499969482422,-1496.0989834754785,0.14999,16,-15879.737113481495,0.02250000089406967,1575420030,,,,0,0.8412269000142272,1,6.0,22.19499969482422,0.0,0.0,0.0,66.7128,C,,
Raw,1733206639001,241885000000,18,705738.5471318294,-1417241615116000000,0.0,80.16756169060714,-3369.057855069726,0.0,0,16,0.0,47,195456931224258,487,24.93899917602539,-611.8465631402286,0.14999,16,-8631.979311036628,0.009999999776482582,1575420030,,,,0,3.9991919846074717,1,6.0,24.93899917602539,0.0,0.0,0.0,66.7128,C,,
Raw,1733206639001,241885000000,18,705738.5471318294,-1417241615116000000,0.0,80.16756169060714,-3369.057855069726,0.0,0,26,0.0,47,195456922594704,316,25.31399917602539,-358.4969261896133,0.14999,17,-13088.633007345366,0.002025000052526593,1575420030,,,,0,5.450205327579706,1,6.0,25.31399917602539,0.0,0.0,0.0,66.7128,C,,
Raw,1733206639001,241885000000,18,705738.5471318294,-1417241615116000000,0.0,80.16756169060714,-3369.057855069726,0.0,0,39,0.0,47,195442870817805,396,24.7549991607666,-1047.7735595703125,0.14999,17,-13945.814094506899,0.004900000058114529,1561097980,,,,0,7.082168782948017,5,6.0,24.7549991607666,0.0,0.0,15.167364982570703,66.7128,I,,
Raw,1733206639001,241885000000,18,705738.5471318294,-1417241615116000000,0.0,80.16756169060714,-3369.057855069726,0.0,0,36,0.0,47,195442926426300,396,21.200000762939453,-770.2060546875,0.14999,16,-11450.014880520754,0.004900000058114529,1561097980,,,,0,1.0615688696683936,5,6.0,21.200000762939453,0.0,0.0,15.167364982570703,66.7128,I,,
