# 
# Header Description:
# 
# Version: v3.1.0.3 Platform: 13 Manufacturer: OPPO Model: CPH2371 GNSS Hardware Model Name: MTK_MNLD_6_0_0_20040301,MNL_VER_22051902ALPS05_6.7o_00
# 
# Raw,utcTimeMillis,TimeNanos,LeapSecond,TimeUncertaintyNanos,FullBiasNanos,BiasNanos,BiasUncertaintyNanos,DriftNanosPerSecond,DriftUncertaintyNanosPerSecond,HardwareClockDiscontinuityCount,Svid,TimeOffsetNanos,State,ReceivedSvTimeNanos,ReceivedSvTimeUncertaintyNanos,Cn0DbHz,PseudorangeRateMetersPerSecond,PseudorangeRateUncertaintyMetersPerSecond,AccumulatedDeltaRangeState,AccumulatedDeltaRangeMeters,AccumulatedDeltaRangeUncertaintyMeters,CarrierFrequencyHz,CarrierCycles,CarrierPhase,CarrierPhaseUncertainty,MultipathIndicator,SnrInDb,ConstellationType,AgcDb,BasebandCn0DbHz,FullInterSignalBiasNanos,FullInterSignalBiasUncertaintyNanos,SatelliteInterSignalBiasNanos,SatelliteInterSignalBiasUncertaintyNanos,CodeType,ChipsetElapsedRealtimeNanos,IsFullTracking
# 
# UncalAccel,utcTimeMillis,elapsedRealtimeNanos,UncalAccelXMps2,UncalAccelYMps2,UncalAccelZMps2,BiasXMps2,BiasYMps2,BiasZMps2
# 
# Accel,utcTimeMillis,elapsedRealtimeNanos,AccelXMps2,AccelYMps2,AccelZMps2
# 
# UncalGyro,utcTimeMillis,elapsedRealtimeNanos,UncalGyroXRadPerSec,UncalGyroYRadPerSec,UncalGyroZRadPerSec,DriftXRadPerSec,DriftYRadPerSec,DriftZRadPerSec
# 
# Gyro,utcTimeMillis,elapsedRealtimeNanos,GyroXRadPerSec,GyroYRadPerSec,GyroZRadPerSec
# 
# UncalMag,utcTimeMillis,elapsedRealtimeNanos,UncalMagXMicroT,UncalMagYMicroT,UncalMagZMicroT,BiasXMicroT,BiasYMicroT,BiasZMicroT
# 
# Mag,utcTimeMillis,elapsedRealtimeNanos,MagXMicroT,MagYMicroT,MagZMicroT
# 
# Pressure,utcTimeMillis,elapsedRealtimeNanos,PressureHpa
# 
# OrientationDeg,utcTimeMillis,elapsedRealtimeNanos,yawDeg,rollDeg,pitchDeg
# 
# Fix,Provider,LatitudeDegrees,LongitudeDegrees,AltitudeMeters,SpeedMps,AccuracyMeters,BearingDegrees,UnixTimeMillis,SpeedAccuracyMps,BearingAccuracyDegrees,elapsedRealtimeNanos,VerticalAccuracyMeters,MockLocation,NumberOfUsedSignals,VerticalSpeedAccuracyMps,SolutionType
# 
# Nav,Svid,Type,Status,MessageId,Sub-messageId,Data(Bytes)
# 
# Status,UnixTimeMillis,SignalCount,SignalIndex,ConstellationType,Svid,CarrierFrequencyHz,Cn0DbHz,AzimuthDegrees,ElevationDegrees,UsedInFix,HasAlmanacData,HasEphemerisData,BasebandCn0DbHz
# 
# Agc,utcTimeMillis,TimeNanos,LeapSecond,TimeUncertaintyNanos,FullBiasNanos,BiasNanos,BiasUncertaintyNanos,DriftNanosPerSecond,DriftUncertaintyNanosPerSecond,HardwareClockDiscontinuityCount,AgcDb,CarrierFrequencyHz,ConstellationType
# 
Fix,FLP,12.9273123000,77.5195369000,747.7999877929688,0.013709721,18.133,,1733208000334,1.5,,631462479000000,2.3270752,0,,,
Fix,FLP,12.9272572000,77.5195214000,747.7999877929688,0.7027458,19.479,195.30054,1733208009041,1.5,45.0,631471186000000,2.4658768,0,,,
Raw,1733208014510,15012000000,18,704347.5848548531,-1417243217498999808,0.0,214.82749787939596,-3859.276346517057,0.0,0,4,0.0,47,196832440046614,396,21.67300033569336,-1556.7116995192166,0.14999,16,-22787.49937054574,0.004900000058114529,1575420030,,,,0,0.03704009723186847,1,6.0,21.67300033569336,0.0,0.0,0.0,66.7128,C,,
Raw,1733208014510,15012000000,18,704347.5848548531,-1417243217498999808,0.0,214.82749787939596,-3859.276346517057,0.0,0,8,0.0,47,196832437910170,487,19.663000106811523,-1621.7391730217776,0.14999,16,-18693.115282247847,0.009999999776482582,1575420030,,,,0,0.0,1,6.0,19.663000106811523,0.0,0.0,0.0,66.7128,C,,
Raw,1733208014510,15012000000,18,704347.5848548531,-1417243217498999808,0.0,214.82749787939596,-3859.276346517057,0.0,0,36,0.0,47,196818435745939,316,25.5,-884.706787109375,0.14999,16,-16349.344494971196,0.002025000052526593,1561097980,,,,0,6.743070554924858,5,6.0,25.5,0.0,0.0,0.36896514533023406,66.7128,I,,
Raw,1733208014510,15012000000,18,704347.5848548531,-1417243217498999808,0.0,214.82749787939596,-3859.276346517057,0.0,0,1,0.0,17,838023,1797,0.0,-1539.357865148785,0.14999,16,-21712.37322359184,0.02250000089406967,1602562560,,,,0,0.0,3,6.0,14.0,0.0,0.0,-53.51847534185497,66.7128,C,,
Raw,1733208014510,15012000000,18,704347.5848548531,-1417243217498999808,0.0,214.82749787939596,-3859.276346517057,0.0,0,12,0.0,17,419450,316,0.0,-1006.151490298166,0.14999,17,-15677.950276580943,0.002025000052526593,1601437440,,,,0,7.4071297407989825,3,6.0,26.0,0.0,0.0,-53.51847534185497,66.7128,C,,
Raw,1733208015510,16012000000,18,704327.7273673109,-1417243217498999808,0.0,207.84259619949495,-3856.360825863144,0.0,0,4,0.0,47,196833440051804,235,27.70400047302246,-1555.2985274149246,0.14999,17,-24343.42922942166,0.0008999999845400453,1575420030,,,,0,8.66535942027561,1,6.0,27.70400047302246,0.0,0.0,0.0,66.7128,C,,
Raw,1733208015510,16012000000,18,704327.7273673109,-1417243217498999808,0.0,207.84259619949495,-3856.360825863144,0.0,0,8,0.0,47,196833437915506,487,19.20400047302246,-1621.0331909290421,0.14999,16,-20314.428828725326,0.009999999776482582,1575420030,,,,0,0.0,1,6.0,19.20400047302246,0.0,0.0,0.0,66.7128,C,,
Raw,1733208015510,16012000000,18,704327.7273673109,-1417243217498999808,0.0,207.84259619949495,-3856.360825863144,0.0,0,36,0.0,47,196819435748887,396,23.0,-883.5374755859375,0.14999,16,-17235.225034030915,0.004900000058114529,1561097980,,,,0,3.4637253682454805,5,6.0,23.0,0.0,0.0,0.36896514533023406,66.7128,I,,
Raw,1733208015510,16012000000,18,704327.7273673109,-1417243217498999808,0.0,207.84259619949495,-3856.360825863144,0.0,0,1,0.0,17,843180,487,0.0,-1537.0583938011107,0.14999,16,-23250.435020754623,0.009999999776482582,1602562560,,,,0,0.0,3,6.0,20.0,0.0,0.0,-53.51847534185497,66.7128,C,,
Raw,1733208015510,16012000000,18,704327.7273673109,-1417243217498999808,0.0,207.84259619949495,-3856.360825863144,0.0,0,12,0.0,17,422804,316,0.0,-1004.6266341556268,0.14999,21,-16683.539477233444,0.002025000052526593,1601437440,,,,0,7.359535705891888,3,6.0,26.0,0.0,0.0,-53.51847534185497,66.7128,C,,
Fix,FLP,12.9272586000,77.5195737000,747.7999877929688,0.9865052,25.435,89.77257,1733208014550,1.5,45.0,631476695000000,4.746259,0,,,
Raw,1733208017000,17501000000,18,704324.0790100197,-1417243217499000064,0.0,206.01297148482087,-3846.118712542197,0.0,0,4,0.0,47,196834929059528,316,26.014999389648438,-1552.412995184088,0.14999,20,-26663.21552306967,0.002025000052526593,1575420030,,,,0,6.437312694256513,1,6.0,26.014999389648438,0.0,0.0,0.0,66.7128,C,,
Raw,1733208017000,17501000000,18,704324.0790100197,-1417243217499000064,0.0,206.01297148482087,-3846.118712542197,0.0,0,8,0.0,47,196834926923545,797,19.20400047302246,-1616.1292263475225,0.14999,16,-22730.066985564066,0.02250000089406967,1575420030,,,,0,0.0,1,6.0,19.20400047302246,0.0,0.0,0.0,66.7128,C,,
Raw,1733208017000,17501000000,18,704324.0790100197,-1417243217499000064,0.0,206.01297148482087,-3846.118712542197,0.0,0,36,0.0,47,196820924753197,1797,22.399999618530273,-882.4299926757812,0.14999,16,-18557.28049301534,0.02250000089406967,1561097980,,,,0,2.6430803711906368,5,6.0,22.399999618530273,0.0,0.0,0.36896514533023406,66.7128,I,,
Raw,1733208017000,17501000000,18,704324.0790100197,-1417243217499000064,0.0,206.01297148482087,-3846.118712542197,0.0,0,1,0.0,17,850798,396,0.0,-1532.9059362073522,0.14999,16,-25541.80011359271,0.004900000058114529,1602562560,,,,0,4.243060012891502,3,6.0,23.0,0.0,0.0,-53.51847534185497,66.7128,C,,
Raw,1733208017000,17501000000,18,704324.0790100197,-1417243217499000064,0.0,206.01297148482087,-3846.118712542197,0.0,0,12,0.0,17,427788,316,0.0,-1001.7927344441329,0.14999,17,-18183.14351822204,0.002025000052526593,1601437440,,,,0,7.117573273426524,3,6.0,26.0,0.0,0.0,-53.51847534185497,66.7128,C,,
Raw,1733208018000,18501000000,18,704322.4633089335,-1417243217499000064,0.0,202.7699900536078,-3847.796930621956,0.0,0,4,0.0,47,196835929064711,235,28.215999603271484,-1552.0251603255624,0.14999,17,-28209.808158857275,0.0008999999845400453,1575420030,,,,0,9.329494281645655,1,6.0,28.215999603271484,0.0,0.0,0.0,66.7128,C,,
Raw,1733208018000,18501000000,18,704322.4633089335,-1417243217499000064,0.0,202.7699900536078,-3847.796930621956,0.0,0,8,0.0,47,196835926928937,797,19.20400047302246,-1616.8017583805863,0.14999,16,-24340.68680159845,0.02250000089406967,1575420030,,,,0,0.0,1,6.0,19.20400047302246,0.0,0.0,0.0,66.7128,C,,
Raw,1733208018000,18501000000,18,704322.4633089335,-1417243217499000064,0.0,202.7699900536078,-3847.796930621956,0.0,0,36,0.0,47,196821924756140,487,22.399999618530273,-881.7869873046875,0.14999,16,-19433.868881112292,0.009999999776482582,1561097980,,,,0,2.6430803711906368,5,6.0,22.399999618530273,0.0,0.0,42.56307468498076,66.7128,I,,
Raw,1733208018000,18501000000,18,704322.4633089335,-1417243217499000064,0.0,202.7699900536078,-3847.796930621956,0.0,0,21,0.0,47,196835922080644,487,18.799999237060547,-1097.8296575858503,0.14999,24,-21411.017440606385,0.009999999776482582,1575420030,,,,0,0.0,6,6.0,18.799999237060547,0.0,0.0,-10.878730130748748,66.7128,C,,
Raw,1733208018000,18501000000,18,704322.4633089335,-1417243217499000064,0.0,202.7699900536078,-3847.796930621956,0.0,0,1,0.0,17,855884,487,0.0,-1532.848024678218,0.14999,16,-27068.97287441117,0.009999999776482582,1602562560,,,,0,3.597684961456406,3,6.0,20.0,0.0,0.0,-10.754222758316864,66.7128,C,,
Raw,1733208018000,18501000000,18,704322.4633089335,-1417243217499000064,0.0,202.7699900536078,-3847.796930621956,0.0,0,12,0.0,17,431127,316,0.0,-1001.4094637448362,0.14999,17,-19178.92261702179,0.002025000052526593,1601437440,,,,0,5.7047145696149855,3,6.0,24.0,0.0,0.0,-10.754222758316864,66.7128,C,,
Raw,1733208019000,19501000000,18,704320.0136976094,-1417243217499000064,0.0,153.91322817699597,-3851.7893049322033,0.0,0,4,0.0,47,196836929069885,74,29.742000579833984,-1552.9374177862726,0.14999,21,-29762.80319361638,0.0006249999860301614,1575420030,,,,0,11.231728965469223,1,6.0,29.742000579833984,0.0,0.0,0.0,66.7128,C,,
Raw,1733208019000,19501000000,18,704320.0136976094,-1417243217499000064,0.0,153.91322817699597,-3851.7893049322033,0.0,0,8,0.0,47,196836926934308,396,19.284000396728516,-1618.0734181491011,0.14999,16,-25957.81067052266,0.004900000058114529,1575420030,,,,0,0.0,1,6.0,19.284000396728516,0.0,0.0,0.0,66.7128,C,,
Raw,1733208019000,19501000000,18,704320.0136976094,-1417243217499000064,0.0,153.91322817699597,-3851.7893049322033,0.0,0,36,0.0,47,196822924759083,487,22.399999618530273,-882.72705078125,0.14999,16,-20316.107345565753,0.009999999776482582,1561097980,,,,0,2.6430803711906368,5,6.0,22.399999618530273,0.0,0.0,40.177959912628836,66.7128,I,,
Raw,1733208019000,19501000000,18,704320.0136976094,-1417243217499000064,0.0,153.91322817699597,-3851.7893049322033,0.0,0,21,0.0,47,196836922084325,396,20.200000762939453,-1099.3795103506338,0.14999,24,-22509.539505542267,0.004900000058114529,1575420030,,,,0,0.0,6,6.0,20.200000762939453,0.0,0.0,-10.878730130748748,66.7128,C,,
Raw,1733208019000,19501000000,18,704320.0136976094,-1417243217499000064,0.0,153.91322817699597,-3851.7893049322033,0.0,0,1,0.0,17,860998,487,0.0,-1533.5888172669856,0.14999,16,-28601.893291184006,0.009999999776482582,1602562560,,,,0,3.597684961456406,3,6.0,19.0,0.0,0.0,-14.827410767418478,66.7128,C,,
Raw,1733208019000,19501000000,18,704320.0136976094,-1417243217499000064,0.0,153.91322817699597,-3851.7893049322033,0.0,0,12,0.0,17,434464,235,0.0,-1002.2897157921119,0.14999,21,-20180.906175404627,0.0008999999845400453,1601437440,,,,0,9.598644641069818,3,6.0,28.0,0.0,0.0,-14.827410767418478,66.7128,C,,
Raw,1733208020000,20501000000,18,704319.0755485917,-1417243217499000064,0.0,150.24769286420104,-3851.537525344813,0.0,0,4,0.0,47,196837929075065,316,28.39699935913086,-1552.7075415428628,0.14999,17,-31315.788576174935,0.002025000052526593,1575420030,,,,0,9.554789352193623,1,6.0,28.39699935913086,0.0,0.0,0.0,66.7128,C,,
Raw,1733208020000,20501000000,18,704319.0755485917,-1417243217499000064,0.0,150.24769286420104,-3851.537525344813,0.0,0,3,0.0,47,196837931295994,316,25.183000564575195,-892.5586276526997,0.14999,17,-23395.02263191334,0.002025000052526593,1575420030,,,,0,5.2915545308480825,1,6.0,25.183000564575195,0.0,0.0,0.0,66.7128,C,,
Raw,1733208020000,20501000000,18,704319.0755485917,-1417243217499000064,0.0,150.24769286420104,-3851.537525344813,0.0,0,8,0.0,47,196837926939687,235,27.225000381469727,-1617.8022868320963,0.14999,17,-27575.805680744652,0.0008999999845400453,1575420030,,,,0,8.046685135402598,1,6.0,27.225000381469727,0.0,0.0,0.0,66.7128,C,,
Raw,1733208020000,20501000000,18,704319.0755485917,-1417243217499000064,0.0,150.24769286420104,-3851.537525344813,0.0,0,36,0.0,47,196823924762042,396,22.295000076293945,-882.2960815429688,0.14999,16,-21198.528603974955,0.004900000058114529,1561097980,,,,0,0.0,5,6.0,22.295000076293945,0.0,0.0,28.034501229572836,66.7128,I,,
Raw,1733208020000,20501000000,18,704319.0755485917,-1417243217499000064,0.0,150.24769286420104,-3851.537525344813,0.0,0,21,0.0,47,196837922087992,487,20.200000762939453,-1098.226319543456,0.14999,25,-23608.19284117222,0.009999999776482582,1575420030,,,,0,0.0,6,6.0,20.200000762939453,0.0,0.0,43.41730065180366,66.7128,C,,
Raw,1733208020000,20501000000,18,704319.0755485917,-1417243217499000064,0.0,150.24769286420104,-3851.537525344813,0.0,0,1,0.0,17,866108,316,0.0,-1532.0196340509017,0.14999,16,-30134.632896676496,0.002025000052526593,1602562560,,,,0,6.020599913279624,3,6.0,25.0,0.0,0.0,-15.375970409573533,66.7128,C,,
Raw,1733208020000,20501000000,18,704319.0755485917,-1417243217499000064,0.0,150.24769286420104,-3851.537525344813,0.0,0,12,0.0,17,437806,235,0.0,-1001.4383484433761,0.14999,17,-21182.674620593785,0.0008999999845400453,1601437440,,,,0,8.898731426965224,3,6.0,28.0,0.0,0.0,-15.375970409573533,66.7128,C,,
Raw,1733208021000,21501000000,18,704318.8670710322,-1417243217499000064,0.0,157.91979175347063,-3851.388290467624,0.0,0,4,0.0,47,196838929080244,396,25.416000366210938,-1552.2464882203894,0.14999,21,-32867.86539799799,0.004900000058114529,1575420030,,,,0,5.6060102161047425,1,6.0,25.416000366210938,0.0,0.0,0.0,66.7128,C,,
Raw,1733208021000,21501000000,18,704318.8670710322,-1417243217499000064,0.0,157.91979175347063,-3851.388290467624,0.0,0,3,0.0,47,196838931298958,396,21.875,-892.4133986436256,0.14999,20,-24287.37875287575,0.004900000058114529,1575420030,,,,0,0.3604620826654519,1,6.0,21.875,0.0,0.0,0.0,66.7128,C,,
Raw,1733208021000,21501000000,18,704318.8670710322,-1417243217499000064,0.0,157.91979175347063,-3851.388290467624,0.0,0,8,0.0,47,196838926945106,316,25.261999130249023,-1617.6868841262294,0.14999,20,-29193.85856981976,0.002025000052526593,1575420030,,,,0,5.371242150679859,1,6.0,25.261999130249023,0.0,0.0,0.0,66.7128,C,,
Raw,1733208021000,21501000000,18,704318.8670710322,-1417243217499000064,0.0,157.91979175347063,-3851.388290467624,0.0,0,36,0.0,47,196824924764995,396,24.799999237060547,-880.8950805664062,0.14999,17,-22080.085512174122,0.004900000058114529,1561097980,,,,0,5.791407469938612,5,6.0,24.799999237060547,0.0,0.0,19.997993770064934,66.7128,I,,
Raw,1733208021000,21501000000,18,704318.8670710322,-1417243217499000064,0.0,157.91979175347063,-3851.388290467624,0.0,0,21,0.0,47,196838922091660,797,17.299999237060547,-1097.4093947528097,0.14999,28,-24706.03508582388,0.02250000089406967,1575420030,,,,0,0.0,6,6.0,17.299999237060547,0.0,0.0,36.362701080626834,66.7128,C,,
Raw,1733208021000,21501000000,18,704318.8670710322,-1417243217499000064,0.0,157.91979175347063,-3851.388290467624,0.0,0,1,0.0,17,871217,396,0.0,-1531.8415149944162,0.14999,16,-31666.717592452136,0.004900000058114529,1602562560,,,,0,2.807514135782934,3,6.0,21.0,0.0,0.0,-16.12772517911923,66.7128,C,,
Raw,1733208021000,21501000000,18,704318.8670710322,-1417243217499000064,0.0,157.91979175347063,-3851.388290467624,0.0,0,12,0.0,17,441149,487,0.0,-1001.2111099605592,0.14999,20,-22183.802244034974,0.009999999776482582,1601437440,,,,0,5.992353092814469,3,6.0,20.0,0.0,0.0,-16.12772517911923,66.7128,C,,
Fix,FLP,12.9272560000,77.5195605000,747.7999877929688,0.19899297,21.868,254.01825,1733208019171,1.5,45.0,631481315000000,2.0070388,0,,,
Raw,1733208022000,22501000000,18,704317.668325065,-1417243217499000064,0.0,146.49857057091612,-3847.310328458105,0.0,0,4,0.0,47,196839929085421,74,30.18600082397461,-1549.3413505379121,0.14999,17,-34418.37999677704,0.0006249999860301614,1575420030,,,,0,11.760683855274497,1,6.0,30.18600082397461,0.0,0.0,0.0,66.7128,C,,
Raw,1733208022000,22501000000,18,704317.668325065,-1417243217499000064,0.0,146.49857057091612,-3847.310328458105,0.0,0,3,0.0,47,196839931301944,487,21.875,-890.2029072003281,0.14999,16,-25178.63602703743,0.009999999776482582,1575420030,,,,0,0.3604620826654519,1,6.0,21.875,0.0,0.0,0.0,66.7128,C,,
Raw,1733208022000,22501000000,18,704317.668325065,-1417243217499000064,0.0,146.49857057091612,-3847.310328458105,0.0,0,8,0.0,47,196839926950506,316,24.69300079345703,-1616.069945408438,0.14999,16,-30810.87052831725,0.002025000052526593,1575420030,,,,0,4.582959767157116,1,6.0,24.69300079345703,0.0,0.0,0.0,66.7128,C,,
Raw,1733208022000,22501000000,18,704317.668325065,-1417243217499000064,0.0,146.49857057091612,-3847.310328458105,0.0,0,36,0.0,47,196825924767927,316,28.5,-878.63037109375,0.14999,17,-22959.95008921907,0.002025000052526593,1561097980,,,,0,10.216978310300856,5,6.0,28.5,0.0,0.0,15.619371860569485,66.7128,I,,
Raw,1733208022000,22501000000,18,704317.668325065,-1417243217499000064,0.0,146.49857057091612,-3847.310328458105,0.0,0,60,0.0,47,196825880147248,235,28.200000762939453,-1163.7147216796875,0.14999,16,-26403.27968817907,0.0008999999845400453,1561097980,,,,0,9.936311254052987,5,6.0,28.200000762939453,0.0,0.0,15.619371860569485,66.7128,I,,
Raw,1733208022000,22501000000,18,704317.668325065,-1417243217499000064,0.0,146.49857057091612,-3847.310328458105,0.0,0,21,0.0,47,196839922095315,487,18.299999237060547,-1095.2909838904416,0.14999,24,-25802.20138303595,0.009999999776482582,1575420030,,,,0,0.0,6,6.0,18.299999237060547,0.0,0.0,35.11342506465803,66.7128,C,,
Raw,1733208022000,22501000000,18,704317.668325065,-1417243217499000064,0.0,146.49857057091612,-3847.310328458105,0.0,0,1,0.0,17,876319,797,0.0,-1530.3608432479398,0.14999,16,-33197.64710550763,0.02250000089406967,1602562560,,,,0,0.0,3,6.0,17.0,0.0,0.0,-16.8462465326458,66.7128,C,,
Raw,1733208022000,22501000000,18,704317.668325065,-1417243217499000064,0.0,146.49857057091612,-3847.310328458105,0.0,0,12,0.0,17,444477,316,0.0,-998.6342475031606,0.14999,17,-23183.7072773353,0.002025000052526593,1601437440,,,,0,6.048755171767431,3,6.0,24.0,0.0,0.0,-16.8462465326458,66.7128,C,,
Raw,1733208022000,22501000000,18,704317.668325065,-1417243217499000064,0.0,146.49857057091612,-3847.310328458105,0.0,0,7,0.0,47,196839920111551,487,20.05900001525879,-1260.8245508525677,0.14999,16,-26457.400414007472,0.009999999776482582,1575420030,,,,0,0.0,1,6.0,20.05900001525879,0.0,0.0,0.0,66.7128,C,,
Raw,1733208023000,23501000000,18,704269.9269639398,-1417243217499000064,0.0,141.79511374623388,-3842.6696519096868,0.0,0,4,0.0,47,196840929090583,316,26.358999252319336,-1547.1927417050072,0.14999,17,-35966.01560873537,0.002025000052526593,1575420030,,,,0,6.895170000643112,1,6.0,26.358999252319336,0.0,0.0,0.0,66.7128,C,,
Raw,1733208023000,23501000000,18,704269.9269639398,-1417243217499000064,0.0,141.79511374623388,-3842.6696519096868,0.0,0,3,0.0,47,196840931304894,316,24.69300079345703,-888.3118638268944,0.14999,17,-26067.602550518895,0.002025000052526593,1575420030,,,,0,4.582959767157116,1,6.0,24.69300079345703,0.0,0.0,0.0,66.7128,C,,
Raw,1733208023000,23501000000,18,704269.9269639398,-1417243217499000064,0.0,141.79511374623388,-3842.6696519096868,0.0,0,8,0.0,47,196840926955893,487,25.075000762939453,-1614.2846413902994,0.14999,17,-32425.47409471372,0.009999999776482582,1575420030,,,,0,5.129951922652247,1,6.0,25.075000762939453,0.0,0.0,0.0,66.7128,C,,
Raw,1733208023000,23501000000,18,704269.9269639398,-1417243217499000064,0.0,141.79511374623388,-3842.6696519096868,0.0,0,36,0.0,47,196826924770852,235,28.540000915527344,-877.0326538085938,0.14999,20,-23837.394657496417,0.0008999999845400453,1561097980,,,,0,11.186160218140252,5,6.0,28.540000915527344,0.0,0.0,10.390825375910394,66.7128,I,,
Raw,1733208023000,23501000000,18,704269.9269639398,-1417243217499000064,0.0,141.79511374623388,-3842.6696519096868,0.0,0,60,0.0,47,196826880151116,316,27.899999618530273,-1160.048095703125,0.14999,16,-27565.262946821338,0.002025000052526593,1561097980,,,,0,9.632435118926777,5,6.0,27.899999618530273,0.0,0.0,10.390825375910394,66.7128,I,,
Raw,1733208023000,23501000000,18,704269.9269639398,-1417243217499000064,0.0,141.79511374623388,-3842.6696519096868,0.0,0,21,0.0,47,196840922098965,487,17.799999237060547,-1093.8091462469904,0.14999,24,-26896.36029396652,0.009999999776482582,1575420030,,,,0,0.0,6,6.0,17.799999237060547,0.0,0.0,44.22700873016788,66.7128,C,,
Raw,1733208023000,23501000000,18,704269.9269639398,-1417243217499000064,0.0,141.79511374623388,-3842.6696519096868,0.0,0,1,0.0,17,881419,797,0.0,-1528.3832650054217,0.14999,16,-34726.57502907255,0.02250000089406967,1602562560,,,,0,0.0,3,6.0,17.0,0.0,0.0,-15.493317208518128,66.7128,C,,
Raw,1733208023000,23501000000,18,704269.9269639398,-1417243217499000064,0.0,141.79511374623388,-3842.6696519096868,0.0,0,8,0.0,17,630791,316,0.0,-764.8430775316025,0.14999,16,-25759.651778676976,0.002025000052526593,1605374980,,,,0,8.511934910825413,3,6.0,26.0,0.0,0.0,-15.493317208518128,66.7128,C,,
Raw,1733208023000,23501000000,18,704269.9269639398,-1417243217499000064,0.0,141.79511374623388,-3842.6696519096868,0.0,0,12,0.0,17,447806,396,0.0,-997.4394630265314,0.14999,20,-24181.4324305399,0.004900000058114529,1601437440,,,,0,0.0,3,6.0,21.0,0.0,0.0,-15.493317208518128,66.7128,C,,
Raw,1733208023000,23501000000,18,704269.9269639398,-1417243217499000064,0.0,141.79511374623388,-3842.6696519096868,0.0,0,7,0.0,47,196840920115754,797,20.05900001525879,-1260.2912082344708,0.14999,16,-27717.2984645846,0.02250000089406967,1575420030,,,,0,0.0,1,6.0,20.05900001525879,0.0,0.0,0.0,66.7128,C,,
Raw,1733208023000,23501000000,18,704269.9269639398,-1417243217499000064,0.0,141.79511374623388,-3842.6696519096868,0.0,0,22,0.0,47,196826924410132,235,25.399999618530273,-1572.116455078125,0.14999,16,-29122.811096081798,0.0008999999845400453,1561097980,,,,0,6.520801838916864,5,6.0,25.399999618530273,0.0,0.0,10.390825375910394,66.7128,I,,
Raw,1733208024000,24501000000,18,704207.1752185307,-1417243217499000064,0.0,131.88026508587853,-3840.7200359039275,0.0,0,4,0.0,47,196841929095736,396,26.40399932861328,-1544.0462060918996,0.14999,20,-37510.82151028249,0.004900000058114529,1575420030,,,,0,6.961474823672649,1,6.0,26.40399932861328,0.0,0.0,0.0,66.7128,C,,
Raw,1733208024000,24501000000,18,704207.1752185307,-1417243217499000064,0.0,131.88026508587853,-3840.7200359039275,0.0,0,3,0.0,47,196841931307859,235,29.524999618530273,-884.546130442533,0.14999,21,-26953.518247660846,0.0008999999845400453,1575420030,,,,0,10.965080953352642,1,6.0,29.524999618530273,0.0,0.0,0.0,66.7128,C,,
Raw,1733208024000,24501000000,18,704207.1752185307,-1417243217499000064,0.0,131.88026508587853,-3840.7200359039275,0.0,0,8,0.0,47,196841926961267,235,27.406999588012695,-1610.8329668995211,0.14999,20,-34037.420015250726,0.0008999999845400453,1575420030,,,,0,8.276788383509093,1,6.0,27.406999588012695,0.0,0.0,0.0,66.7128,C,,
Raw,1733208024000,24501000000,18,704207.1752185307,-1417243217499000064,0.0,131.88026508587853,-3840.7200359039275,0.0,0,36,0.0,47,196827924773766,396,24.399999618530273,-872.4965209960938,0.14999,16,-24711.17672273822,0.004900000058114529,1561097980,,,,0,5.3769062458515995,5,6.0,24.399999618530273,0.0,0.0,12.426641780254753,66.7128,I,,
Raw,1733208024000,24501000000,18,704207.1752185307,-1417243217499000064,0.0,131.88026508587853,-3840.7200359039275,0.0,0,60,0.0,47,196827880154851,316,24.899999618530273,-1154.73193359375,0.14999,16,-28723.692841081556,0.002025000052526593,1561097980,,,,0,5.953179991565492,5,6.0,24.899999618530273,0.0,0.0,12.426641780254753,66.7128,I,,
Raw,1733208024000,24501000000,18,704207.1752185307,-1417243217499000064,0.0,131.88026508587853,-3840.7200359039275,0.0,0,21,0.0,47,196841922102607,487,18.700000762939453,-1090.2063889866954,0.14999,24,-27988.122353357023,0.009999999776482582,1575420030,,,,0,0.0,6,6.0,18.700000762939453,0.0,0.0,46.41813534365008,66.7128,C,,
Raw,1733208024000,24501000000,18,704207.1752185307,-1417243217499000064,0.0,131.88026508587853,-3840.7200359039275,0.0,0,1,0.0,17,886532,797,0.0,-1525.125878506279,0.14999,16,-36253.15057279383,0.02250000089406967,1602562560,,,,0,0.0,3,6.0,17.0,0.0,0.0,-11.352912744792029,66.7128,C,,
Raw,1733208024000,24501000000,18,704207.1752185307,-1417243217499000064,0.0,131.88026508587853,-3840.7200359039275,0.0,0,8,0.0,17,633344,74,0.0,-766.4621698814225,0.14999,16,-26526.136720278715,0.0006249999860301614,1605374980,,,,0,0.0,3,6.0,30.0,0.0,0.0,-11.352912744792029,66.7128,C,,
Raw,1733208024000,24501000000,18,704207.1752185307,-1417243217499000064,0.0,131.88026508587853,-3840.7200359039275,0.0,0,12,0.0,17,451121,235,0.0,-993.647249455885,0.14999,17,-25176.264351285892,0.0008999999845400453,1601437440,,,,0,8.049752728455164,3,6.0,27.0,0.0,0.0,-11.352912744792029,66.7128,C,,
Raw,1733208024000,24501000000,18,704207.1752185307,-1417243217499000064,0.0,131.88026508587853,-3840.7200359039275,0.0,0,27,0.0,47,196841926681332,487,27.665000915527344,-1363.4692181271366,0.14999,16,-29198.93052536294,0.009999999776482582,1575420030,,,,0,8.610902253566145,1,6.0,27.665000915527344,0.0,0.0,0.0,66.7128,C,,
Raw,1733208024000,24501000000,18,704207.1752185307,-1417243217499000064,0.0,131.88026508587853,-3840.7200359039275,0.0,0,7,0.0,47,196841920119952,797,20.05900001525879,-1256.6140245914066,0.14999,16,-28975.599091011296,0.02250000089406967,1575420030,,,,0,0.0,1,6.0,20.05900001525879,0.0,0.0,0.0,66.7128,C,,
Raw,1733208024000,24501000000,18,704207.1752185307,-1417243217499000064,0.0,131.88026508587853,-3840.7200359039275,0.0,0,22,0.0,47,196827924415346,235,30.100000381469727,-1565.216552734375,0.14999,16,-30691.08933333089,0.0008999999845400453,1561097980,,,,0,12.074714554846768,5,6.0,30.100000381469727,0.0,0.0,12.426641780254753,66.7128,I,,
Raw,1733208024000,24501000000,18,704207.1752185307,-1417243217499000064,0.0,131.88026508587853,-3840.7200359039275,0.0,0,7,0.0,47,196841912096027,487,20.5,-950.943105138148,0.14999,24,-28319.772130989924,0.009999999776482582,1575420030,,,,0,0.0,6,6.0,20.5,0.0,0.0,46.41813534365008,66.7128,C,,
Raw,1733208025000,25501000000,18,704130.8203123643,-1417243217499000064,0.0,107.58439667837224,-3840.1367509671763,0.0,0,4,0.0,47,196842929100881,487,23.802000045776367,-1542.1782060929063,0.14999,16,-39053.3479929088,0.009999999776482582,1575420030,,,,0,3.2729287920284698,1,6.0,23.802000045776367,0.0,0.0,0.0,66.7128,C,,
Raw,1733208025000,25501000000,18,704130.8203123643,-1417243217499000064,0.0,107.58439667837224,-3840.1367509671763,0.0,0,3,0.0,47,196842931310805,396,26.197999954223633,-883.5857420626287,0.14999,20,-27837.533728186052,0.004900000058114529,1575420030,,,,0,6.659034186276253,1,6.0,26.197999954223633,0.0,0.0,0.0,66.7128,C,,
Raw,1733208025000,25501000000,18,704130.8203123643,-1417243217499000064,0.0,107.58439667837224,-3840.1367509671763,0.0,0,8,0.0,47,196842926966637,396,24.349000930786133,-1608.8181583053026,0.14999,16,-35646.784391978996,0.004900000058114529,1575420030,,,,0,4.091595937342375,1,6.0,24.349000930786133,0.0,0.0,0.0,66.7128,C,,
Raw,1733208025000,25501000000,18,704130.8203123643,-1417243217499000064,0.0,107.58439667837224,-3840.1367509671763,0.0,0,36,0.0,47,196828924776671,487,21.600000381469727,-871.328369140625,0.14999,16,-25582.348353111076,0.009999999776482582,1561097980,,,,0,1.5910838219158583,5,6.0,21.600000381469727,0.0,0.0,21.44897133038935,66.7128,I,,
Raw,1733208025000,25501000000,18,704130.8203123643,-1417243217499000064,0.0,107.58439667837224,-3840.1367509671763,0.0,0,60,0.0,47,196828880158700,74,26.899999618530273,-1154.8099365234375,0.14999,16,-29877.128922675278,0.0006249999860301614,1561097980,,,,0,8.412383404089734,5,6.0,26.899999618530273,0.0,0.0,21.44897133038935,66.7128,I,,
Raw,1733208025000,25501000000,18,704130.8203123643,-1417243217499000064,0.0,107.58439667837224,-3840.1367509671763,0.0,0,21,0.0,47,196842922106237,797,15.600000381469727,-1087.845372274876,0.14999,24,-29076.715808776953,0.02250000089406967,1575420030,,,,0,0.0,6,6.0,15.600000381469727,0.0,0.0,48.630380175417486,66.7128,C,,
Raw,1733208025000,25501000000,18,704130.8203123643,-1417243217499000064,0.0,107.58439667837224,-3840.1367509671763,0.0,0,1,0.0,17,891615,1797,0.0,-1523.1171522646523,0.14999,16,-37776.88424920522,0.02250000089406967,1602562560,,,,0,0.0,3,6.0,14.0,0.0,0.0,-14.380561099039987,66.7128,C,,
Raw,1733208025000,25501000000,18,704130.8203123643,-1417243217499000064,0.0,107.58439667837224,-3840.1367509671763,0.0,0,8,0.0,17,635908,235,0.0,-765.7516713265385,0.14999,16,-27292.554653116575,0.0008999999845400453,1605374980,,,,0,10.05005971817239,3,6.0,29.0,0.0,0.0,-14.380561099039987,66.7128,C,,
Raw,1733208025000,25501000000,18,704130.8203123643,-1417243217499000064,0.0,107.58439667837224,-3840.1367509671763,0.0,0,12,0.0,17,454427,396,0.0,-991.2181925603188,0.14999,20,-26168.105825338138,0.004900000058114529,1601437440,,,,0,8.44764930279395,3,6.0,21.0,0.0,0.0,-14.380561099039987,66.7128,C,,
Raw,1733208025000,25501000000,18,704130.8203123643,-1417243217499000064,0.0,107.58439667837224,-3840.1367509671763,0.0,0,27,0.0,47,196842926685954,487,21.792999267578125,-1360.9646449092263,0.14999,16,-30560.5817279559,0.009999999776482582,1575420030,,,,0,0.21806726020649336,1,6.0,21.792999267578125,0.0,0.0,0.0,66.7128,C,,
Raw,1733208025000,25501000000,18,704130.8203123643,-1417243217499000064,0.0,107.58439667837224,-3840.1367509671763,0.0,0,7,0.0,47,196842920124137,797,19.558000564575195,-1254.188988182049,0.14999,16,-30230.43042879041,0.02250000089406967,1575420030,,,,0,0.0,1,6.0,19.558000564575195,0.0,0.0,0.0,66.7128,C,,
Raw,1733208025000,25501000000,18,704130.8203123643,-1417243217499000064,0.0,107.58439667837224,-3840.1367509671763,0.0,0,45,0.0,47,196828922618230,316,24.100000381469727,-1239.811279296875,0.14999,16,-30260.870871925268,0.002025000052526593,1561097980,,,,0,4.899052981245433,5,6.0,24.100000381469727,0.0,0.0,21.44897133038935,66.7128,I,,
Raw,1733208025000,25501000000,18,704130.8203123643,-1417243217499000064,0.0,107.58439667837224,-3840.1367509671763,0.0,0,22,0.0,47,196828924420558,74,30.100000381469727,-1561.1636962890625,0.14999,16,-32254.007793987177,0.0006249999860301614,1561097980,,,,0,12.074714554846768,5,6.0,30.100000381469727,0.0,0.0,21.44897133038935,66.7128,I,,
Raw,1733208025000,25501000000,18,704130.8203123643,-1417243217499000064,0.0,107.58439667837224,-3840.1367509671763,0.0,0,19,0.0,47,196828926755765,74,30.700000762939453,-1003.5108032226562,0.14999,16,-29769.80249827833,0.0006249999860301614,1561097980,,,,0,12.739885317353723,5,6.0,30.700000762939453,0.0,0.0,21.44897133038935,66.7128,I,,
Raw,1733208026000,26501000000,18,704069.9448649905,-1417243217499000064,0.0,98.43796545823758,-3838.8487951434395,0.0,0,4,0.0,47,196843929106020,487,19.326000213623047,-1540.125952015222,0.14999,16,-40594.42861964464,0.009999999776482582,1575420030,,,,0,0.0,1,6.0,19.326000213623047,0.0,0.0,0.0,66.7128,C,,
Raw,1733208026000,26501000000,18,704069.9448649905,-1417243217499000064,0.0,98.43796545823758,-3838.8487951434395,0.0,0,3,0.0,47,196843931313746,316,25.643999099731445,-881.0742929991195,0.14999,16,-28719.855659774767,0.002025000052526593,1575420030,,,,0,5.909478274397872,1,6.0,25.643999099731445,0.0,0.0,0.0,66.7128,C,,
Raw,1733208026000,26501000000,18,704069.9448649905,-1417243217499000064,0.0,98.43796545823758,-3838.8487951434395,0.0,0,8,0.0,47,196843926971999,316,25.618999481201172,-1606.702999532069,0.14999,16,-37254.284017603386,0.002025000052526593,1575420030,,,,0,5.872119551695486,1,6.0,25.618999481201172,0.0,0.0,0.0,66.7128,C,,
Raw,1733208026000,26501000000,18,704069.9448649905,-1417243217499000064,0.0,98.43796545823758,-3838.8487951434395,0.0,0,36,0.0,47,196829924779572,396,21.65999984741211,-869.44775390625,0.14999,16,-26452.408119788954,0.004900000058114529,1561097980,,,,0,3.2771360527733915,5,6.0,21.65999984741211,0.0,0.0,35.647016736422444,66.7128,I,,
Raw,1733208026000,26501000000,18,704069.9448649905,-1417243217499000064,0.0,98.43796545823758,-3838.8487951434395,0.0,0,60,0.0,47,196829880162544,58,29.700000762939453,-1154.7210693359375,0.14999,16,-31029.830151693874,0.00039999998989515007,1561097980,,,,0,11.663741676606985,5,6.0,29.700000762939453,0.0,0.0,35.647016736422444,66.7128,I,,
Raw,1733208026000,26501000000,18,704069.9448649905,-1417243217499000064,0.0,98.43796545823758,-3838.8487951434395,0.0,0,21,0.0,47,196843922109862,487,15.600000381469727,-1086.3609329601168,0.14999,24,-30163.71793539066,0.009999999776482582,1575420030,,,,0,0.0,6,6.0,15.600000381469727,0.0,0.0,46.92778788604096,66.7128,C,,
Raw,1733208026000,26501000000,18,704069.9448649905,-1417243217499000064,0.0,98.43796545823758,-3838.8487951434395,0.0,0,1,0.0,17,896691,797,0.0,-1520.634355303457,0.14999,16,-39298.653157959256,0.02250000089406967,1602562560,,,,0,0.0,3,6.0,16.0,0.0,0.0,-16.45423499830104,66.7128,C,,
Raw,1733208026000,26501000000,18,704069.9448649905,-1417243217499000064,0.0,98.43796545823758,-3838.8487951434395,0.0,0,8,0.0,17,638458,396,0.0,-764.4038942295492,0.14999,16,-28057.51523215627,0.004900000058114529,1605374980,,,,0,5.524128238778982,3,6.0,23.0,0.0,0.0,-16.45423499830104,66.7128,C,,
Raw,1733208026000,26501000000,18,704069.9448649905,-1417243217499000064,0.0,98.43796545823758,-3838.8487951434395,0.0,0,12,0.0,17,457728,396,0.0,-989.9629878756677,0.14999,16,-27158.6073113171,0.004900000058114529,1601437440,,,,0,0.0,3,6.0,21.0,0.0,0.0,-16.45423499830104,66.7128,C,,
Raw,1733208026000,26501000000,18,704069.9448649905,-1417243217499000064,0.0,98.43796545823758,-3838.8487951434395,0.0,0,27,0.0,47,196843926690587,396,22.31100082397461,-1359.115599944047,0.14999,16,-31920.437242784337,0.004900000058114529,1575420030,,,,0,1.039392673219209,1,6.0,22.31100082397461,0.0,0.0,0.0,66.7128,C,,
Raw,1733208026000,26501000000,18,704069.9448649905,-1417243217499000064,0.0,98.43796545823758,-3838.8487951434395,0.0,0,7,0.0,47,196843920128317,797,19.558000564575195,-1252.4688188634375,0.14999,16,-31483.56616184811,0.02250000089406967,1575420030,,,,0,0.0,1,6.0,19.558000564575195,0.0,0.0,0.0,66.7128,C,,
Raw,1733208026000,26501000000,18,704069.9448649905,-1417243217499000064,0.0,98.43796545823758,-3838.8487951434395,0.0,0,45,0.0,47,196829922622368,235,25.700000762939453,-1234.996337890625,0.14999,16,-31501.042657153543,0.0008999999845400453,1561097980,,,,0,6.8931112450899645,5,6.0,25.700000762939453,0.0,0.0,35.647016736422444,66.7128,I,,
Raw,1733208026000,26501000000,18,704069.9448649905,-1417243217499000064,0.0,98.43796545823758,-3838.8487951434395,0.0,0,7,0.0,47,196829876835002,58,34.599998474121094,-1320.1519775390625,0.14999,17,-31353.593373755553,0.00039999998989515007,1561097980,,,,0,17.042989412839283,5,6.0,34.599998474121094,0.0,0.0,35.647016736422444,66.7128,I,,
Raw,1733208026000,26501000000,18,704069.9448649905,-1417243217499000064,0.0,98.43796545823758,-3838.8487951434395,0.0,0,22,0.0,47,196829924425746,316,29.299999237060547,-1559.2874755859375,0.14999,16,-33812.39517612474,0.002025000052526593,1561097980,,,,0,11.207747741223454,5,6.0,29.299999237060547,0.0,0.0,35.647016736422444,66.7128,I,,
Raw,1733208026000,26501000000,18,704069.9448649905,-1417243217499000064,0.0,98.43796545823758,-3838.8487951434395,0.0,0,40,0.0,47,196829874763274,316,26.700000762939453,-1374.979248046875,0.14999,16,-31687.65532881578,0.002025000052526593,1561097980,,,,0,8.10090378694008,5,6.0,26.700000762939453,0.0,0.0,35.647016736422444,66.7128,I,,
Raw,1733208026000,26501000000,18,704069.9448649905,-1417243217499000064,0.0,98.43796545823758,-3838.8487951434395,0.0,0,19,0.0,47,196829926759096,51,36.599998474121094,-1000.9375610351562,0.14999,16,-30771.33773723685,0.00022499999613501132,1561097980,,,,0,19.119603723271375,5,6.0,36.599998474121094,0.0,0.0,35.647016736422444,66.7128,I,,
Raw,1733208026000,26501000000,18,704069.9448649905,-1417243217499000064,0.0,98.43796545823758,-3838.8487951434395,0.0,0,7,0.0,47,196843912102345,487,17.100000381469727,-947.297048633945,0.14999,24,-30216.123084045517,0.009999999776482582,1575420030,,,,0,0.0,6,6.0,17.100000381469727,0.0,0.0,46.92778788604096,66.7128,C,,
Fix,FLP,12.9272797000,77.5195602000,747.7999877929688,0.48557332,19.89,357.76443,1733208024187,1.5,45.0,631486332000000,3.261814,0,,,
Raw,1733208027000,27501000000,18,704026.060338716,-1417243217499000064,0.0,99.4772802985407,-3834.916065475329,0.0,0,4,0.0,47,196844929111152,487,21.4950008392334,-1538.1601105916893,0.14999,16,-42133.38395046794,0.009999999776482582,1575420030,,,,0,0.0,1,6.0,21.4950008392334,0.0,0.0,0.0,66.7128,C,,
Raw,1733208027000,27501000000,18,704026.060338716,-1417243217499000064,0.0,99.4772802985407,-3834.916065475329,0.0,0,3,0.0,47,196844931316678,235,27.875999450683594,-880.084728733835,0.14999,17,-29599.81599923514,0.0008999999845400453,1575420030,,,,0,8.879836728111075,1,6.0,27.875999450683594,0.0,0.0,0.0,66.7128,C,,
Raw,1733208027000,27501000000,18,704026.060338716,-1417243217499000064,0.0,99.4772802985407,-3834.916065475329,0.0,0,8,0.0,47,196844926977357,235,27.506000518798828,-1605.7615661859788,0.14999,16,-38860.24883668893,0.0008999999845400453,1575420030,,,,0,8.417567634414242,1,6.0,27.506000518798828,0.0,0.0,0.0,66.7128,C,,
Raw,1733208027000,27501000000,18,704026.060338716,-1417243217499000064,0.0,99.4772802985407,-3834.916065475329,0.0,0,36,0.0,47,196830924782469,487,21.75200080871582,-867.1341552734375,0.14999,16,-27321.230735084682,0.009999999776482582,1561097980,,,,0,4.104989755937893,5,6.0,21.75200080871582,0.0,0.0,42.710981260856585,66.7128,I,,
Raw,1733208027000,27501000000,18,704026.060338716,-1417243217499000064,0.0,99.4772802985407,-3834.916065475329,0.0,0,60,0.0,47,196830880166359,316,29.625,-1141.727783203125,0.14999,16,-32177.27113739954,0.002025000052526593,1561097980,,,,0,9.89700043360188,5,6.0,29.625,0.0,0.0,42.710981260856585,66.7128,I,,
Raw,1733208027000,27501000000,18,704026.060338716,-1417243217499000064,0.0,99.4772802985407,-3834.916065475329,0.0,0,21,0.0,47,196844922113482,487,18.5,-1084.2178062203247,0.14999,24,-31249.153431450413,0.009999999776482582,1575420030,,,,0,0.0,6,6.0,18.5,0.0,0.0,45.788699728909364,66.7128,C,,
Raw,1733208027000,27501000000,18,704026.060338716,-1417243217499000064,0.0,99.4772802985407,-3834.916065475329,0.0,0,1,0.0,17,901768,797,0.0,-1516.8881918446968,0.14999,16,-40817.82152800333,0.02250000089406967,1602562560,,,,0,0.0,3,6.0,15.0,0.0,0.0,-17.082221050349652,66.7128,C,,
Raw,1733208027000,27501000000,18,704026.060338716,-1417243217499000064,0.0,99.4772802985407,-3834.916065475329,0.0,0,8,0.0,17,641002,487,0.0,-762.6384986287909,0.14999,16,-28820.574079310227,0.009999999776482582,1605374980,,,,0,0.0,3,6.0,20.0,0.0,0.0,-17.082221050349652,66.7128,C,,
Raw,1733208027000,27501000000,18,704026.060338716,-1417243217499000064,0.0,99.4772802985407,-3834.916065475329,0.0,0,12,0.0,17,461026,487,0.0,-986.7736052761308,0.14999,16,-28146.725212177163,0.009999999776482582,1601437440,,,,0,2.3837281543841735,3,6.0,19.0,0.0,0.0,-17.082221050349652,66.7128,C,,
Raw,1733208027000,27501000000,18,704026.060338716,-1417243217499000064,0.0,99.4772802985407,-3834.916065475329,0.0,0,11,0.0,17,222533,797,20.100000381469727,-520.0009275008239,0.14999,16,-30025.960402052595,0.02250000089406967,1602000000,,,,0,0.0,3,6.0,20.100000381469727,0.0,0.0,-17.082221050349652,66.7128,C,,
Raw,1733208027000,27501000000,18,704026.060338716,-1417243217499000064,0.0,99.4772802985407,-3834.916065475329,0.0,0,27,0.0,47,196844926695135,487,22.7450008392334,-1357.0622308643735,0.14999,16,-33278.295062644,0.009999999776482582,1575420030,,,,0,1.7463206385879073,1,6.0,22.7450008392334,0.0,0.0,0.0,66.7128,C,,
Raw,1733208027000,27501000000,18,704026.060338716,-1417243217499000064,0.0,99.4772802985407,-3834.916065475329,0.0,0,7,0.0,47,196844920132492,797,19.558000564575195,-1250.6924348612115,0.14999,16,-32734.95970670795,0.02250000089406967,1575420030,,,,0,0.0,1,6.0,19.558000564575195,0.0,0.0,0.0,66.7128,C,,
Raw,1733208027000,27501000000,18,704026.060338716,-1417243217499000064,0.0,99.4772802985407,-3834.916065475329,0.0,0,45,0.0,47,196830922626483,396,23.799999237060547,-1235.82470703125,0.14999,16,-32737.3046437577,0.004900000058114529,1561097980,,,,0,4.5448756300612505,5,6.0,23.799999237060547,0.0,0.0,42.710981260856585,66.7128,I,,
Raw,1733208027000,27501000000,18,704026.060338716,-1417243217499000064,0.0,99.4772802985407,-3834.916065475329,0.0,0,7,0.0,47,196830876839405,235,29.299999237060547,-1319.03662109375,0.14999,21,-32672.878964041185,0.0008999999845400453,1561097980,,,,0,11.136097315064164,5,6.0,29.299999237060547,0.0,0.0,42.710981260856585,66.7128,I,,
Raw,1733208027000,27501000000,18,704026.060338716,-1417243217499000064,0.0,99.4772802985407,-3834.916065475329,0.0,0,22,0.0,47,196830924430897,316,24.5,-1557.5299072265625,0.14999,16,-35369.91074372438,0.002025000052526593,1561097980,,,,0,5.411635958806494,5,6.0,24.5,0.0,0.0,42.710981260856585,66.7128,I,,
Raw,1733208027000,27501000000,18,704026.060338716,-1417243217499000064,0.0,99.4772802985407,-3834.916065475329,0.0,0,40,0.0,17,767850,235,0.0,-1404.809326171875,0.14999,16,-33059.90477801679,0.0008999999845400453,1561097980,,,,0,7.359535705891888,5,6.0,27.0,0.0,0.0,42.710981260856585,66.7128,I,,
Raw,1733208027000,27501000000,18,704026.060338716,-1417243217499000064,0.0,99.4772802985407,-3834.916065475329,0.0,0,19,0.0,47,196830926762425,51,35.599998474121094,-999.2203979492188,0.14999,17,-31771.333700186282,0.00022499999613501132,1561097980,,,,0,18.106921345923354,5,6.0,35.599998474121094,0.0,0.0,42.710981260856585,66.7128,I,,
Raw,1733208027000,27501000000,18,704026.060338716,-1417243217499000064,0.0,99.4772802985407,-3834.916065475329,0.0,0,7,0.0,47,196844912105496,487,16.5,-944.7755645525342,0.14999,24,-31161.254540624075,0.009999999776482582,1575420030,,,,0,0.0,6,6.0,16.5,0.0,0.0,45.788699728909364,66.7128,C,,
Raw,1733208028000,28501000000,18,703962.422563679,-1417243217499000064,0.0,101.33693473980274,-3828.8458724037678,0.0,0,4,0.0,47,196845929116281,487,21.4950008392334,-1535.9439512216143,0.14999,16,-43671.18451862163,0.009999999776482582,1575420030,,,,0,0.0,1,6.0,21.4950008392334,0.0,0.0,0.0,66.7128,C,,
Raw,1733208028000,28501000000,18,703962.422563679,-1417243217499000064,0.0,101.33693473980274,-3828.8458724037678,0.0,0,3,0.0,47,196845931319607,487,23.281999588012695,-876.6190238013612,0.14999,20,-30478.082132837022,0.009999999776482582,1575420030,,,,0,2.535501592965945,1,6.0,23.281999588012695,0.0,0.0,0.0,66.7128,C,,
Raw,1733208028000,28501000000,18,703962.422563679,-1417243217499000064,0.0,101.33693473980274,-3828.8458724037678,0.0,0,8,0.0,47,196845926982712,235,29.726999282836914,-1602.9043735890307,0.14999,16,-40464.80405127003,0.0008999999845400453,1575420030,,,,0,11.211505697571978,1,6.0,29.726999282836914,0.0,0.0,0.0,66.7128,C,,
Raw,1733208028000,28501000000,18,703962.422563679,-1417243217499000064,0.0,101.33693473980274,-3828.8458724037678,0.0,0,36,0.0,47,196831924785361,316,21.849000930786133,-864.0946044921875,0.14999,16,-28188.35111458204,0.002025000052526593,1561097980,,,,0,4.382517825617661,5,6.0,21.849000930786133,0.0,0.0,44.61820253066006,66.7128,I,,
Raw,1733208028000,28501000000,18,703962.422563679,-1417243217499000064,0.0,101.33693473980274,-3828.8458724037678,0.0,0,60,0.0,47,196831880170173,235,24.299999237060547,-1144.7821044921875,0.14999,16,-33321.15891391133,0.0008999999845400453,1561097980,,,,0,5.264828695491628,5,6.0,24.299999237060547,0.0,0.0,44.61820253066006,66.7128,I,,
Raw,1733208028000,28501000000,18,703962.422563679,-1417243217499000064,0.0,101.33693473980274,-3828.8458724037678,0.0,0,21,0.0,47,196845922117108,487,19.799999237060547,-1080.0788259201279,0.14999,25,-32331.57114460304,0.009999999776482582,1575420030,,,,0,0.0,6,6.0,19.799999237060547,0.0,0.0,43.13838664879904,66.7128,C,,
Raw,1733208028000,28501000000,18,703962.422563679,-1417243217499000064,0.0,101.33693473980274,-3828.8458724037678,0.0,0,1,0.0,17,906821,797,0.0,-1512.9368717701082,0.14999,16,-42332.857552093265,0.02250000089406967,1602562560,,,,0,0.0,3,6.0,16.0,0.0,0.0,-18.699138872205786,66.7128,C,,
Raw,1733208028000,28501000000,18,703962.422563679,-1417243217499000064,0.0,101.33693473980274,-3828.8458724037678,0.0,0,8,0.0,17,643548,235,0.0,-760.1449605472798,0.14999,16,-29582.36922774602,0.0008999999845400453,1605374980,,,,0,10.163109769192625,3,6.0,29.0,0.0,0.0,-18.699138872205786,66.7128,C,,
Raw,1733208028000,28501000000,18,703962.422563679,-1417243217499000064,0.0,101.33693473980274,-3828.8458724037678,0.0,0,12,0.0,17,464316,487,0.0,-984.8014933425926,0.14999,16,-29133.353090664255,0.009999999776482582,1601437440,,,,0,0.0,3,6.0,18.0,0.0,0.0,-18.699138872205786,66.7128,C,,
Raw,1733208028000,28501000000,18,703962.422563679,-1417243217499000064,0.0,101.33693473980274,-3828.8458724037678,0.0,0,11,0.0,17,224264,797,28.399999618530273,-518.0543620709004,0.14999,16,-30545.01043301479,0.02250000089406967,1602000000,,,,0,0.0,3,6.0,28.399999618530273,0.0,0.0,-18.699138872205786,66.7128,C,,
Raw,1733208028000,28501000000,18,703962.422563679,-1417243217499000064,0.0,101.33693473980274,-3828.8458724037678,0.0,0,27,0.0,47,196845926699696,396,23.986000061035156,-1354.8561994290324,0.14999,16,-34634.54163976193,0.004900000058114529,1575420030,,,,0,3.570759900055372,1,6.0,23.986000061035156,0.0,0.0,0.0,66.7128,C,,
Raw,1733208028000,28501000000,18,703962.422563679,-1417243217499000064,0.0,101.33693473980274,-3828.8458724037678,0.0,0,7,0.0,47,196845920136651,487,19.60300064086914,-1247.2614808240633,0.14999,16,-33984.25998533595,0.009999999776482582,1575420030,,,,0,0.0,1,6.0,19.60300064086914,0.0,0.0,0.0,66.7128,C,,
Raw,1733208028000,28501000000,18,703962.422563679,-1417243217499000064,0.0,101.33693473980274,-3828.8458724037678,0.0,0,45,0.0,47,196831922630599,396,23.799999237060547,-1234.245849609375,0.14999,16,-33971.55407977582,0.004900000058114529,1561097980,,,,0,4.5448756300612505,5,6.0,23.799999237060547,0.0,0.0,44.61820253066006,66.7128,I,,
Raw,1733208028000,28501000000,18,703962.422563679,-1417243217499000064,0.0,101.33693473980274,-3828.8458724037678,0.0,0,7,0.0,47,196831876843802,235,25.799999237060547,-1316.093017578125,0.14999,17,-33990.29006435723,0.0008999999845400453,1561097980,,,,0,7.123705211300729,5,6.0,25.799999237060547,0.0,0.0,44.61820253066006,66.7128,I,,
Raw,1733208028000,28501000000,18,703962.422563679,-1417243217499000064,0.0,101.33693473980274,-3828.8458724037678,0.0,0,22,0.0,47,196831924436104,235,28.0,-1554.7373046875,0.14999,17,-36926.68083574414,0.0008999999845400453,1561097980,,,,0,9.721521947451778,5,6.0,28.0,0.0,0.0,44.61820253066006,66.7128,I,,
Raw,1733208028000,28501000000,18,703962.422563679,-1417243217499000064,0.0,101.33693473980274,-3828.8458724037678,0.0,0,40,0.0,17,772507,316,0.0,-1419.1561279296875,0.14999,16,-34456.37758040068,0.002025000052526593,1561097980,,,,0,6.4616027281411075,5,6.0,25.0,0.0,0.0,44.61820253066006,66.7128,I,,
Raw,1733208028000,28501000000,18,703962.422563679,-1417243217499000064,0.0,101.33693473980274,-3828.8458724037678,0.0,0,19,0.0,47,196831926765755,42,39.29999923706055,-996.7877197265625,0.14999,17,-32769.26995246136,0.00022499999613501132,1561097980,,,,0,21.952664692543046,5,6.0,39.29999923706055,0.0,0.0,44.61820253066006,66.7128,I,,
Raw,1733208028000,28501000000,18,703962.422563679,-1417243217499000064,0.0,101.33693473980274,-3828.8458724037678,0.0,0,29,0.0,47,196845919941207,235,28.200000762939453,-1284.1148053167376,0.14999,25,-33231.58455650485,0.0008999999845400453,1575420030,,,,0,9.94983804617841,6,6.0,28.200000762939453,0.0,0.0,43.13838664879904,66.7128,C,,
Raw,1733208029000,29501000000,18,703931.1509297543,-1417243217499000064,0.0,101.81982165045957,-3820.9750164051525,0.0,0,4,0.0,47,196846929121399,487,20.474000930786133,-1532.9817626040303,0.14999,16,-45205.88834381184,0.009999999776482582,1575420030,,,,0,0.0,1,6.0,20.474000930786133,0.0,0.0,0.0,66.7128,C,,
Raw,1733208029000,29501000000,18,703931.1509297543,-1417243217499000064,0.0,101.81982165045957,-3820.9750164051525,0.0,0,3,0.0,47,196846931322529,797,23.281999588012695,-875.6720154453257,0.14999,16,-31354.15148107045,0.02250000089406967,1575420030,,,,0,2.535501592965945,1,6.0,23.281999588012695,0.0,0.0,0.0,66.7128,C,,
Raw,1733208029000,29501000000,18,703931.1509297543,-1417243217499000064,0.0,101.81982165045957,-3820.9750164051525,0.0,0,8,0.0,47,196846926988054,487,23.95599937438965,-1601.562840362535,0.14999,17,-42067.82563081932,0.009999999776482582,1575420030,,,,0,3.5218251811136247,1,6.0,23.95599937438965,0.0,0.0,0.0,66.7128,C,,
Raw,1733208029000,29501000000,18,703931.1509297543,-1417243217499000064,0.0,101.81982165045957,-3820.9750164051525,0.0,0,36,0.0,47,196832924788238,316,26.200000762939453,-861.295166015625,0.14999,17,-29051.547300288126,0.002025000052526593,1561097980,,,,0,7.513272279217707,5,6.0,26.200000762939453,0.0,0.0,44.1749576731758,66.7128,I,,
Raw,1733208029000,29501000000,18,703931.1509297543,-1417243217499000064,0.0,101.81982165045957,-3820.9750164051525,0.0,0,60,0.0,47,196832880173984,316,21.200000762939453,-1139.9754638671875,0.14999,16,-34462.992552076255,0.002025000052526593,1561097980,,,,0,0.9422508929128239,5,6.0,21.200000762939453,0.0,0.0,44.1749576731758,66.7128,I,,
Raw,1733208029000,29501000000,18,703931.1509297543,-1417243217499000064,0.0,101.81982165045957,-3820.9750164051525,0.0,0,21,0.0,47,196846922120716,487,19.399999618530273,-1079.46102190136,0.14999,28,-33411.73250689033,0.009999999776482582,1575420030,,,,0,0.0,6,6.0,19.399999618530273,0.0,0.0,42.755265752679904,66.7128,C,,
Raw,1733208029000,29501000000,18,703931.1509297543,-1417243217499000064,0.0,101.81982165045957,-3820.9750164051525,0.0,0,1,0.0,17,911877,487,0.0,-1513.3150322284928,0.14999,16,-43846.80770729501,0.009999999776482582,1602562560,,,,0,0.0,3,6.0,19.0,0.0,0.0,-19.98526951863314,66.7128,C,,
Raw,1733208029000,29501000000,18,703931.1509297543,-1417243217499000064,0.0,101.81982165045957,-3820.9750164051525,0.0,0,8,0.0,17,646076,396,0.0,-757.9899396481361,0.14999,16,-30341.95313604161,0.004900000058114529,1605374980,,,,0,2.0341779177965025,3,6.0,22.0,0.0,0.0,-19.98526951863314,66.7128,C,,
Raw,1733208029000,29501000000,18,703931.1509297543,-1417243217499000064,0.0,101.81982165045957,-3820.9750164051525,0.0,0,12,0.0,17,467599,487,0.0,-981.5421841785524,0.14999,16,-30117.60554915858,0.009999999776482582,1601437440,,,,0,0.0,3,6.0,20.0,0.0,0.0,-19.98526951863314,66.7128,C,,
Raw,1733208029000,29501000000,18,703931.1509297543,-1417243217499000064,0.0,101.81982165045957,-3820.9750164051525,0.0,0,11,0.0,17,225951,797,21.899999618530273,-516.0825770916807,0.14999,16,-31060.93631318272,0.02250000089406967,1602000000,,,,0,0.0,3,6.0,21.899999618530273,0.0,0.0,-19.98526951863314,66.7128,C,,
Raw,1733208029000,29501000000,18,703931.1509297543,-1417243217499000064,0.0,101.81982165045957,-3820.9750164051525,0.0,0,27,0.0,47,196846926704224,235,28.63800048828125,-1353.3636763498525,0.14999,16,-35988.69055054238,0.0008999999845400453,1575420030,,,,0,9.85568113891928,1,6.0,28.63800048828125,0.0,0.0,0.0,66.7128,C,,
Raw,1733208029000,29501000000,18,703931.1509297543,-1417243217499000064,0.0,101.81982165045957,-3820.9750164051525,0.0,0,7,0.0,47,196846920140806,797,19.645999908447266,-1243.7978200619027,0.14999,16,-35230.08996339399,0.02250000089406967,1575420030,,,,0,0.0,1,6.0,19.645999908447266,0.0,0.0,0.0,66.7128,C,,
Raw,1733208029000,29501000000,18,703931.1509297543,-1417243217499000064,0.0,101.81982165045957,-3820.9750164051525,0.0,0,45,0.0,47,196832922634724,396,23.739999771118164,-1237.132080078125,0.14999,16,-35206.50786167595,0.004900000058114529,1561097980,,,,0,2.961250709108754,5,6.0,23.739999771118164,0.0,0.0,44.1749576731758,66.7128,I,,
Raw,1733208029000,29501000000,18,703931.1509297543,-1417243217499000064,0.0,101.81982165045957,-3820.9750164051525,0.0,0,7,0.0,47,196832876848192,316,24.5,-1314.6939697265625,0.14999,20,-35306.0786551228,0.002025000052526593,1561097980,,,,0,5.411635958806494,5,6.0,24.5,0.0,0.0,44.1749576731758,66.7128,I,,
Raw,1733208029000,29501000000,18,703931.1509297543,-1417243217499000064,0.0,101.81982165045957,-3820.9750164051525,0.0,0,22,0.0,47,196832924441285,396,24.600000381469727,-1552.434326171875,0.14999,21,-38480.29594683603,0.004900000058114529,1561097980,,,,0,5.603597133817221,5,6.0,24.600000381469727,0.0,0.0,44.1749576731758,66.7128,I,,
Raw,1733208029000,29501000000,18,703931.1509297543,-1417243217499000064,0.0,101.81982165045957,-3820.9750164051525,0.0,0,40,0.0,17,777286,316,0.0,-1432.75830078125,0.14999,16,-35890.32142389521,0.002025000052526593,1561097980,,,,0,5.215336312934521,5,6.0,26.0,0.0,0.0,44.1749576731758,66.7128,I,,
Raw,1733208029000,29501000000,18,703931.1509297543,-1417243217499000064,0.0,101.81982165045957,-3820.9750164051525,0.0,0,19,0.0,47,196832926769077,316,26.600000381469727,-994.4527587890625,0.14999,20,-33764.878169246855,0.002025000052526593,1561097980,,,,0,7.9949161907059985,5,6.0,26.600000381469727,0.0,0.0,44.1749576731758,66.7128,I,,
Raw,1733208029000,29501000000,18,703931.1509297543,-1417243217499000064,0.0,101.81982165045957,-3820.9750164051525,0.0,0,29,0.0,47,196846919945508,396,23.200000762939453,-1281.8276574866927,0.14999,28,-34514.52568293997,0.004900000058114529,1575420030,,,,0,3.715931351261182,6,6.0,23.200000762939453,0.0,0.0,42.755265752679904,66.7128,C,,
Fix,GPS,12.9268072000,77.5195393000,100.68979870890698,16.240494,6.976975,342.6424,1733208030476,,,631492621385939,,1,,,
Fix,FLP,12.9268072000,77.5195393000,100.68979870890698,16.240494,6.976975,342.6424,1733208030476,,,631492621385939,,1,,,
Fix,FLP,12.9268072000,77.5195393000,100.70134945283688,15.579689,5.161504,342.1551,1733208030750,,,631492894677939,,1,,,
Raw,1733208030000,30501000000,18,703834.5737003164,-1417243217499000064,0.0,86.29667978505317,-3816.746437909595,0.0,0,4,0.0,47,196847929126499,235,29.44700050354004,-1531.0789187928792,0.14999,17,-46738.08562902517,0.0008999999845400453,1575420030,,,,0,10.860304174540186,1,6.0,29.44700050354004,0.0,0.0,0.0,66.7128,C,,
Raw,1733208030000,30501000000,18,703834.5737003164,-1417243217499000064,0.0,86.29667978505317,-3816.746437909595,0.0,0,3,0.0,47,196847931325451,797,23.281999588012695,-874.3672772844689,0.14999,16,-32230.052082637998,0.02250000089406967,1575420030,,,,0,2.535501592965945,1,6.0,23.281999588012695,0.0,0.0,0.0,66.7128,C,,
Raw,1733208030000,30501000000,18,703834.5737003164,-1417243217499000064,0.0,86.29667978505317,-3816.746437909595,0.0,0,8,0.0,47,196847926993394,487,20.11400032043457,-1598.588015055742,0.14999,20,-43668.54899573731,0.009999999776482582,1575420030,,,,0,0.0,1,6.0,20.11400032043457,0.0,0.0,0.0,66.7128,C,,
Raw,1733208030000,30501000000,18,703834.5737003164,-1417243217499000064,0.0,86.29667978505317,-3816.746437909595,0.0,0,36,0.0,47,196833924791109,235,26.270000457763672,-860.4288330078125,0.14999,20,-29912.915068975315,0.0008999999845400453,1561097980,,,,0,9.172756980512986,5,6.0,26.270000457763672,0.0,0.0,43.30808904074378,66.7128,I,,
Raw,1733208030000,30501000000,18,703834.5737003164,-1417243217499000064,0.0,86.29667978505317,-3816.746437909595,0.0,0,60,0.0,47,196833880177789,316,24.799999237060547,-1132.14794921875,0.14999,16,-35604.084403896486,0.002025000052526593,1561097980,,,,0,5.883811422673515,5,6.0,24.799999237060547,0.0,0.0,43.30808904074378,66.7128,I,,
Raw,1733208030000,30501000000,18,703834.5737003164,-1417243217499000064,0.0,86.29667978505317,-3816.746437909595,0.0,0,21,0.0,47,196847922124303,396,21.200000762939453,-1077.8323756626835,0.14999,24,-34490.74431856156,0.004900000058114529,1575420030,,,,0,1.039392673219209,6,6.0,21.200000762939453,0.0,0.0,43.45548757764733,66.7128,C,,
Raw,1733208030000,30501000000,18,703834.5737003164,-1417243217499000064,0.0,86.29667978505317,-3816.746437909595,0.0,0,1,0.0,17,916848,396,0.0,-1510.820726035955,0.14999,16,-45358.87855990223,0.004900000058114529,1602562560,,,,0,2.0988421638409265,3,6.0,22.0,0.0,0.0,-20.37354601292288,66.7128,C,,
Raw,1733208030000,30501000000,18,703834.5737003164,-1417243217499000064,0.0,86.29667978505317,-3816.746437909595,0.0,0,8,0.0,17,648597,396,0.0,-756.6076497555842,0.14999,16,-31099.575216618763,0.004900000058114529,1605374980,,,,0,4.580546684869596,3,6.0,23.0,0.0,0.0,-20.37354601292288,66.7128,C,,
Raw,1733208030000,30501000000,18,703834.5737003164,-1417243217499000064,0.0,86.29667978505317,-3816.746437909595,0.0,0,12,0.0,17,470871,316,0.0,-980.397856517094,0.14999,16,-31099.070213370433,0.002025000052526593,1601437440,,,,0,4.729154067499458,3,6.0,24.0,0.0,0.0,-20.37354601292288,66.7128,C,,
Raw,1733208030000,30501000000,18,703834.5737003164,-1417243217499000064,0.0,86.29667978505317,-3816.746437909595,0.0,0,11,0.0,17,227731,487,23.799999237060547,-518.2659412969713,0.14999,16,-31579.879406488424,0.009999999776482582,1602000000,,,,0,0.0,3,6.0,23.799999237060547,0.0,0.0,-20.37354601292288,66.7128,C,,
Raw,1733208030000,30501000000,18,703834.5737003164,-1417243217499000064,0.0,86.29667978505317,-3816.746437909595,0.0,0,27,0.0,47,196847926708723,316,28.302000045776367,-1351.6672937403412,0.14999,17,-37341.53522741,0.002025000052526593,1575420030,,,,0,9.418868393061091,1,6.0,28.302000045776367,0.0,0.0,0.0,66.7128,C,,
Raw,1733208030000,30501000000,18,703834.5737003164,-1417243217499000064,0.0,86.29667978505317,-3816.746437909595,0.0,0,16,0.0,47,196847928649880,74,31.94099998474121,-615.7529261504592,0.14999,17,-33324.28201147156,0.0006249999860301614,1575420030,,,,0,13.860819546875263,1,6.0,31.94099998474121,0.0,0.0,0.0,66.7128,C,,
Raw,1733208030000,30501000000,18,703834.5737003164,-1417243217499000064,0.0,86.29667978505317,-3816.746437909595,0.0,0,7,0.0,47,196847920144960,1797,19.687000274658203,-1244.6395536468053,0.14999,16,-36475.356306959315,0.02250000089406967,1575420030,,,,0,0.0,1,6.0,19.687000274658203,0.0,0.0,0.0,66.7128,C,,
Raw,1733208030000,30501000000,18,703834.5737003164,-1417243217499000064,0.0,86.29667978505317,-3816.746437909595,0.0,0,45,0.0,47,196833922638813,316,23.683000564575195,-1222.909912109375,0.14999,16,-36432.719341940494,0.002025000052526593,1561097980,,,,0,2.961250709108754,5,6.0,23.683000564575195,0.0,0.0,43.30808904074378,66.7128,I,,
Raw,1733208030000,30501000000,18,703834.5737003164,-1417243217499000064,0.0,86.29667978505317,-3816.746437909595,0.0,0,7,0.0,47,196833876852574,487,21.0,-1312.760498046875,0.14999,16,-36619.8939055137,0.009999999776482582,1561097980,,,,0,0.7783613206073932,5,6.0,21.0,0.0,0.0,43.30808904074378,66.7128,I,,
Raw,1733208030000,30501000000,18,703834.5737003164,-1417243217499000064,0.0,86.29667978505317,-3816.746437909595,0.0,0,22,0.0,47,196833924446463,316,24.670000076293945,-1550.9254150390625,0.14999,20,-40031.852630720605,0.002025000052526593,1561097980,,,,0,7.320672600171845,5,6.0,24.670000076293945,0.0,0.0,43.30808904074378,66.7128,I,,
Raw,1733208030000,30501000000,18,703834.5737003164,-1417243217499000064,0.0,86.29667978505317,-3816.746437909595,0.0,0,40,0.0,47,196833874781696,235,26.690000534057617,-1390.603759765625,0.14999,16,-37285.6387746659,0.0008999999845400453,1561097980,,,,0,7.88611448033887,5,6.0,26.690000534057617,0.0,0.0,43.30808904074378,66.7128,I,,
Raw,1733208030000,30501000000,18,703834.5737003164,-1417243217499000064,0.0,86.29667978505317,-3816.746437909595,0.0,0,19,0.0,47,196833926772391,396,23.799999237060547,-992.202392578125,0.14999,16,-34758.73141966424,0.004900000058114529,1561097980,,,,0,4.5983274272877885,5,6.0,23.799999237060547,0.0,0.0,43.30808904074378,66.7128,I,,
Raw,1733208030000,30501000000,18,703834.5737003164,-1417243217499000064,0.0,86.29667978505317,-3816.746437909595,0.0,0,29,0.0,47,196847919949781,235,27.700000762939453,-1280.2640530307108,0.14999,24,-35795.297078397474,0.0008999999845400453,1575420030,,,,0,9.343881829733025,6,6.0,27.700000762939453,0.0,0.0,43.45548757764733,66.7128,C,,
