# 
# Header Description:
# 
# Version: v3.1.0.3 Platform: 14 Manufacturer: samsung Model: SM-M346B GNSS Hardware Model Name: S.LSI,K050,SPOTNAV_4.11.0_25_E17P
# 
# Raw,utcTimeMillis,TimeNanos,LeapSecond,TimeUncertaintyNanos,FullBiasNanos,BiasNanos,BiasUncertaintyNanos,DriftNanosPerSecond,DriftUncertaintyNanosPerSecond,HardwareClockDiscontinuityCount,Svid,TimeOffsetNanos,State,ReceivedSvTimeNanos,ReceivedSvTimeUncertaintyNanos,Cn0DbHz,PseudorangeRateMetersPerSecond,PseudorangeRateUncertaintyMetersPerSecond,AccumulatedDeltaRangeState,AccumulatedDeltaRangeMeters,AccumulatedDeltaRangeUncertaintyMeters,CarrierFrequencyHz,CarrierCycles,CarrierPhase,CarrierPhaseUncertainty,MultipathIndicator,SnrInDb,ConstellationType,AgcDb,BasebandCn0DbHz,FullInterSignalBiasNanos,FullInterSignalBiasUncertaintyNanos,SatelliteInterSignalBiasNanos,SatelliteInterSignalBiasUncertaintyNanos,CodeType,ChipsetElapsedRealtimeNanos,IsFullTracking
# 
# UncalAccel,utcTimeMillis,elapsedRealtimeNanos,UncalAccelXMps2,UncalAccelYMps2,UncalAccelZMps2,BiasXMps2,BiasYMps2,BiasZMps2
# 
# Accel,utcTimeMillis,elapsedRealtimeNanos,AccelXMps2,AccelYMps2,AccelZMps2
# 
# UncalGyro,utcTimeMillis,elapsedRealtimeNanos,UncalGyroXRadPerSec,UncalGyroYRadPerSec,UncalGyroZRadPerSec,DriftXRadPerSec,DriftYRadPerSec,DriftZRadPerSec
# 
# Gyro,utcTimeMillis,elapsedRealtimeNanos,GyroXRadPerSec,GyroYRadPerSec,GyroZRadPerSec
# 
# UncalMag,utcTimeMillis,elapsedRealtimeNanos,UncalMagXMicroT,UncalMagYMicroT,UncalMagZMicroT,BiasXMicroT,BiasYMicroT,BiasZMicroT
# 
# Mag,utcTimeMillis,elapsedRealtimeNanos,MagXMicroT,MagYMicroT,MagZMicroT
# 
# Pressure,utcTimeMillis,elapsedRealtimeNanos,PressureHpa
# 
# OrientationDeg,utcTimeMillis,elapsedRealtimeNanos,yawDeg,rollDeg,pitchDeg
# 
# Fix,Provider,LatitudeDegrees,LongitudeDegrees,AltitudeMeters,SpeedMps,AccuracyMeters,BearingDegrees,UnixTimeMillis,SpeedAccuracyMps,BearingAccuracyDegrees,elapsedRealtimeNanos,VerticalAccuracyMeters,MockLocation,NumberOfUsedSignals,VerticalSpeedAccuracyMps,SolutionType
# 
# Nav,Svid,Type,Status,MessageId,Sub-messageId,Data(Bytes)
# 
# Status,UnixTimeMillis,SignalCount,SignalIndex,ConstellationType,Svid,CarrierFrequencyHz,Cn0DbHz,AzimuthDegrees,ElevationDegrees,UsedInFix,HasAlmanacData,HasEphemerisData,BasebandCn0DbHz
# 
# Agc,utcTimeMillis,TimeNanos,LeapSecond,TimeUncertaintyNanos,FullBiasNanos,BiasNanos,BiasUncertaintyNanos,DriftNanosPerSecond,DriftUncertaintyNanosPerSecond,HardwareClockDiscontinuityCount,AgcDb,CarrierFrequencyHz,ConstellationType
# 
Fix,FLP,12.9273172000,77.5195764000,750.0,0.41349632,12.0,357.49597,1733207997885,0.45,180.0,787837299471401,29.0,0,,,
Raw,1733207998999,4567279064,18,0.0,-1417243212432720896,0.0,50.034610748291016,-9.423355102539062,0.0,0,4,0.0,15,196816928788802,17,31.600000381469727,-392.45880126953125,0.1413307636976242,16,0.0,0.09993498027324677,1575420030,,,,0,,1,1.2999999523162842,26.600000381469727,0.0,0.0,0.0,0.0,C,918900241644721,
Raw,1733207998999,4567279064,18,0.0,-1417243212432720896,0.0,50.034610748291016,-9.423355102539062,0.0,0,3,0.0,15,196816931055880,17,31.700000762939453,266.3585205078125,0.14027409255504608,16,0.0,0.09918781369924545,1575420030,,,,0,,1,1.2999999523162842,26.700000762939453,0.0,0.0,0.0,0.0,C,918900241644721,
Raw,1733207998999,4567279064,18,0.0,-1417243212432720896,0.0,50.034610748291016,-9.423355102539062,0.0,0,7,0.0,15,196816919837102,26,25.700000762939453,-102.55062866210938,0.23337766528129578,16,0.0,0.16502134501934052,1575420030,,,,0,,1,1.2999999523162842,20.700000762939453,0.0,0.0,0.0,0.0,C,918900241644721,
Raw,1733207998999,4567279064,18,0.0,-1417243212432720896,0.0,50.034610748291016,-9.423355102539062,0.0,0,8,0.0,15,196816926648865,25,25.899999618530273,-458.0115966796875,0.2289324849843979,16,0.0,0.16187815368175507,1575420030,,,,0,,1,1.2999999523162842,20.899999618530273,0.0,0.0,0.0,0.0,C,918900241644721,
Raw,1733207998999,4567279064,18,0.0,-1417243212432720896,0.0,50.034610748291016,-9.423355102539062,0.0,0,9,0.0,15,196816923411914,27,25.0,-546.1736450195312,0.25,16,0.0,0.1767749935388565,1575420030,,,,0,,1,1.2999999523162842,20.0,0.0,0.0,0.0,0.0,C,918900241644721,
Raw,1733207998999,4567279064,18,0.0,-1417243212432720896,0.0,50.034610748291016,-9.423355102539062,0.0,0,16,0.0,15,196816928406681,30,23.799999237060547,522.3473510742188,0.28293347358703613,16,0.0,0.20006226003170013,1575420030,,,,0,,1,1.2999999523162842,18.799999237060547,0.0,0.0,0.0,0.0,C,918900241644721,
Raw,1733207998999,4567279064,18,0.0,-1417243212432720896,0.0,50.034610748291016,-9.423355102539062,0.0,0,27,0.0,15,196816926389623,33,22.799999237060547,-212.6538848876953,0.31561675667762756,16,0.0,0.2231726050376892,1575420030,,,,0,,1,1.2999999523162842,17.799999237060547,0.0,0.0,0.0,0.0,C,918900241644721,
Raw,1733207998999,4567279064,18,0.0,-1417243212432720896,0.0,50.034610748291016,-9.423355102539062,0.0,0,21,0.0,3072,21833564,14,35.29999923706055,61.38626480102539,0.10892178863286972,25,-19997.976646874857,0.07701859623193741,1575420030,,,,0,,6,1.2999999523162842,30.299999237060547,0.0,0.0,0.0,0.0,C,918900241644721,
Raw,1733207998999,4567279064,18,0.0,-1417243212432720896,0.0,50.034610748291016,-9.423355102539062,0.0,0,36,0.0,47,196802924522794,13,35.900001525878906,278.9056701660156,0.10473287850618362,19,-17409.292483750745,0.1700763702392578,1561097980,,,,0,,5,1.2999999523162842,30.899999618530273,0.0,0.0,0.0,0.0,C,918900241644721,
Raw,1733207998999,4567279064,18,0.0,-1417243212432720896,0.0,50.034610748291016,-9.423355102539062,0.0,0,22,0.0,47,196802924106698,15,34.099998474121094,-412.5886535644531,0.11809024214744568,17,-19881.64932858108,0.1795213520526886,1561097980,,,,0,,5,1.2999999523162842,29.100000381469727,0.0,0.0,0.0,0.0,C,918900241644721,
Raw,1733207998999,4567279064,18,0.0,-1417243212432720896,0.0,50.034610748291016,-9.423355102539062,0.0,0,45,0.0,47,196802922332099,16,33.099998474121094,-94.46893310546875,0.1266447901725769,19,-20528.32724425238,0.18557026982307434,1561097980,,,,0,,5,1.2999999523162842,28.100000381469727,0.0,0.0,0.0,0.0,C,918900241644721,
Raw,1733207998999,4567279064,18,0.0,-1417243212432720896,0.0,50.034610748291016,-9.423355102539062,0.0,0,12,0.0,239,34798933190027,15,33.70000076293945,157.49070739746094,0.12140488624572754,16,0.0,0.08584539592266083,1601437440,,,,0,,3,1.2999999523162842,28.700000762939453,0.0,0.0,0.0,0.0,C,918900241644721,
Raw,1733207998999,4567279064,18,0.0,-1417243212432720896,0.0,50.034610748291016,-9.423355102539062,0.0,0,1,0.0,239,34798934581052,16,32.900001525878906,-373.8059997558594,0.12846700847148895,16,0.0,0.09083902090787888,1602562560,,,,0,,3,1.2999999523162842,27.899999618530273,0.0,0.0,0.0,0.0,C,918900241644721,
Raw,1733207998999,4567279064,18,0.0,-1417243212432720896,0.0,50.034610748291016,-9.423355102539062,0.0,0,194,0.0,15,196816859676113,19,30.200000762939453,113.86595916748047,0.15747039020061493,16,0.0,0.11134731024503708,1575420030,,,,0,,4,1.2999999523162842,25.200000762939453,0.0,0.0,0.0,0.0,C,918900241644721,
Raw,1733207998999,4567279064,18,0.0,-1417243212432720896,0.0,50.034610748291016,-9.423355102539062,0.0,0,40,0.0,47,196802874461001,18,30.700000762939453,-226.4042510986328,0.15140274167060852,16,0.0,0.1070568785071373,1561097980,,,,0,,5,1.2999999523162842,25.700000762939453,0.0,0.0,0.0,0.0,C,918900241644721,
Raw,1733207998999,4567279064,18,0.0,-1417243212432720896,0.0,50.034610748291016,-9.423355102539062,0.0,0,11,0.0,239,34798925995515,19,30.0,627.8489990234375,0.1599999964237213,16,0.0,0.11313600093126297,1602000000,,,,0,,3,1.2999999523162842,25.0,0.0,0.0,0.0,0.0,C,918900241644721,
Raw,1733207998999,4567279064,18,0.0,-1417243212432720896,0.0,50.034610748291016,-9.423355102539062,0.0,0,20,0.0,47,196802916465197,24,26.5,537.19140625,0.21633315086364746,16,0.0,0.15296916663646698,1561097980,,,,0,,5,1.2999999523162842,21.5,0.0,0.0,0.0,0.0,C,918900241644721,
Raw,1733207998999,4567279064,18,0.0,-1417243212432720896,0.0,50.034610748291016,-9.423355102539062,0.0,0,19,0.0,3072,15981950,31,23.299999237060547,-372.190673828125,0.2986055314540863,16,0.0,0.21114397048950195,1575420030,,,,0,,6,1.2999999523162842,18.299999237060547,0.0,0.0,0.0,0.0,C,918900241644721,
Raw,1733207998999,4567279064,18,0.0,-1417243212432720896,0.0,50.034610748291016,-9.423355102539062,0.0,0,9,0.0,47,196802871675778,33,22.899999618530273,-9.73127555847168,0.3121001422405243,16,0.0,0.22068600356578827,1561097980,,,,0,,5,1.2999999523162842,17.899999618530273,0.0,0.0,0.0,0.0,C,918900241644721,
Raw,1733207998999,4567279064,18,0.0,-1417243212432720896,0.0,50.034610748291016,-9.423355102539062,0.0,0,13,0.0,47,196802872578748,38,21.299999237060547,302.2913513183594,0.37637853622436523,16,0.0,0.2661372721195221,1561097980,,,,0,,5,1.2999999523162842,16.299999237060547,0.0,0.0,0.0,0.0,C,918900241644721,
Fix,GPS,12.9273075471,77.5195843074,748.0,0.44,17.5,0.0,1733207999000,0.63,180.0,787838286397323,25.0,0,,,
Fix,FLP,12.9273166000,77.5195790000,748.0,0.43063167,18.333,359.01483,1733207998872,0.63,180.0,787838286397323,25.0,0,,,
Raw,1733207999999,5567279064,18,0.0,-1417243212432720896,0.0,10.022054672241211,-8.874351501464844,0.0,0,4,0.0,15,196817928790090,16,32.099998474121094,-392.3836669921875,0.13616371154785156,16,0.0,0.09628135710954666,1575420030,,,,0,,1,1.2999999523162842,27.100000381469727,0.0,0.0,0.0,0.0,C,918901324667199,
Raw,1733207999999,5567279064,18,0.0,-1417243212432720896,0.0,10.022054672241211,-8.874351501464844,0.0,0,8,0.0,15,196817926650384,25,26.100000381469727,-458.0143737792969,0.22461310029029846,16,0.0,0.1588239222764969,1575420030,,,,0,,1,1.2999999523162842,21.100000381469727,0.0,0.0,0.0,0.0,C,918901324667199,
Raw,1733207999999,5567279064,18,0.0,-1417243212432720896,0.0,10.022054672241211,-8.874351501464844,0.0,0,7,0.0,15,196817919837508,24,26.799999237060547,-102.78577423095703,0.21042001247406006,16,0.0,0.1487879902124405,1575420030,,,,0,,1,1.2999999523162842,21.799999237060547,0.0,0.0,0.0,0.0,C,918901324667199,
Raw,1733207999999,5567279064,18,0.0,-1417243212432720896,0.0,10.022054672241211,-8.874351501464844,0.0,0,16,0.0,15,196817928404959,28,24.700000762939453,521.388427734375,0.25767216086387634,16,0.0,0.18219998478889465,1575420030,,,,0,,1,1.2999999523162842,19.700000762939453,0.0,0.0,0.0,0.0,C,918901324667199,
Raw,1733207999999,5567279064,18,0.0,-1417243212432720896,0.0,10.022054672241211,-8.874351501464844,0.0,0,9,0.0,15,196817923413699,27,24.899999618530273,-547.0008544921875,0.252518892288208,16,0.0,0.17855611443519592,1575420030,,,,0,,1,1.2999999523162842,19.899999618530273,0.0,0.0,0.0,0.0,C,918901324667199,
Raw,1733207999999,5567279064,18,0.0,-1417243212432720896,0.0,10.022054672241211,-8.874351501464844,0.0,0,3,0.0,14,196817931055005,17,31.299999237060547,266.3023681640625,0.14457345008850098,16,0.0,0.10222788900136948,1575420030,,,,0,,1,1.2999999523162842,26.299999237060547,0.0,0.0,0.0,0.0,C,918901324667199,
Raw,1733207999999,5567279064,18,0.0,-1417243212432720896,0.0,10.022054672241211,-8.874351501464844,0.0,0,27,0.0,15,196817926390335,31,23.5,-211.74400329589844,0.29218408465385437,16,0.0,0.20660336315631866,1575420030,,,,0,,1,1.2999999523162842,18.5,0.0,0.0,0.0,0.0,C,918901324667199,
Raw,1733207999999,5567279064,18,0.0,-1417243212432720896,0.0,10.022054672241211,-8.874351501464844,0.0,0,21,0.0,3072,21833358,14,35.29999923706055,61.23505401611328,0.10892178863286972,25,-19936.69137045114,0.07701859623193741,1575420030,,,,0,,6,1.2999999523162842,30.299999237060547,0.0,0.0,0.0,0.0,C,918901324667199,
Raw,1733207999999,5567279064,18,0.0,-1417243212432720896,0.0,10.022054672241211,-8.874351501464844,0.0,0,45,0.0,47,196803922332403,15,34.29999923706055,-94.360595703125,0.11648360639810562,17,-20622.701117767137,0.17838530242443085,1561097980,,,,0,,5,1.2999999523162842,29.299999237060547,0.0,0.0,0.0,0.0,C,918901324667199,
Raw,1733207999999,5567279064,18,0.0,-1417243212432720896,0.0,10.022054672241211,-8.874351501464844,0.0,0,22,0.0,47,196803924108079,15,34.099998474121094,-412.9718933105469,0.11809024214744568,17,-20294.517543623457,0.1795213520526886,1561097980,,,,0,,5,1.2999999523162842,29.100000381469727,0.0,0.0,0.0,0.0,C,918901324667199,
Raw,1733207999999,5567279064,18,0.0,-1417243212432720896,0.0,10.022054672241211,-8.874351501464844,0.0,0,12,0.0,239,34799933189524,15,33.70000076293945,157.44761657714844,0.12140488624572754,16,0.0,0.08584539592266083,1601437440,,,,0,,3,1.2999999523162842,28.700000762939453,0.0,0.0,0.0,0.0,C,918901324667199,
Raw,1733207999999,5567279064,18,0.0,-1417243212432720896,0.0,10.022054672241211,-8.874351501464844,0.0,0,36,0.0,47,196803924521858,13,35.599998474121094,278.41180419921875,0.10679652541875839,16,0.0,0.07551582157611847,1561097980,,,,0,,5,1.2999999523162842,30.600000381469727,0.0,0.0,0.0,0.0,C,918901324667199,
Raw,1733207999999,5567279064,18,0.0,-1417243212432720896,0.0,10.022054672241211,-8.874351501464844,0.0,0,1,0.0,239,34799934582429,16,32.70000076293945,-374.9283447265625,0.13032881915569305,16,0.0,0.09215550869703293,1602562560,,,,0,,3,1.2999999523162842,27.700000762939453,0.0,0.0,0.0,0.0,C,918901324667199,
Raw,1733207999999,5567279064,18,0.0,-1417243212432720896,0.0,10.022054672241211,-8.874351501464844,0.0,0,11,0.0,239,34799925993513,18,30.399999618530273,626.521728515625,0.15500031411647797,16,0.0,0.1096007227897644,1602000000,,,,0,,3,1.2999999523162842,25.399999618530273,0.0,0.0,0.0,0.0,C,918901324667199,
Raw,1733207999999,5567279064,18,0.0,-1417243212432720896,0.0,10.022054672241211,-8.874351501464844,0.0,0,40,0.0,47,196803874461713,18,30.5,-226.52601623535156,0.15378700196743011,16,0.0,0.10874278843402863,1561097980,,,,0,,5,1.2999999523162842,25.5,0.0,0.0,0.0,0.0,C,918901324667199,
Raw,1733207999999,5567279064,18,0.0,-1417243212432720896,0.0,10.022054672241211,-8.874351501464844,0.0,0,194,0.0,15,196817859675720,19,30.0,114.01309204101562,0.1599999964237213,16,0.0,0.11313600093126297,1575420030,,,,0,,4,1.2999999523162842,25.0,0.0,0.0,0.0,0.0,C,918901324667199,
Raw,1733207999999,5567279064,18,0.0,-1417243212432720896,0.0,10.022054672241211,-8.874351501464844,0.0,0,29,0.0,3072,19638533,27,25.0,-140.9208221435547,0.25,16,0.0,0.1767749935388565,1575420030,,,,0,,6,1.2999999523162842,20.0,0.0,0.0,0.0,0.0,C,918901324667199,
Raw,1733207999999,5567279064,18,0.0,-1417243212432720896,0.0,10.022054672241211,-8.874351501464844,0.0,0,9,0.0,47,196803871675851,28,24.799999237060547,-9.740708351135254,0.25507602095603943,16,0.0,0.18036425113677979,1561097980,,,,0,,5,1.2999999523162842,19.799999237060547,0.0,0.0,0.0,0.0,C,918901324667199,
Raw,1733207999999,5567279064,18,0.0,-1417243212432720896,0.0,10.022054672241211,-8.874351501464844,0.0,0,20,0.0,47,196803916463353,24,26.299999237060547,536.9142456054688,0.22041483223438263,16,0.0,0.15585532784461975,1561097980,,,,0,,5,1.2999999523162842,21.299999237060547,0.0,0.0,0.0,0.0,C,918901324667199,
Raw,1733207999999,5567279064,18,0.0,-1417243212432720896,0.0,10.022054672241211,-8.874351501464844,0.0,0,19,0.0,3072,15983168,29,24.200000762939453,-371.9497985839844,0.2712673544883728,16,0.0,0.1918131411075592,1575420030,,,,0,,6,1.2999999523162842,19.200000762939453,0.0,0.0,0.0,0.0,C,918901324667199,
Raw,1733207999999,5567279064,18,0.0,-1417243212432720896,0.0,10.022054672241211,-8.874351501464844,0.0,0,13,0.0,47,196803872577757,33,22.799999237060547,301.90545654296875,0.31561675667762756,16,0.0,0.2231726050376892,1561097980,,,,0,,5,1.2999999523162842,17.799999237060547,0.0,0.0,0.0,0.0,C,918901324667199,
Raw,1733207999999,5567279064,18,0.0,-1417243212432720896,0.0,10.022054672241211,-8.874351501464844,0.0,0,8,0.0,239,34799931389789,42,20.200000762939453,384.1630859375,0.43282550573349,16,0.0,0.3060509264469147,1605374980,,,,0,,3,1.2999999523162842,15.199999809265137,0.0,0.0,0.0,0.0,C,918901324667199,
Fix,GPS,12.9273016378,77.5195758417,749.0,0.06,13.5,0.0,1733208000000,0.77,180.0,787839311710669,20.0,0,,,
Fix,FLP,12.9273117000,77.5195775000,749.0,0.20335464,17.125,359.93048,1733207999898,0.77,180.0,787839311710669,20.0,0,,,
Raw,1733208000999,6567279064,18,0.0,-1417243212432720896,0.0,10.022054672241211,-8.400280952453613,0.0,0,4,0.0,15,196818928791409,16,32.599998474121094,-392.17987060546875,0.13127493858337402,19,-20580.069455910503,0.1879713535308838,1575420030,,,,0,,1,1.2999999523162842,27.600000381469727,0.0,0.0,0.0,0.0,C,918902345429115,
Raw,1733208000999,6567279064,18,0.0,-1417243212432720896,0.0,10.022054672241211,-8.400280952453613,0.0,0,8,0.0,15,196818926651891,21,28.100000381469727,-457.12103271484375,0.18740276992321014,16,0.0,0.13251249492168427,1575420030,,,,0,,1,1.2999999523162842,23.100000381469727,0.0,0.0,0.0,0.0,C,918902345429115,
Raw,1733208000999,6567279064,18,0.0,-1417243212432720896,0.0,10.022054672241211,-8.400280952453613,0.0,0,7,0.0,15,196818919837824,23,27.299999237060547,-102.95967864990234,0.20108991861343384,16,0.0,0.14219067990779877,1575420030,,,,0,,1,1.2999999523162842,22.299999237060547,0.0,0.0,0.0,0.0,C,918902345429115,
Raw,1733208000999,6567279064,18,0.0,-1417243212432720896,0.0,10.022054672241211,-8.400280952453613,0.0,0,16,0.0,15,196818928403250,26,25.5,521.4103393554688,0.23795360326766968,16,0.0,0.1682569980621338,1575420030,,,,0,,1,1.2999999523162842,20.5,0.0,0.0,0.0,0.0,C,918902345429115,
Raw,1733208000999,6567279064,18,0.0,-1417243212432720896,0.0,10.022054672241211,-8.400280952453613,0.0,0,27,0.0,15,196818926391055,29,24.399999618530273,-212.1885528564453,0.2657030522823334,16,0.0,0.18787862360477448,1575420030,,,,0,,1,1.2999999523162842,19.399999618530273,0.0,0.0,0.0,0.0,C,918902345429115,
Raw,1733208000999,6567279064,18,0.0,-1417243212432720896,0.0,10.022054672241211,-8.400280952453613,0.0,0,9,0.0,15,196818923415576,27,24.899999618530273,-547.7343139648438,0.252518892288208,16,0.0,0.17855611443519592,1575420030,,,,0,,1,1.2999999523162842,19.899999618530273,0.0,0.0,0.0,0.0,C,918902345429115,
Raw,1733208000999,6567279064,18,0.0,-1417243212432720896,0.0,10.022054672241211,-8.400280952453613,0.0,0,3,0.0,14,196818931054100,19,29.600000381469727,267.3554992675781,0.16524554789066315,16,0.0,0.11684512346982956,1575420030,,,,0,,1,1.2999999523162842,24.600000381469727,0.0,0.0,0.0,0.0,C,918902345429115,
Raw,1733208000999,6567279064,18,0.0,-1417243212432720896,0.0,10.022054672241211,-8.400280952453613,0.0,0,11,0.0,239,34800925991409,11,39.099998474121094,626.8097534179688,0.08599857985973358,16,0.0,0.06080959737300873,1602000000,,,,0,,3,1.2999999523162842,34.099998474121094,0.0,0.0,0.0,0.0,C,918902345429115,
Raw,1733208000999,6567279064,18,0.0,-1417243212432720896,0.0,10.022054672241211,-8.400280952453613,0.0,0,21,0.0,3072,21833156,14,35.29999923706055,61.43525695800781,0.10892178863286972,25,-19875.306106897697,0.07701859623193741,1575420030,,,,0,,6,1.2999999523162842,30.299999237060547,0.0,0.0,0.0,0.0,C,918902345429115,
Raw,1733208000999,6567279064,18,0.0,-1417243212432720896,0.0,10.022054672241211,-8.400280952453613,0.0,0,12,0.0,239,34800933188934,15,34.20000076293945,157.49891662597656,0.11728279292583466,16,0.0,0.08293066173791885,1601437440,,,,0,,3,1.2999999523162842,29.200000762939453,0.0,0.0,0.0,0.0,C,918902345429115,
Raw,1733208000999,6567279064,18,0.0,-1417243212432720896,0.0,10.022054672241211,-8.400280952453613,0.0,0,45,0.0,47,196804922332703,14,34.400001525878906,-94.30976104736328,0.11569254100322723,17,-20717.032250807097,0.1778259426355362,1561097980,,,,0,,5,1.2999999523162842,29.399999618530273,0.0,0.0,0.0,0.0,C,918902345429115,
Raw,1733208000999,6567279064,18,0.0,-1417243212432720896,0.0,10.022054672241211,-8.400280952453613,0.0,0,22,0.0,47,196804924109466,15,34.099998474121094,-412.8330078125,0.11809024214744568,17,-20707.362286628515,0.1795213520526886,1561097980,,,,0,,5,1.2999999523162842,29.100000381469727,0.0,0.0,0.0,0.0,C,918902345429115,
Raw,1733208000999,6567279064,18,0.0,-1417243212432720896,0.0,10.022054672241211,-8.400280952453613,0.0,0,36,0.0,47,196804924520914,14,35.20000076293945,278.6144104003906,0.10964430868625641,16,0.0,0.07752948999404907,1561097980,,,,0,,5,1.2999999523162842,30.200000762939453,0.0,0.0,0.0,0.0,C,918902345429115,
Raw,1733208000999,6567279064,18,0.0,-1417243212432720896,0.0,10.022054672241211,-8.400280952453613,0.0,0,1,0.0,239,34800934583649,16,32.5,-372.72369384765625,0.13223139941692352,16,0.0,0.09350082278251648,1602562560,,,,0,,3,1.2999999523162842,27.5,0.0,0.0,0.0,0.0,C,918902345429115,
Raw,1733208000999,6567279064,18,0.0,-1417243212432720896,0.0,10.022054672241211,-8.400280952453613,0.0,0,40,0.0,47,196804874462510,18,30.299999237060547,-226.45175170898438,0.15622803568840027,16,0.0,0.11046884208917618,1561097980,,,,0,,5,1.2999999523162842,25.299999237060547,0.0,0.0,0.0,0.0,C,918902345429115,
Raw,1733208000999,6567279064,18,0.0,-1417243212432720896,0.0,10.022054672241211,-8.400280952453613,0.0,0,29,0.0,3072,19639024,22,27.799999237060547,-140.9663543701172,0.19236689805984497,16,0.0,0.1360226273536682,1575420030,,,,0,,6,1.2999999523162842,22.799999237060547,0.0,0.0,0.0,0.0,C,918902345429115,
Raw,1733208000999,6567279064,18,0.0,-1417243212432720896,0.0,10.022054672241211,-8.400280952453613,0.0,0,194,0.0,15,196818859675421,19,29.600000381469727,113.79174041748047,0.16524554789066315,16,0.0,0.11684512346982956,1575420030,,,,0,,4,1.2999999523162842,24.600000381469727,0.0,0.0,0.0,0.0,C,918902345429115,
Raw,1733208000999,6567279064,18,0.0,-1417243212432720896,0.0,10.022054672241211,-8.400280952453613,0.0,0,9,0.0,47,196804871675838,25,25.899999618530273,-10.217693328857422,0.2289324849843979,16,0.0,0.16187815368175507,1561097980,,,,0,,5,1.2999999523162842,20.899999618530273,0.0,0.0,0.0,0.0,C,918902345429115,
Raw,1733208000999,6567279064,18,0.0,-1417243212432720896,0.0,10.022054672241211,-8.400280952453613,0.0,0,20,0.0,47,196804916461576,25,26.100000381469727,537.1410522460938,0.22461310029029846,16,0.0,0.1588239222764969,1561097980,,,,0,,5,1.2999999523162842,21.100000381469727,0.0,0.0,0.0,0.0,C,918902345429115,
Raw,1733208000999,6567279064,18,0.0,-1417243212432720896,0.0,10.022054672241211,-8.400280952453613,0.0,0,13,0.0,47,196804872576708,29,24.299999237060547,302.5835876464844,0.2684636116027832,16,0.0,0.18983061611652374,1561097980,,,,0,,5,1.2999999523162842,19.299999237060547,0.0,0.0,0.0,0.0,C,918902345429115,
Raw,1733208000999,6567279064,18,0.0,-1417243212432720896,0.0,10.022054672241211,-8.400280952453613,0.0,0,19,0.0,3072,15984419,28,24.700000762939453,-371.8294982910156,0.25767216086387634,16,0.0,0.18219998478889465,1575420030,,,,0,,6,1.2999999523162842,19.700000762939453,0.0,0.0,0.0,0.0,C,918902345429115,
Raw,1733208000999,6567279064,18,0.0,-1417243212432720896,0.0,10.022054672241211,-8.400280952453613,0.0,0,16,0.0,47,196804870626982,33,22.600000381469727,-51.27743148803711,0.32283055782318115,16,0.0,0.22827348113059998,1561097980,,,,0,,5,1.2999999523162842,17.600000381469727,0.0,0.0,0.0,0.0,C,918902345429115,
Raw,1733208000999,6567279064,18,0.0,-1417243212432720896,0.0,10.022054672241211,-8.400280952453613,0.0,0,39,0.0,47,196804870345505,39,21.100000381469727,-69.47944641113281,0.3857875466346741,16,0.0,0.2727903723716736,1561097980,,,,0,,5,1.2999999523162842,16.100000381469727,0.0,0.0,0.0,0.0,C,918902345429115,
Raw,1733208000999,6567279064,18,0.0,-1417243212432720896,0.0,10.022054672241211,-8.400280952453613,0.0,0,7,0.0,3072,11837168,43,20.100000381469727,202.20249938964844,0.43857723474502563,16,0.0,0.3101179599761963,1575420030,,,,0,,6,1.2999999523162842,15.100000381469727,0.0,0.0,0.0,0.0,C,918902345429115,
Raw,1733208000999,6567279064,18,0.0,-1417243212432720896,0.0,10.022054672241211,-8.400280952453613,0.0,0,8,0.0,239,34800931388380,43,20.100000381469727,384.6744384765625,0.43857723474502563,16,0.0,0.3101179599761963,1605374980,,,,0,,3,1.2999999523162842,15.100000381469727,0.0,0.0,0.0,0.0,C,918902345429115,
Fix,GPS,12.9273179406,77.5195831340,750.0,0.0,12.0,,1733208001000,0.58,,787840305737783,18.0,0,,,
Fix,FLP,12.9273156000,77.5195802000,750.0,0.20510693,16.1,0.0031616918,1733208000891,0.58,45.0,787840305737783,18.0,0,,,
Raw,1733208001999,7567279064,18,0.0,-1417243212432720896,0.0,10.022054672241211,-8.112034797668457,0.0,0,4,0.0,15,196819928792704,15,33.20000076293945,-392.1908264160156,0.1257481873035431,17,-20972.274944499193,0.1840633749961853,1575420030,,,,0,,1,1.2999999523162842,28.200000762939453,0.0,0.0,0.0,0.0,C,918903417420126,
Raw,1733208001999,7567279064,18,0.0,-1417243212432720896,0.0,10.022054672241211,-8.112034797668457,0.0,0,8,0.0,15,196819926653434,20,28.899999618530273,-457.4637756347656,0.1750669777393341,16,0.0,0.12378986179828644,1575420030,,,,0,,1,1.2999999523162842,23.899999618530273,0.0,0.0,0.0,0.0,C,918903417420126,
Raw,1733208001999,7567279064,18,0.0,-1417243212432720896,0.0,10.022054672241211,-8.112034797668457,0.0,0,7,0.0,15,196819919838182,22,27.600000381469727,-102.29076385498047,0.19578666985034943,16,0.0,0.13844075798988342,1575420030,,,,0,,1,1.2999999523162842,22.600000381469727,0.0,0.0,0.0,0.0,C,918903417420126,
Raw,1733208001999,7567279064,18,0.0,-1417243212432720896,0.0,10.022054672241211,-8.112034797668457,0.0,0,16,0.0,15,196819928401432,24,26.299999237060547,521.8607788085938,0.22041483223438263,16,0.0,0.15585532784461975,1575420030,,,,0,,1,1.2999999523162842,21.299999237060547,0.0,0.0,0.0,0.0,C,918903417420126,
Raw,1733208001999,7567279064,18,0.0,-1417243212432720896,0.0,10.022054672241211,-8.112034797668457,0.0,0,27,0.0,15,196819926391768,28,24.700000762939453,-210.52169799804688,0.25767216086387634,16,0.0,0.18219998478889465,1575420030,,,,0,,1,1.2999999523162842,19.700000762939453,0.0,0.0,0.0,0.0,C,918903417420126,
Raw,1733208001999,7567279064,18,0.0,-1417243212432720896,0.0,10.022054672241211,-8.112034797668457,0.0,0,9,0.0,15,196819923417379,28,24.700000762939453,-548.4573974609375,0.25767216086387634,16,0.0,0.18219998478889465,1575420030,,,,0,,1,1.2999999523162842,19.700000762939453,0.0,0.0,0.0,0.0,C,918903417420126,
Raw,1733208001999,7567279064,18,0.0,-1417243212432720896,0.0,10.022054672241211,-8.112034797668457,0.0,0,3,0.0,15,196819931053246,21,28.100000381469727,267.5748596191406,0.18740276992321014,16,0.0,0.13251249492168427,1575420030,,,,0,,1,1.2999999523162842,23.100000381469727,0.0,0.0,0.0,0.0,C,918903417420126,
Raw,1733208001999,7567279064,18,0.0,-1417243212432720896,0.0,10.022054672241211,-8.112034797668457,0.0,0,11,0.0,239,34801925989353,11,39.5,626.7254638671875,0.08401596546173096,16,0.0,0.059407688677310944,1602000000,,,,0,,3,1.2999999523162842,34.5,0.0,0.0,0.0,0.0,C,918903417420126,
Raw,1733208001999,7567279064,18,0.0,-1417243212432720896,0.0,10.022054672241211,-8.112034797668457,0.0,0,21,0.0,3072,21832918,14,35.20000076293945,61.46932601928711,0.10964430868625641,16,0.0,0.07752948999404907,1575420030,,,,0,,6,1.2999999523162842,30.200000762939453,0.0,0.0,0.0,0.0,C,918903417420126,
Raw,1733208001999,7567279064,18,0.0,-1417243212432720896,0.0,10.022054672241211,-8.112034797668457,0.0,0,12,0.0,239,34801933188464,15,34.29999923706055,157.63438415527344,0.11648360639810562,16,0.0,0.08236555755138397,1601437440,,,,0,,3,1.2999999523162842,29.299999237060547,0.0,0.0,0.0,0.0,C,918903417420126,
Raw,1733208001999,7567279064,18,0.0,-1417243212432720896,0.0,10.022054672241211,-8.112034797668457,0.0,0,45,0.0,47,196805922333049,14,34.400001525878906,-94.27466583251953,0.11569254100322723,17,-20811.325737566134,0.1778259426355362,1561097980,,,,0,,5,1.2999999523162842,29.399999618530273,0.0,0.0,0.0,0.0,C,918903417420126,
Raw,1733208001999,7567279064,18,0.0,-1417243212432720896,0.0,10.022054672241211,-8.112034797668457,0.0,0,22,0.0,47,196805924110801,15,34.099998474121094,-412.6772766113281,0.11809024214744568,17,-21120.095376424404,0.1795213520526886,1561097980,,,,0,,5,1.2999999523162842,29.100000381469727,0.0,0.0,0.0,0.0,C,918903417420126,
Raw,1733208001999,7567279064,18,0.0,-1417243212432720896,0.0,10.022054672241211,-8.112034797668457,0.0,0,36,0.0,47,196805924520011,14,34.900001525878906,278.4764404296875,0.11185558140277863,16,0.0,0.0790930837392807,1561097980,,,,0,,5,1.2999999523162842,29.899999618530273,0.0,0.0,0.0,0.0,C,918903417420126,
Raw,1733208001999,7567279064,18,0.0,-1417243212432720896,0.0,10.022054672241211,-8.112034797668457,0.0,0,1,0.0,239,34801934584852,16,32.29999923706055,-374.067138671875,0.13417595624923706,16,0.0,0.09487581998109818,1602562560,,,,0,,3,1.2999999523162842,27.299999237060547,0.0,0.0,0.0,0.0,C,918903417420126,
Raw,1733208001999,7567279064,18,0.0,-1417243212432720896,0.0,10.022054672241211,-8.112034797668457,0.0,0,29,0.0,3072,19639460,20,28.799999237060547,-140.00193786621094,0.17654122412204742,16,0.0,0.12483230233192444,1575420030,,,,0,,6,1.2999999523162842,23.799999237060547,0.0,0.0,0.0,0.0,C,918903417420126,
Raw,1733208001999,7567279064,18,0.0,-1417243212432720896,0.0,10.022054672241211,-8.112034797668457,0.0,0,40,0.0,47,196805874463243,19,30.100000381469727,-225.42872619628906,0.15872763097286224,16,0.0,0.11223630607128143,1561097980,,,,0,,5,1.2999999523162842,25.100000381469727,0.0,0.0,0.0,0.0,C,918903417420126,
Raw,1733208001999,7567279064,18,0.0,-1417243212432720896,0.0,10.022054672241211,-8.112034797668457,0.0,0,9,0.0,47,196805871675911,24,26.5,-10.272116661071777,0.21633315086364746,16,0.0,0.15296916663646698,1561097980,,,,0,,5,1.2999999523162842,21.5,0.0,0.0,0.0,0.0,C,918903417420126,
Raw,1733208001999,7567279064,18,0.0,-1417243212432720896,0.0,10.022054672241211,-8.112034797668457,0.0,0,194,0.0,15,196819859675035,20,29.200000762939453,112.27237701416016,0.1707533597946167,16,0.0,0.12073969841003418,1575420030,,,,0,,4,1.2999999523162842,24.200000762939453,0.0,0.0,0.0,0.0,C,918903417420126,
Raw,1733208001999,7567279064,18,0.0,-1417243212432720896,0.0,10.022054672241211,-8.112034797668457,0.0,0,13,0.0,47,196805872575717,26,25.600000381469727,301.8489990234375,0.235648974776268,16,0.0,0.16662739217281342,1561097980,,,,0,,5,1.2999999523162842,20.600000381469727,0.0,0.0,0.0,0.0,C,918903417420126,
Raw,1733208001999,7567279064,18,0.0,-1417243212432720896,0.0,10.022054672241211,-8.112034797668457,0.0,0,20,0.0,47,196805916459782,25,26.0,537.9029541015625,0.22675736248493195,16,0.0,0.16034013032913208,1561097980,,,,0,,5,1.2999999523162842,21.0,0.0,0.0,0.0,0.0,C,918903417420126,
Raw,1733208001999,7567279064,18,0.0,-1417243212432720896,0.0,10.022054672241211,-8.112034797668457,0.0,0,19,0.0,3072,15985617,27,24.899999618530273,-372.5066833496094,0.252518892288208,16,0.0,0.17855611443519592,1575420030,,,,0,,6,1.2999999523162842,19.899999618530273,0.0,0.0,0.0,0.0,C,918903417420126,
Raw,1733208001999,7567279064,18,0.0,-1417243212432720896,0.0,10.022054672241211,-8.112034797668457,0.0,0,16,0.0,47,196805870627143,32,23.0,-50.66172790527344,0.3086419701576233,16,0.0,0.21824073791503906,1561097980,,,,0,,5,1.2999999523162842,18.0,0.0,0.0,0.0,0.0,C,918903417420126,
Raw,1733208001999,7567279064,18,0.0,-1417243212432720896,0.0,10.022054672241211,-8.112034797668457,0.0,0,196,0.0,15,196819876443887,32,23.100000381469727,-77.4785385131836,0.3052409589290619,16,0.0,0.21583588421344757,1575420030,,,,0,,4,1.2999999523162842,18.100000381469727,0.0,0.0,0.0,0.0,C,918903417420126,
Raw,1733208001999,7567279064,18,0.0,-1417243212432720896,0.0,10.022054672241211,-8.112034797668457,0.0,0,7,0.0,47,196805876539376,35,22.200000762939453,-170.64918518066406,0.33802053332328796,16,0.0,0.23901431262493134,1561097980,,,,0,,5,1.2999999523162842,17.200000762939453,0.0,0.0,0.0,0.0,C,918903417420126,
Raw,1733208001999,7567279064,18,0.0,-1417243212432720896,0.0,10.022054672241211,-8.112034797668457,0.0,0,39,0.0,47,196805870345825,38,21.200000762939453,-69.14275360107422,0.38103944063186646,16,0.0,0.26943299174308777,1561097980,,,,0,,5,1.2999999523162842,16.200000762939453,0.0,0.0,0.0,0.0,C,918903417420126,
Raw,1733208001999,7567279064,18,0.0,-1417243212432720896,0.0,10.022054672241211,-8.112034797668457,0.0,0,7,0.0,3072,11836523,42,20.299999237060547,202.02767944335938,0.42718610167503357,16,0.0,0.3020632863044739,1575420030,,,,0,,6,1.2999999523162842,15.300000190734863,0.0,0.0,0.0,0.0,C,918903417420126,
Raw,1733208001999,7567279064,18,0.0,-1417243212432720896,0.0,10.022054672241211,-8.112034797668457,0.0,0,8,0.0,239,34801931387205,43,20.0,385.5160217285156,0.4444444477558136,16,0.0,0.3142666816711426,1605374980,,,,0,,3,1.2999999523162842,15.0,0.0,0.0,0.0,0.0,C,918903417420126,
Raw,1733208001999,7567279064,18,0.0,-1417243212432720896,0.0,10.022054672241211,-8.112034797668457,0.0,0,27,0.0,3072,13163553,48,19.0,460.54168701171875,0.5102040767669678,16,0.0,0.3607653081417084,1575420030,,,,0,,6,1.2999999523162842,14.0,0.0,0.0,0.0,0.0,C,918903417420126,
Fix,GPS,12.9273179406,77.5195831340,750.0,0.0,10.0,,1733208002000,0.46,,787841296461898,15.0,0,,,
Fix,FLP,12.9273177000,77.5195817000,750.0,0.20583391,15.083,0.65249646,1733208001882,0.46,45.0,787841296461898,15.0,0,,,
Raw,1733208002999,8567279003,18,0.0,-1417243212432720896,0.0,10.022054672241211,-8.59522819519043,0.0,0,4,0.0,15,196820928793960,15,33.5,-392.3516540527344,0.12311480194330215,17,-21364.57785488176,0.1822013109922409,1575420030,,,,0,,1,1.2999999523162842,28.5,0.0,0.0,0.0,0.0,C,918904489062134,
Raw,1733208002999,8567279003,18,0.0,-1417243212432720896,0.0,10.022054672241211,-8.59522819519043,0.0,0,8,0.0,15,196820926654922,20,29.100000381469727,-457.49725341796875,0.17217335104942322,16,0.0,0.12174377590417862,1575420030,,,,0,,1,1.2999999523162842,24.100000381469727,0.0,0.0,0.0,0.0,C,918904489062134,
Raw,1733208002999,8567279003,18,0.0,-1417243212432720896,0.0,10.022054672241211,-8.59522819519043,0.0,0,7,0.0,15,196820919838469,22,27.700000762939453,-101.97294616699219,0.19406546652317047,16,0.0,0.13722369074821472,1575420030,,,,0,,1,1.2999999523162842,22.700000762939453,0.0,0.0,0.0,0.0,C,918904489062134,
Raw,1733208002999,8567279003,18,0.0,-1417243212432720896,0.0,10.022054672241211,-8.59522819519043,0.0,0,16,0.0,15,196820928399683,23,26.899999618530273,522.2477416992188,0.20850275456905365,16,0.0,0.14743229746818542,1575420030,,,,0,,1,1.2999999523162842,21.899999618530273,0.0,0.0,0.0,0.0,C,918904489062134,
Raw,1733208002999,8567279003,18,0.0,-1417243212432720896,0.0,10.022054672241211,-8.59522819519043,0.0,0,27,0.0,15,196820926392396,27,24.899999618530273,-210.59043884277344,0.252518892288208,16,0.0,0.17855611443519592,1575420030,,,,0,,1,1.2999999523162842,19.899999618530273,0.0,0.0,0.0,0.0,C,918904489062134,
Raw,1733208002999,8567279003,18,0.0,-1417243212432720896,0.0,10.022054672241211,-8.59522819519043,0.0,0,9,0.0,15,196820923419273,28,24.600000381469727,-548.2618408203125,0.2603082060813904,16,0.0,0.18406392633914948,1575420030,,,,0,,1,1.2999999523162842,19.600000381469727,0.0,0.0,0.0,0.0,C,918904489062134,
Raw,1733208002999,8567279003,18,0.0,-1417243212432720896,0.0,10.022054672241211,-8.59522819519043,0.0,0,3,0.0,15,196820931052386,23,27.200000762939453,267.43426513671875,0.2029055953025818,16,0.0,0.1434745490550995,1575420030,,,,0,,1,1.2999999523162842,22.200000762939453,0.0,0.0,0.0,0.0,C,918904489062134,
Raw,1733208002999,8567279003,18,0.0,-1417243212432720896,0.0,10.022054672241211,-8.59522819519043,0.0,0,11,0.0,239,34802925987176,11,39.400001525878906,626.5402221679688,0.08450513333082199,16,0.0,0.059753578156232834,1602000000,,,,0,,3,1.2999999523162842,34.400001525878906,0.0,0.0,0.0,0.0,C,918904489062134,
Raw,1733208002999,8567279003,18,0.0,-1417243212432720896,0.0,10.022054672241211,-8.59522819519043,0.0,0,12,0.0,239,34802933187863,15,34.29999923706055,157.54653930664062,0.11648360639810562,16,0.0,0.08236555755138397,1601437440,,,,0,,3,1.2999999523162842,29.299999237060547,0.0,0.0,0.0,0.0,C,918904489062134,
Raw,1733208002999,8567279003,18,0.0,-1417243212432720896,0.0,10.022054672241211,-8.59522819519043,0.0,0,45,0.0,47,196806922333267,15,34.29999923706055,-94.4295883178711,0.11648360639810562,25,-20905.613934548222,0.08236555755138397,1561097980,,,,0,,5,1.2999999523162842,29.299999237060547,0.0,0.0,0.0,0.0,C,918904489062134,
Raw,1733208002999,8567279003,18,0.0,-1417243212432720896,0.0,10.022054672241211,-8.59522819519043,0.0,0,13,0.0,47,196806872574650,21,28.5,302.0365295410156,0.18107740581035614,16,0.0,0.12803983688354492,1561097980,,,,0,,5,1.2999999523162842,23.5,0.0,0.0,0.0,0.0,C,918904489062134,
Raw,1733208002999,8567279003,18,0.0,-1417243212432720896,0.0,10.022054672241211,-8.59522819519043,0.0,0,36,0.0,47,196806924518998,15,33.70000076293945,278.7198791503906,0.12140488624572754,16,0.0,0.08584539592266083,1561097980,,,,0,,5,1.2999999523162842,28.700000762939453,0.0,0.0,0.0,0.0,C,918904489062134,
Raw,1733208002999,8567279003,18,0.0,-1417243212432720896,0.0,10.022054672241211,-8.59522819519043,0.0,0,40,0.0,47,196806874463956,19,29.899999618530273,-226.1025390625,0.16128772497177124,16,0.0,0.11404655128717422,1561097980,,,,0,,5,1.2999999523162842,24.899999618530273,0.0,0.0,0.0,0.0,C,918904489062134,
Raw,1733208002999,8567279003,18,0.0,-1417243212432720896,0.0,10.022054672241211,-8.59522819519043,0.0,0,9,0.0,47,196806871675888,23,27.0,-9.893702507019043,0.20661157369613647,16,0.0,0.14609503746032715,1561097980,,,,0,,5,1.2999999523162842,22.0,0.0,0.0,0.0,0.0,C,918904489062134,
Raw,1733208002999,8567279003,18,0.0,-1417243212432720896,0.0,10.022054672241211,-8.59522819519043,0.0,0,22,0.0,46,196806924112122,15,33.79999923706055,-413.2496032714844,0.12056328356266022,16,0.0,0.08525029569864273,1561097980,,,,0,,5,1.2999999523162842,28.799999237060547,0.0,0.0,0.0,0.0,C,918904489062134,
Raw,1733208002999,8567279003,18,0.0,-1417243212432720896,0.0,10.022054672241211,-8.59522819519043,0.0,0,21,0.0,3072,21832578,15,34.099998474121094,62.46242904663086,0.11809024214744568,16,0.0,0.08350160717964172,1575420030,,,,0,,6,1.2999999523162842,29.100000381469727,0.0,0.0,0.0,0.0,C,918904489062134,
Raw,1733208002999,8567279003,18,0.0,-1417243212432720896,0.0,10.022054672241211,-8.59522819519043,0.0,0,19,0.0,3072,15986831,27,25.100000381469727,-372.3079528808594,0.2475186139345169,16,0.0,0.17502041161060333,1575420030,,,,0,,6,1.2999999523162842,20.100000381469727,0.0,0.0,0.0,0.0,C,918904489062134,
Raw,1733208002999,8567279003,18,0.0,-1417243212432720896,0.0,10.022054672241211,-8.59522819519043,0.0,0,20,0.0,47,196806916457928,25,25.799999237060547,539.3129272460938,0.23113907873630524,16,0.0,0.16343843936920166,1561097980,,,,0,,5,1.2999999523162842,20.799999237060547,0.0,0.0,0.0,0.0,C,918904489062134,
Raw,1733208002999,8567279003,18,0.0,-1417243212432720896,0.0,10.022054672241211,-8.59522819519043,0.0,0,1,0.0,238,34802934586059,17,31.899999618530273,-373.6168518066406,0.13819599151611328,16,0.0,0.09771838784217834,1602562560,,,,0,,3,1.2999999523162842,26.899999618530273,0.0,0.0,0.0,0.0,C,918904489062134,
Raw,1733208002999,8567279003,18,0.0,-1417243212432720896,0.0,10.022054672241211,-8.59522819519043,0.0,0,16,0.0,47,196806870627259,32,23.0,-49.62355041503906,0.3086419701576233,16,0.0,0.21824073791503906,1561097980,,,,0,,5,1.2999999523162842,18.0,0.0,0.0,0.0,0.0,C,918904489062134,
Raw,1733208002999,8567279003,18,0.0,-1417243212432720896,0.0,10.022054672241211,-8.59522819519043,0.0,0,196,0.0,15,196820876444087,32,23.0,-77.54349517822266,0.3086419701576233,16,0.0,0.21824073791503906,1575420030,,,,0,,4,1.2999999523162842,18.0,0.0,0.0,0.0,0.0,C,918904489062134,
Raw,1733208002999,8567279003,18,0.0,-1417243212432720896,0.0,10.022054672241211,-8.59522819519043,0.0,0,7,0.0,47,196806876539838,35,22.100000381469727,-170.4084014892578,0.3419855535030365,16,0.0,0.24181798100471497,1561097980,,,,0,,5,1.2999999523162842,17.100000381469727,0.0,0.0,0.0,0.0,C,918904489062134,
Raw,1733208002999,8567279003,18,0.0,-1417243212432720896,0.0,10.022054672241211,-8.59522819519043,0.0,0,8,0.0,239,34802931385892,41,20.5,383.7304382324219,0.416233092546463,16,0.0,0.29431840777397156,1605374980,,,,0,,3,1.2999999523162842,15.5,0.0,0.0,0.0,0.0,C,918904489062134,
Raw,1733208002999,8567279003,18,0.0,-1417243212432720896,0.0,10.022054672241211,-8.59522819519043,0.0,0,39,0.0,47,196806870345947,39,21.100000381469727,-69.07746124267578,0.3857875466346741,16,0.0,0.2727903723716736,1561097980,,,,0,,5,1.2999999523162842,16.100000381469727,0.0,0.0,0.0,0.0,C,918904489062134,
Raw,1733208002999,8567279003,18,0.0,-1417243212432720896,0.0,10.022054672241211,-8.59522819519043,0.0,0,7,0.0,3072,11835781,42,20.299999237060547,200.9770050048828,0.42718610167503357,16,0.0,0.3020632863044739,1575420030,,,,0,,6,1.2999999523162842,15.300000190734863,0.0,0.0,0.0,0.0,C,918904489062134,
Raw,1733208002999,8567279003,18,0.0,-1417243212432720896,0.0,10.022054672241211,-8.59522819519043,0.0,0,27,0.0,3072,13161990,49,18.899999618530273,460.502197265625,0.5175715684890747,16,0.0,0.3659748435020447,1575420030,,,,0,,6,1.2999999523162842,13.899999618530273,0.0,0.0,0.0,0.0,C,918904489062134,
Fix,GPS,12.9273179406,77.5195831340,750.0,0.0,9.5,,1733208003000,0.75,,787842298465513,15.0,0,,,
Fix,FLP,12.9273186000,77.5195825000,750.0,0.20133677,13.166,1.4557925,1733208002885,0.75,45.0,787842298465513,15.0,0,,,
Raw,1733208003999,9567279003,18,0.0,-1417243212432720896,0.0,10.022054672241211,-9.078675270080566,0.0,0,4,0.0,15,196821928795274,15,33.900001525878906,-392.396240234375,0.1197303757071495,17,-21756.94299628999,0.17980818450450897,1575420030,,,,0,,1,1.2999999523162842,28.899999618530273,0.0,0.0,0.0,0.0,C,918905472865614,
Raw,1733208003999,9567279003,18,0.0,-1417243212432720896,0.0,10.022054672241211,-9.078675270080566,0.0,0,8,0.0,15,196821926656410,19,29.5,-457.4161682128906,0.16659724712371826,16,0.0,0.11780091375112534,1575420030,,,,0,,1,1.2999999523162842,24.5,0.0,0.0,0.0,0.0,C,918905472865614,
Raw,1733208003999,9567279003,18,0.0,-1417243212432720896,0.0,10.022054672241211,-9.078675270080566,0.0,0,7,0.0,15,196821919838849,22,27.700000762939453,-102.54054260253906,0.19406546652317047,16,0.0,0.13722369074821472,1575420030,,,,0,,1,1.2999999523162842,22.700000762939453,0.0,0.0,0.0,0.0,C,918905472865614,
Raw,1733208003999,9567279003,18,0.0,-1417243212432720896,0.0,10.022054672241211,-9.078675270080566,0.0,0,16,0.0,15,196821928397935,23,27.200000762939453,521.971923828125,0.2029055953025818,16,0.0,0.1434745490550995,1575420030,,,,0,,1,1.2999999523162842,22.200000762939453,0.0,0.0,0.0,0.0,C,918905472865614,
Raw,1733208003999,9567279003,18,0.0,-1417243212432720896,0.0,10.022054672241211,-9.078675270080566,0.0,0,27,0.0,15,196821926393074,27,25.100000381469727,-211.4246063232422,0.2475186139345169,16,0.0,0.17502041161060333,1575420030,,,,0,,1,1.2999999523162842,20.100000381469727,0.0,0.0,0.0,0.0,C,918905472865614,
Raw,1733208003999,9567279003,18,0.0,-1417243212432720896,0.0,10.022054672241211,-9.078675270080566,0.0,0,9,0.0,15,196821923421087,29,24.399999618530273,-547.848388671875,0.2657030522823334,16,0.0,0.18787862360477448,1575420030,,,,0,,1,1.2999999523162842,19.399999618530273,0.0,0.0,0.0,0.0,C,918905472865614,
Raw,1733208003999,9567279003,18,0.0,-1417243212432720896,0.0,10.022054672241211,-9.078675270080566,0.0,0,3,0.0,15,196821931051445,24,26.399999618530273,267.34600830078125,0.21835967898368835,16,0.0,0.15440212190151215,1575420030,,,,0,,1,1.2999999523162842,21.399999618530273,0.0,0.0,0.0,0.0,C,918905472865614,
Raw,1733208003999,9567279003,18,0.0,-1417243212432720896,0.0,10.022054672241211,-9.078675270080566,0.0,0,11,0.0,239,34803925985076,11,39.29999923706055,626.4948120117188,0.08499860018491745,16,0.0,0.06010251119732857,1602000000,,,,0,,3,1.2999999523162842,34.29999923706055,0.0,0.0,0.0,0.0,C,918905472865614,
Raw,1733208003999,9567279003,18,0.0,-1417243212432720896,0.0,10.022054672241211,-9.078675270080566,0.0,0,12,0.0,239,34803933187356,15,34.29999923706055,157.58128356933594,0.11648360639810562,16,0.0,0.08236555755138397,1601437440,,,,0,,3,1.2999999523162842,29.299999237060547,0.0,0.0,0.0,0.0,C,918905472865614,
Raw,1733208003999,9567279003,18,0.0,-1417243212432720896,0.0,10.022054672241211,-9.078675270080566,0.0,0,13,0.0,47,196807872573633,18,31.100000381469727,301.8778381347656,0.14679761230945587,16,0.0,0.10380059480667114,1561097980,,,,0,,5,1.2999999523162842,26.100000381469727,0.0,0.0,0.0,0.0,C,918905472865614,
Raw,1733208003999,9567279003,18,0.0,-1417243212432720896,0.0,10.022054672241211,-9.078675270080566,0.0,0,36,0.0,47,196807924518083,16,33.0,278.5740051269531,0.12755101919174194,16,0.0,0.0901913270354271,1561097980,,,,0,,5,1.2999999523162842,28.0,0.0,0.0,0.0,0.0,C,918905472865614,
Raw,1733208003999,9567279003,18,0.0,-1417243212432720896,0.0,10.022054672241211,-9.078675270080566,0.0,0,40,0.0,47,196807874464698,19,29.700000762939453,-226.82505798339844,0.16391023993492126,16,0.0,0.1159009337425232,1561097980,,,,0,,5,1.2999999523162842,24.700000762939453,0.0,0.0,0.0,0.0,C,918905472865614,
Raw,1733208003999,9567279003,18,0.0,-1417243212432720896,0.0,10.022054672241211,-9.078675270080566,0.0,0,9,0.0,47,196807871675927,23,27.399999618530273,-11.072901725769043,0.19929847121238708,16,0.0,0.14092394709587097,1561097980,,,,0,,5,1.2999999523162842,22.399999618530273,0.0,0.0,0.0,0.0,C,918905472865614,
Raw,1733208003999,9567279003,18,0.0,-1417243212432720896,0.0,10.022054672241211,-9.078675270080566,0.0,0,21,0.0,3072,21832338,16,32.70000076293945,63.010231018066406,0.13032881915569305,16,0.0,0.09215550869703293,1575420030,,,,0,,6,1.2999999523162842,27.700000762939453,0.0,0.0,0.0,0.0,C,918905472865614,
Raw,1733208003999,9567279003,18,0.0,-1417243212432720896,0.0,10.022054672241211,-9.078675270080566,0.0,0,19,0.0,3072,15988110,27,25.100000381469727,-373.4102478027344,0.2475186139345169,16,0.0,0.17502041161060333,1575420030,,,,0,,6,1.2999999523162842,20.100000381469727,0.0,0.0,0.0,0.0,C,918905472865614,
Raw,1733208003999,9567279003,18,0.0,-1417243212432720896,0.0,10.022054672241211,-9.078675270080566,0.0,0,20,0.0,47,196807916456173,26,25.600000381469727,539.0942993164062,0.235648974776268,16,0.0,0.16662739217281342,1561097980,,,,0,,5,1.2999999523162842,20.600000381469727,0.0,0.0,0.0,0.0,C,918905472865614,
Raw,1733208003999,9567279003,18,0.0,-1417243212432720896,0.0,10.022054672241211,-9.078675270080566,0.0,0,1,0.0,239,34803934587353,18,30.600000381469727,-371.2855529785156,0.1525878757238388,16,0.0,0.1078948900103569,1602562560,,,,0,,3,1.2999999523162842,25.600000381469727,0.0,0.0,0.0,0.0,C,918905472865614,
Raw,1733208003999,9567279003,18,0.0,-1417243212432720896,0.0,10.022054672241211,-9.078675270080566,0.0,0,45,0.0,46,196807922333560,15,33.29999923706055,-95.25106048583984,0.12486109882593155,16,0.0,0.0882892832159996,1561097980,,,,0,,5,1.2999999523162842,28.299999237060547,0.0,0.0,0.0,0.0,C,918905472865614,
Raw,1733208003999,9567279003,18,0.0,-1417243212432720896,0.0,10.022054672241211,-9.078675270080566,0.0,0,38,0.0,47,196807867049064,30,24.0,267.0679626464844,0.2770083248615265,16,0.0,0.19587258994579315,1561097980,,,,0,,5,1.2999999523162842,19.0,0.0,0.0,0.0,0.0,C,918905472865614,
Raw,1733208003999,9567279003,18,0.0,-1417243212432720896,0.0,10.022054672241211,-9.078675270080566,0.0,0,22,0.0,47,196807924113507,16,32.400001525878906,-413.408203125,0.13319836556911469,16,0.0,0.09418456256389618,1561097980,,,,0,,5,1.2999999523162842,27.399999618530273,0.0,0.0,0.0,0.0,C,918905472865614,
Raw,1733208003999,9567279003,18,0.0,-1417243212432720896,0.0,10.022054672241211,-9.078675270080566,0.0,0,196,0.0,15,196821876444290,33,22.799999237060547,-76.31784057617188,0.31561675667762756,16,0.0,0.2231726050376892,1575420030,,,,0,,4,1.2999999523162842,17.799999237060547,0.0,0.0,0.0,0.0,C,918905472865614,
Raw,1733208003999,9567279003,18,0.0,-1417243212432720896,0.0,10.022054672241211,-9.078675270080566,0.0,0,8,0.0,239,34803931384506,37,21.399999618530273,383.21923828125,0.37180250883102417,16,0.0,0.26290154457092285,1605374980,,,,0,,3,1.2999999523162842,16.399999618530273,0.0,0.0,0.0,0.0,C,918905472865614,
Raw,1733208003999,9567279003,18,0.0,-1417243212432720896,0.0,10.022054672241211,-9.078675270080566,0.0,0,16,0.0,47,196807870627398,33,22.799999237060547,-49.25115966796875,0.31561675667762756,16,0.0,0.2231726050376892,1561097980,,,,0,,5,1.2999999523162842,17.799999237060547,0.0,0.0,0.0,0.0,C,918905472865614,
Raw,1733208003999,9567279003,18,0.0,-1417243212432720896,0.0,10.022054672241211,-9.078675270080566,0.0,0,7,0.0,3072,11835152,41,20.600000381469727,200.61207580566406,0.4109138548374176,16,0.0,0.2905571758747101,1575420030,,,,0,,6,1.2999999523162842,15.600000381469727,0.0,0.0,0.0,0.0,C,918905472865614,
Raw,1733208003999,9567279003,18,0.0,-1417243212432720896,0.0,10.022054672241211,-9.078675270080566,0.0,0,27,0.0,3072,13160430,49,18.899999618530273,460.496826171875,0.5175715684890747,16,0.0,0.3659748435020447,1575420030,,,,0,,6,1.2999999523162842,13.899999618530273,0.0,0.0,0.0,0.0,C,918905472865614,
Fix,GPS,12.9273179406,77.5195831340,750.0,0.0,8.5,,1733208004000,0.85,,787843305304243,14.0,0,,,
Fix,FLP,12.9273182000,77.5195827000,750.0,0.16765304,10.429,83.927444,1733208003892,0.15980367,180.0,787843305304243,14.0,0,,,
Raw,1733208004999,10567279003,18,0.0,-1417243212432720896,0.0,10.022054672241211,-9.46194839477539,0.0,0,4,0.0,15,196822928796576,15,34.20000076293945,-392.3422546386719,0.11728279292583466,17,-22149.29287150124,0.17807748913764954,1575420030,,,,0,,1,1.2999999523162842,29.200000762939453,0.0,0.0,0.0,0.0,C,918906416494801,
Raw,1733208004999,10567279003,18,0.0,-1417243212432720896,0.0,10.022054672241211,-9.46194839477539,0.0,0,8,0.0,15,196822926657942,19,30.0,-457.4640808105469,0.1599999964237213,16,0.0,0.11313600093126297,1575420030,,,,0,,1,1.2999999523162842,25.0,0.0,0.0,0.0,0.0,C,918906416494801,
Raw,1733208004999,10567279003,18,0.0,-1417243212432720896,0.0,10.022054672241211,-9.46194839477539,0.0,0,7,0.0,15,196822919839189,22,27.700000762939453,-102.94691467285156,0.19406546652317047,16,0.0,0.13722369074821472,1575420030,,,,0,,1,1.2999999523162842,22.700000762939453,0.0,0.0,0.0,0.0,C,918906416494801,
Raw,1733208004999,10567279003,18,0.0,-1417243212432720896,0.0,10.022054672241211,-9.46194839477539,0.0,0,16,0.0,15,196822928396144,23,27.399999618530273,522.0448608398438,0.19929847121238708,16,0.0,0.14092394709587097,1575420030,,,,0,,1,1.2999999523162842,22.399999618530273,0.0,0.0,0.0,0.0,C,918906416494801,
Raw,1733208004999,10567279003,18,0.0,-1417243212432720896,0.0,10.022054672241211,-9.46194839477539,0.0,0,27,0.0,15,196822926393791,26,25.299999237060547,-212.02191162109375,0.24266545474529266,16,0.0,0.1715887486934662,1575420030,,,,0,,1,1.2999999523162842,20.299999237060547,0.0,0.0,0.0,0.0,C,918906416494801,
Raw,1733208004999,10567279003,18,0.0,-1417243212432720896,0.0,10.022054672241211,-9.46194839477539,0.0,0,9,0.0,15,196822923422890,29,24.200000762939453,-548.2111206054688,0.2712673544883728,16,0.0,0.1918131411075592,1575420030,,,,0,,1,1.2999999523162842,19.200000762939453,0.0,0.0,0.0,0.0,C,918906416494801,
Raw,1733208004999,10567279003,18,0.0,-1417243212432720896,0.0,10.022054672241211,-9.46194839477539,0.0,0,3,0.0,15,196822931050485,26,25.700000762939453,267.10906982421875,0.23337766528129578,16,0.0,0.16502134501934052,1575420030,,,,0,,1,1.2999999523162842,20.700000762939453,0.0,0.0,0.0,0.0,C,918906416494801,
Raw,1733208004999,10567279003,18,0.0,-1417243212432720896,0.0,10.022054672241211,-9.46194839477539,0.0,0,11,0.0,239,34804925983006,11,39.20000076293945,626.5087890625,0.08549638837575912,16,0.0,0.06045449525117874,1602000000,,,,0,,3,1.2999999523162842,34.20000076293945,0.0,0.0,0.0,0.0,C,918906416494801,
Raw,1733208004999,10567279003,18,0.0,-1417243212432720896,0.0,10.022054672241211,-9.46194839477539,0.0,0,12,0.0,239,34804933186861,15,34.29999923706055,157.6915740966797,0.11648360639810562,16,0.0,0.08236555755138397,1601437440,,,,0,,3,1.2999999523162842,29.299999237060547,0.0,0.0,0.0,0.0,C,918906416494801,
Raw,1733208004999,10567279003,18,0.0,-1417243212432720896,0.0,10.022054672241211,-9.46194839477539,0.0,0,13,0.0,47,196808872572607,17,31.200000762939453,302.2467346191406,0.14567914605140686,16,0.0,0.10300972312688828,1561097980,,,,0,,5,1.2999999523162842,26.200000762939453,0.0,0.0,0.0,0.0,C,918906416494801,
Raw,1733208004999,10567279003,18,0.0,-1417243212432720896,0.0,10.022054672241211,-9.46194839477539,0.0,0,36,0.0,47,196808924517124,16,32.599998474121094,278.3194274902344,0.13127493858337402,16,0.0,0.09282451122999191,1561097980,,,,0,,5,1.2999999523162842,27.600000381469727,0.0,0.0,0.0,0.0,C,918906416494801,
Raw,1733208004999,10567279003,18,0.0,-1417243212432720896,0.0,10.022054672241211,-9.46194839477539,0.0,0,40,0.0,47,196808874465434,19,29.5,-226.64093017578125,0.16659724712371826,16,0.0,0.11780091375112534,1561097980,,,,0,,5,1.2999999523162842,24.5,0.0,0.0,0.0,0.0,C,918906416494801,
Raw,1733208004999,10567279003,18,0.0,-1417243212432720896,0.0,10.022054672241211,-9.46194839477539,0.0,0,9,0.0,47,196808871675956,22,27.5,-10.855530738830566,0.1975308656692505,16,0.0,0.1396740823984146,1561097980,,,,0,,5,1.2999999523162842,22.5,0.0,0.0,0.0,0.0,C,918906416494801,
Raw,1733208004999,10567279003,18,0.0,-1417243212432720896,0.0,10.022054672241211,-9.46194839477539,0.0,0,1,0.0,239,34804934588542,19,29.799999237060547,-372.446533203125,0.16259105503559113,16,0.0,0.11496813595294952,1602562560,,,,0,,3,1.2999999523162842,24.799999237060547,0.0,0.0,0.0,0.0,C,918906416494801,
Raw,1733208004999,10567279003,18,0.0,-1417243212432720896,0.0,10.022054672241211,-9.46194839477539,0.0,0,19,0.0,3072,15989396,27,25.0,-373.0856018066406,0.25,16,0.0,0.1767749935388565,1575420030,,,,0,,6,1.2999999523162842,20.0,0.0,0.0,0.0,0.0,C,918906416494801,
Raw,1733208004999,10567279003,18,0.0,-1417243212432720896,0.0,10.022054672241211,-9.46194839477539,0.0,0,21,0.0,3072,21832142,17,31.5,61.916282653808594,0.14239943027496338,16,0.0,0.10069064050912857,1575420030,,,,0,,6,1.2999999523162842,26.5,0.0,0.0,0.0,0.0,C,918906416494801,
Raw,1733208004999,10567279003,18,0.0,-1417243212432720896,0.0,10.022054672241211,-9.46194839477539,0.0,0,22,0.0,47,196808924114909,18,31.100000381469727,-412.9615783691406,0.14679761230945587,16,0.0,0.10380059480667114,1561097980,,,,0,,5,1.2999999523162842,26.100000381469727,0.0,0.0,0.0,0.0,C,918906416494801,
Raw,1733208004999,10567279003,18,0.0,-1417243212432720896,0.0,10.022054672241211,-9.46194839477539,0.0,0,20,0.0,47,196808916454378,26,25.5,538.6521606445312,0.23795360326766968,16,0.0,0.1682569980621338,1561097980,,,,0,,5,1.2999999523162842,20.5,0.0,0.0,0.0,0.0,C,918906416494801,
Raw,1733208004999,10567279003,18,0.0,-1417243212432720896,0.0,10.022054672241211,-9.46194839477539,0.0,0,45,0.0,47,196808922333848,17,31.899999618530273,-95.75907135009766,0.13819599151611328,16,0.0,0.09771838784217834,1561097980,,,,0,,5,1.2999999523162842,26.899999618530273,0.0,0.0,0.0,0.0,C,918906416494801,
Raw,1733208004999,10567279003,18,0.0,-1417243212432720896,0.0,10.022054672241211,-9.46194839477539,0.0,0,38,0.0,47,196808867048209,30,24.0,266.7751159667969,0.2770083248615265,16,0.0,0.19587258994579315,1561097980,,,,0,,5,1.2999999523162842,19.0,0.0,0.0,0.0,0.0,C,918906416494801,
Raw,1733208004999,10567279003,18,0.0,-1417243212432720896,0.0,10.022054672241211,-9.46194839477539,0.0,0,196,0.0,15,196822876444652,33,22.700000762939453,-76.46861267089844,0.319193035364151,16,0.0,0.22570139169692993,1575420030,,,,0,,4,1.2999999523162842,17.700000762939453,0.0,0.0,0.0,0.0,C,918906416494801,
Raw,1733208004999,10567279003,18,0.0,-1417243212432720896,0.0,10.022054672241211,-9.46194839477539,0.0,0,8,0.0,239,34804931383411,35,22.0,382.5945129394531,0.34602075815200806,16,0.0,0.2446712851524353,1605374980,,,,0,,3,1.2999999523162842,17.0,0.0,0.0,0.0,0.0,C,918906416494801,
Raw,1733208004999,10567279003,18,0.0,-1417243212432720896,0.0,10.022054672241211,-9.46194839477539,0.0,0,16,0.0,47,196808870627497,33,22.700000762939453,-48.258113861083984,0.319193035364151,16,0.0,0.22570139169692993,1561097980,,,,0,,5,1.2999999523162842,17.700000762939453,0.0,0.0,0.0,0.0,C,918906416494801,
Raw,1733208004999,10567279003,18,0.0,-1417243212432720896,0.0,10.022054672241211,-9.46194839477539,0.0,0,7,0.0,3072,11834442,40,20.700000762939453,199.8746337890625,0.40569597482681274,16,0.0,0.286867618560791,1575420030,,,,0,,6,1.2999999523162842,15.699999809265137,0.0,0.0,0.0,0.0,C,918906416494801,
Raw,1733208004999,10567279003,18,0.0,-1417243212432720896,0.0,10.022054672241211,-9.46194839477539,0.0,0,29,0.0,47,196808915130640,42,20.200000762939453,-264.17913818359375,0.43282550573349,16,0.0,0.3060509264469147,1561097980,,,,0,,5,1.2999999523162842,15.199999809265137,0.0,0.0,0.0,0.0,C,918906416494801,
Raw,1733208004999,10567279003,18,0.0,-1417243212432720896,0.0,10.022054672241211,-9.46194839477539,0.0,0,27,0.0,3072,13158880,50,18.799999237060547,459.8968200683594,0.5250997543334961,16,0.0,0.37129804491996765,1575420030,,,,0,,6,1.2999999523162842,13.800000190734863,0.0,0.0,0.0,0.0,C,918906416494801,
Fix,GPS,12.9273179406,77.5195831340,750.0,0.0,8.0,,1733208005000,0.78,,787844308961511,14.0,0,,,
Fix,FLP,12.9273176000,77.5195823000,750.0,0.043520052,9.573,,1733208004894,0.096158355,,787844308961511,14.0,0,,,
Fix,FLP,12.9273172000,77.5195816000,750.0,0.088725634,8.978,,1733208005631,0.118910246,,787845045743876,14.0,0,,,
Raw,1733208005999,11567279003,18,0.0,-1417243212432720896,0.0,10.022054672241211,-9.834296226501465,0.0,0,4,0.0,15,196823928797892,14,34.5,-392.2337341308594,0.11490950733423233,17,-22541.56532537515,0.1763993501663208,1575420030,,,,0,,1,1.2999999523162842,29.5,0.0,0.0,0.0,0.0,C,918907486411540,
Raw,1733208005999,11567279003,18,0.0,-1417243212432720896,0.0,10.022054672241211,-9.834296226501465,0.0,0,8,0.0,15,196823926659477,18,30.399999618530273,-457.394775390625,0.15500031411647797,16,0.0,0.1096007227897644,1575420030,,,,0,,1,1.2999999523162842,25.399999618530273,0.0,0.0,0.0,0.0,C,918907486411540,
Raw,1733208005999,11567279003,18,0.0,-1417243212432720896,0.0,10.022054672241211,-9.834296226501465,0.0,0,7,0.0,15,196823919839484,22,27.600000381469727,-102.64005279541016,0.19578666985034943,16,0.0,0.13844075798988342,1575420030,,,,0,,1,1.2999999523162842,22.600000381469727,0.0,0.0,0.0,0.0,C,918907486411540,
Raw,1733208005999,11567279003,18,0.0,-1417243212432720896,0.0,10.022054672241211,-9.834296226501465,0.0,0,16,0.0,15,196823928394476,23,27.399999618530273,522.5181274414062,0.19929847121238708,16,0.0,0.14092394709587097,1575420030,,,,0,,1,1.2999999523162842,22.399999618530273,0.0,0.0,0.0,0.0,C,918907486411540,
Raw,1733208005999,11567279003,18,0.0,-1417243212432720896,0.0,10.022054672241211,-9.834296226501465,0.0,0,27,0.0,15,196823926394468,26,25.600000381469727,-212.16078186035156,0.235648974776268,16,0.0,0.16662739217281342,1575420030,,,,0,,1,1.2999999523162842,20.600000381469727,0.0,0.0,0.0,0.0,C,918907486411540,
Raw,1733208005999,11567279003,18,0.0,-1417243212432720896,0.0,10.022054672241211,-9.834296226501465,0.0,0,9,0.0,15,196823923424660,30,23.899999618530273,-548.379150390625,0.2799473702907562,16,0.0,0.19795078039169312,1575420030,,,,0,,1,1.2999999523162842,18.899999618530273,0.0,0.0,0.0,0.0,C,918907486411540,
Raw,1733208005999,11567279003,18,0.0,-1417243212432720896,0.0,10.022054672241211,-9.834296226501465,0.0,0,3,0.0,15,196823931049596,27,25.100000381469727,267.27557373046875,0.2475186139345169,16,0.0,0.17502041161060333,1575420030,,,,0,,1,1.2999999523162842,20.100000381469727,0.0,0.0,0.0,0.0,C,918907486411540,
Raw,1733208005999,11567279003,18,0.0,-1417243212432720896,0.0,10.022054672241211,-9.834296226501465,0.0,0,11,0.0,239,34805925980935,11,39.0,626.5667724609375,0.08650518953800201,16,0.0,0.061167821288108826,1602000000,,,,0,,3,1.2999999523162842,34.0,0.0,0.0,0.0,0.0,C,918907486411540,
Raw,1733208005999,11567279003,18,0.0,-1417243212432720896,0.0,10.022054672241211,-9.834296226501465,0.0,0,12,0.0,239,34805933186336,14,34.400001525878906,157.87286376953125,0.11569254100322723,16,0.0,0.08180619776248932,1601437440,,,,0,,3,1.2999999523162842,29.399999618530273,0.0,0.0,0.0,0.0,C,918907486411540,
Raw,1733208005999,11567279003,18,0.0,-1417243212432720896,0.0,10.022054672241211,-9.834296226501465,0.0,0,13,0.0,47,196809872571605,17,31.200000762939453,301.6528625488281,0.14567914605140686,16,0.0,0.10300972312688828,1561097980,,,,0,,5,1.2999999523162842,26.200000762939453,0.0,0.0,0.0,0.0,C,918907486411540,
