# 
# Header Description:
# 
# Version: v3.1.0.3 Platform: 13 Manufacturer: OPPO Model: CPH2371 GNSS Hardware Model Name: MTK_MNLD_6_0_0_20040301,MNL_VER_22051902ALPS05_6.7o_00
# 
# Raw,utcTimeMillis,TimeNanos,LeapSecond,TimeUncertaintyNanos,FullBiasNanos,BiasNanos,BiasUncertaintyNanos,DriftNanosPerSecond,DriftUncertaintyNanosPerSecond,HardwareClockDiscontinuityCount,Svid,TimeOffsetNanos,State,ReceivedSvTimeNanos,ReceivedSvTimeUncertaintyNanos,Cn0DbHz,PseudorangeRateMetersPerSecond,PseudorangeRateUncertaintyMetersPerSecond,AccumulatedDeltaRangeState,AccumulatedDeltaRangeMeters,AccumulatedDeltaRangeUncertaintyMeters,CarrierFrequencyHz,CarrierCycles,CarrierPhase,CarrierPhaseUncertainty,MultipathIndicator,SnrInDb,ConstellationType,AgcDb,BasebandCn0DbHz,FullInterSignalBiasNanos,FullInterSignalBiasUncertaintyNanos,SatelliteInterSignalBiasNanos,SatelliteInterSignalBiasUncertaintyNanos,CodeType,ChipsetElapsedRealtimeNanos,IsFullTracking
# 
# UncalAccel,utcTimeMillis,elapsedRealtimeNanos,UncalAccelXMps2,UncalAccelYMps2,UncalAccelZMps2,BiasXMps2,BiasYMps2,BiasZMps2
# 
# Accel,utcTimeMillis,elapsedRealtimeNanos,AccelXMps2,AccelYMps2,AccelZMps2
# 
# UncalGyro,utcTimeMillis,elapsedRealtimeNanos,UncalGyroXRadPerSec,UncalGyroYRadPerSec,UncalGyroZRadPerSec,DriftXRadPerSec,DriftYRadPerSec,DriftZRadPerSec
# 
# Gyro,utcTimeMillis,elapsedRealtimeNanos,GyroXRadPerSec,GyroYRadPerSec,GyroZRadPerSec
# 
# UncalMag,utcTimeMillis,elapsedRealtimeNanos,UncalMagXMicroT,UncalMagYMicroT,UncalMagZMicroT,BiasXMicroT,BiasYMicroT,BiasZMicroT
# 
# Mag,utcTimeMillis,elapsedRealtimeNanos,MagXMicroT,MagYMicroT,MagZMicroT
# 
# Pressure,utcTimeMillis,elapsedRealtimeNanos,PressureHpa
# 
# OrientationDeg,utcTimeMillis,elapsedRealtimeNanos,yawDeg,rollDeg,pitchDeg
# 
# Fix,Provider,LatitudeDegrees,LongitudeDegrees,AltitudeMeters,SpeedMps,AccuracyMeters,BearingDegrees,UnixTimeMillis,SpeedAccuracyMps,BearingAccuracyDegrees,elapsedRealtimeNanos,VerticalAccuracyMeters,MockLocation,NumberOfUsedSignals,VerticalSpeedAccuracyMps,SolutionType
# 
# Nav,Svid,Type,Status,MessageId,Sub-messageId,Data(Bytes)
# 
# Status,UnixTimeMillis,SignalCount,SignalIndex,ConstellationType,Svid,CarrierFrequencyHz,Cn0DbHz,AzimuthDegrees,ElevationDegrees,UsedInFix,HasAlmanacData,HasEphemerisData,BasebandCn0DbHz
# 
# Agc,utcTimeMillis,TimeNanos,LeapSecond,TimeUncertaintyNanos,FullBiasNanos,BiasNanos,BiasUncertaintyNanos,DriftNanosPerSecond,DriftUncertaintyNanosPerSecond,HardwareClockDiscontinuityCount,AgcDb,CarrierFrequencyHz,ConstellationType
# 
Raw,1733209517099,9012000000,18,707008.331827347,-1417244726087000064,0.0,163.2688240774921,-4066.4574764572635,0.0,0,16,0.0,47,198335024130374,74,32.44499969482422,-598.3323209071613,0.14999,17,-5550.879502654738,0.0006249999860301614,1575420030,,,,0,14.455166412588916,1,6.0,32.44499969482422,0.0,0.0,0.0,66.7128,C,,
Raw,1733209517099,9012000000,18,707008.331827347,-1417244726087000064,0.0,163.2688240774921,-4066.4574764572635,0.0,0,3,0.0,47,198335027964744,74,29.934999465942383,-810.3810298060187,0.14999,17,-7599.021095854355,0.0006249999860301614,1575420030,,,,0,11.466014939607255,1,6.0,29.934999465942383,0.0,0.0,0.0,66.7128,C,,
Raw,1733209517099,9012000000,18,707008.331827347,-1417244726087000064,0.0,163.2688240774921,-4066.4574764572635,0.0,0,7,0.0,47,198335018995069,235,27.33099937438965,-1326.1825295280503,0.14999,21,-11531.004314002497,0.0008999999845400453,1575420030,,,,0,8.189285063720845,1,6.0,27.33099937438965,0.0,0.0,0.0,66.7128,C,,
Raw,1733209517099,9012000000,18,707008.331827347,-1417244726087000064,0.0,163.2688240774921,-4066.4574764572635,0.0,0,8,0.0,47,198335027406093,396,23.783000946044922,-1590.550523217654,0.14999,16,-11416.167189990816,0.004900000058114529,1575420030,,,,0,3.275050354687235,1,6.0,23.783000946044922,0.0,0.0,0.0,66.7128,C,,
Raw,1733209517099,9012000000,18,707008.331827347,-1417244726087000064,0.0,163.2688240774921,-4066.4574764572635,0.0,0,36,0.0,47,198321021678131,74,29.799999237060547,-917.38427734375,0.14999,17,-8288.825786859616,0.0006249999860301614,1561097980,,,,0,11.807783755788517,5,6.0,29.799999237060547,0.0,0.0,6.303820999562561,66.7128,I,,
Raw,1733209517099,9012000000,18,707008.331827347,-1417244726087000064,0.0,163.2688240774921,-4066.4574764572635,0.0,0,9,0.0,47,198335024785343,487,17.38599967956543,-1748.2686695711784,0.14999,16,-12711.86834683583,0.009999999776482582,1575420030,,,,0,0.0,1,6.0,17.38599967956543,0.0,0.0,0.0,66.7128,C,,
Raw,1733209518099,10012000000,18,706914.2042092333,-1417244726087000064,0.0,107.4360930921931,-4070.4488610755816,0.0,0,16,0.0,47,198336024132378,58,32.67300033569336,-600.8058599030428,0.14999,17,-6150.325327673541,0.00039999998989515007,1575420030,,,,0,16.53686348566736,1,6.0,32.67300033569336,0.0,0.0,0.0,66.7128,C,,
Raw,1733209518099,10012000000,18,706914.2042092333,-1417244726087000064,0.0,107.4360930921931,-4070.4488610755816,0.0,0,3,0.0,47,198336027967442,235,29.509000778198242,-812.8381225225617,0.14999,17,-8410.093325672313,0.0008999999845400453,1575420030,,,,0,10.944226466412347,1,6.0,29.509000778198242,0.0,0.0,0.0,66.7128,C,,
Raw,1733209518099,10012000000,18,706914.2042092333,-1417244726087000064,0.0,107.4360930921931,-4070.4488610755816,0.0,0,7,0.0,47,198336018999491,316,26.10300064086914,-1328.9558182253222,0.14999,17,-12858.467165296546,0.002025000052526593,1575420030,,,,0,6.555834283498255,1,6.0,26.10300064086914,0.0,0.0,0.0,66.7128,C,,
Raw,1733209518099,10012000000,18,706914.2042092333,-1417244726087000064,0.0,107.4360930921931,-4070.4488610755816,0.0,0,8,0.0,47,198336027411404,316,25.020000457763672,-1592.7639879995888,0.14999,16,-13007.522840871563,0.002025000052526593,1575420030,,,,0,5.0480089598313445,1,6.0,25.020000457763672,0.0,0.0,0.0,66.7128,C,,
Raw,1733209518099,10012000000,18,706914.2042092333,-1417244726087000064,0.0,107.4360930921931,-4070.4488610755816,0.0,0,36,0.0,47,198322021681199,58,35.29999923706055,-919.7630004882812,0.14999,17,-9207.153162244706,0.00039999998989515007,1561097980,,,,0,17.7635898783665,5,6.0,35.29999923706055,0.0,0.0,6.247078094049398,66.7128,I,,
Raw,1733209518099,10012000000,18,706914.2042092333,-1417244726087000064,0.0,107.4360930921931,-4070.4488610755816,0.0,0,22,0.0,47,198322024544976,74,27.0,-1510.535400390625,0.14999,16,-12411.727136737549,0.0006249999860301614,1561097980,,,,0,8.530225227291504,5,6.0,27.0,0.0,0.0,6.247078094049398,66.7128,I,,
Raw,1733209518099,10012000000,18,706914.2042092333,-1417244726087000064,0.0,107.4360930921931,-4070.4488610755816,0.0,0,4,0.0,47,198336029255001,487,18.55299949645996,-1544.5684916069386,0.14999,16,-12191.629371895962,0.009999999776482582,1575420030,,,,0,0.0,1,6.0,18.55299949645996,0.0,0.0,0.0,66.7128,C,,
Raw,1733209518099,10012000000,18,706914.2042092333,-1417244726087000064,0.0,107.4360930921931,-4070.4488610755816,0.0,0,9,0.0,47,198336024791120,487,20.770999908447266,-1750.196693843916,0.14999,16,-14460.874262516714,0.009999999776482582,1575420030,,,,0,0.0,1,6.0,20.770999908447266,0.0,0.0,0.0,66.7128,C,,
Fix,FLP,12.9241802000,77.5225955000,761.2999877929688,0.27622962,40.972,193.21227,1733209515641,1.5,45.0,632977785000000,2.19656,0,,,
Raw,1733209520001,11914000000,18,95.02117425993625,-1417244726087000064,0.0,95.02117425993625,-4064.333643389295,0.0,0,16,0.0,47,198337926136186,58,32.569000244140625,-599.5495778702935,0.14999,17,-7303.247005514783,0.00039999998989515007,1575420030,,,,0,15.314128618587716,1,6.0,32.569000244140625,0.0,0.0,0.0,66.7128,C,,
Raw,1733209520001,11914000000,18,95.02117425993625,-1417244726087000064,0.0,95.02117425993625,-4064.333643389295,0.0,0,3,0.0,16431,198337929972591,235,28.82699966430664,-810.8051951460209,0.14999,17,-9965.37421477205,0.0008999999845400453,1575420030,,,,0,10.089186857993349,1,6.0,28.82699966430664,0.0,0.0,0.0,66.7128,C,,
Raw,1733209520001,11914000000,18,95.02117425993625,-1417244726087000064,0.0,95.02117425993625,-4064.333643389295,0.0,0,7,0.0,47,198337921007911,74,30.099000930786133,-1327.7139847600145,0.14999,17,-15396.220636990829,0.0006249999860301614,1575420030,,,,0,11.665128550105134,1,6.0,30.099000930786133,0.0,0.0,0.0,66.7128,C,,
Raw,1733209520001,11914000000,18,95.02117425993625,-1417244726087000064,0.0,95.02117425993625,-4064.333643389295,0.0,0,8,0.0,47,198337929421492,316,24.80500030517578,-1591.4642673476828,0.14999,17,-16046.427766309896,0.002025000052526593,1575420030,,,,0,4.7549632023954675,1,6.0,24.80500030517578,0.0,0.0,0.0,66.7128,C,,
Raw,1733209520001,11914000000,18,95.02117425993625,-1417244726087000064,0.0,95.02117425993625,-4064.333643389295,0.0,0,9,0.0,47,198323872462030,58,33.20000076293945,-1264.2191162109375,0.14999,17,-14604.598224978936,0.00039999998989515007,1561097980,,,,0,15.482225451638072,5,6.0,33.20000076293945,0.0,0.0,7.648495187532246,66.7128,I,,
Raw,1733209520001,11914000000,18,95.02117425993625,-1417244726087000064,0.0,95.02117425993625,-4064.333643389295,0.0,0,36,0.0,47,198323923687037,58,35.18000030517578,-918.4058227539062,0.14999,17,-10966.81151217529,0.00039999998989515007,1561097980,,,,0,15.166613425352208,5,6.0,35.18000030517578,0.0,0.0,7.648495187532246,66.7128,I,,
Raw,1733209520001,11914000000,18,95.02117425993625,-1417244726087000064,0.0,95.02117425993625,-4064.333643389295,0.0,0,22,0.0,47,198323926554604,74,29.700000762939453,-1510.7069091796875,0.14999,16,-15298.65041115663,0.0006249999860301614,1561097980,,,,0,11.625635227353142,5,6.0,29.700000762939453,0.0,0.0,7.648495187532246,66.7128,I,,
Raw,1733209520001,11914000000,18,95.02117425993625,-1417244726087000064,0.0,95.02117425993625,-4064.333643389295,0.0,0,12,0.0,17,680545,316,0.0,-929.8359229812144,0.14999,16,-13552.668839018508,0.002025000052526593,1601437440,,,,0,5.504454641153914,3,6.0,25.0,0.0,0.0,-45.78733892677048,66.7128,C,,
Raw,1733209520001,11914000000,18,95.02117425993625,-1417244726087000064,0.0,95.02117425993625,-4064.333643389295,0.0,0,4,0.0,47,198337931264816,316,25.208999633789062,-1541.3854396786899,0.14999,17,-15136.670651101802,0.002025000052526593,1575420030,,,,0,5.33148972596959,1,6.0,25.208999633789062,0.0,0.0,0.0,66.7128,C,,
Raw,1733209520001,11914000000,18,95.02117425993625,-1417244726087000064,0.0,95.02117425993625,-4064.333643389295,0.0,0,9,0.0,47,198337926802202,396,24.17099952697754,-1749.3455756589387,0.14999,16,-17799.92570519655,0.004900000058114529,1575420030,,,,0,3.8113816484860825,1,6.0,24.17099952697754,0.0,0.0,0.0,66.7128,C,,
Raw,1733209521001,12914000000,18,91.71105221332428,-1417244726087000064,0.0,91.71105221332428,-4055.627946472062,0.0,0,16,0.0,47,198338926138181,58,32.590999603271484,-597.0123443857875,0.14999,17,-7890.106039289373,0.00039999998989515007,1575420030,,,,0,15.109745314953997,1,6.0,32.590999603271484,0.0,0.0,0.0,66.7128,C,,
Raw,1733209521001,12914000000,18,91.71105221332428,-1417244726087000064,0.0,91.71105221332428,-4055.627946472062,0.0,0,3,0.0,16431,198338929975291,235,27.386999130249023,-808.6239725049361,0.14999,21,-10763.907194823832,0.0008999999845400453,1575420030,,,,0,8.24835664081321,1,6.0,27.386999130249023,0.0,0.0,0.0,66.7128,C,,
Raw,1733209521001,12914000000,18,91.71105221332428,-1417244726087000064,0.0,91.71105221332428,-4055.627946472062,0.0,0,7,0.0,47,198338921012329,74,30.229999542236328,-1325.3392163569965,0.14999,21,-16711.28870096391,0.0006249999860301614,1575420030,,,,0,11.817516487508975,1,6.0,30.229999542236328,0.0,0.0,0.0,66.7128,C,,
Raw,1733209521001,12914000000,18,91.71105221332428,-1417244726087000064,0.0,91.71105221332428,-4055.627946472062,0.0,0,8,0.0,47,198338929426791,396,23.610000610351562,-1588.1859756662025,0.14999,20,-17624.72919039903,0.004900000058114529,1575420030,,,,0,3.016689276829158,1,6.0,23.610000610351562,0.0,0.0,0.0,66.7128,C,,
Raw,1733209521001,12914000000,18,91.71105221332428,-1417244726087000064,0.0,91.71105221332428,-4055.627946472062,0.0,0,9,0.0,47,198324872466248,74,32.0,-1261.7095947265625,0.14999,17,-15856.03209203494,0.0006249999860301614,1561097980,,,,0,14.252994032544228,5,6.0,32.0,0.0,0.0,1.1636043409957735,66.7128,I,,
Raw,1733209521001,12914000000,18,91.71105221332428,-1417244726087000064,0.0,91.71105221332428,-4055.627946472062,0.0,0,36,0.0,47,198324923690100,74,30.600000381469727,-916.2166748046875,0.14999,17,-11872.596351051361,0.0006249999860301614,1561097980,,,,0,12.649145843694484,5,6.0,30.600000381469727,0.0,0.0,1.1636043409957735,66.7128,I,,
Raw,1733209521001,12914000000,18,91.71105221332428,-1417244726087000064,0.0,91.71105221332428,-4055.627946472062,0.0,0,22,0.0,47,198324926559612,58,32.400001525878906,-1508.8203125,0.14999,17,-16796.76338943572,0.00039999998989515007,1561097980,,,,0,14.64787519645937,5,6.0,32.400001525878906,0.0,0.0,1.1636043409957735,66.7128,I,,
Raw,1733209521001,12914000000,18,91.71105221332428,-1417244726087000064,0.0,91.71105221332428,-4055.627946472062,0.0,0,12,0.0,17,683607,487,0.0,-927.4929717376247,0.14999,16,-14470.408013927366,0.009999999776482582,1601437440,,,,0,0.43438499386472607,3,6.0,20.0,0.0,0.0,-41.03251128404265,66.7128,C,,
Raw,1733209521001,12914000000,18,91.71105221332428,-1417244726087000064,0.0,91.71105221332428,-4055.627946472062,0.0,0,4,0.0,47,198338931269945,316,25.183000564575195,-1539.177735740365,0.14999,21,-16665.09904669115,0.002025000052526593,1575420030,,,,0,5.2915545308480825,1,6.0,25.183000564575195,0.0,0.0,0.0,66.7128,C,,
Raw,1733209521001,12914000000,18,91.71105221332428,-1417244726087000064,0.0,91.71105221332428,-4055.627946472062,0.0,0,9,0.0,47,198338926808026,396,21.53700065612793,-1746.3417603004302,0.14999,16,-19536.241201232213,0.004900000058114529,1575420030,,,,0,0.0,1,6.0,21.53700065612793,0.0,0.0,0.0,66.7128,C,,
Raw,1733209522001,13914000000,18,94.65610312829551,-1417244726087000064,0.0,94.65610312829551,-4051.670597336287,0.0,0,16,0.0,47,198339926140173,316,29.680999755859375,-595.6464669491976,0.14999,17,-8486.194958772654,0.002025000052526593,1575420030,,,,0,11.15055183593187,1,6.0,29.680999755859375,0.0,0.0,0.0,66.7128,C,,
Raw,1733209522001,13914000000,18,94.65610312829551,-1417244726087000064,0.0,94.65610312829551,-4051.670597336287,0.0,0,3,0.0,16431,198339929977991,316,27.525999069213867,-807.3277826926621,0.14999,20,-11571.861007578584,0.002025000052526593,1575420030,,,,0,8.44545173424635,1,6.0,27.525999069213867,0.0,0.0,0.0,66.7128,C,,
Raw,1733209522001,13914000000,18,94.65610312829551,-1417244726087000064,0.0,94.65610312829551,-4051.670597336287,0.0,0,7,0.0,47,198339921016746,487,25.76799964904785,-1324.297990332886,0.14999,21,-18035.7577976437,0.009999999776482582,1575420030,,,,0,6.093898995007732,1,6.0,25.76799964904785,0.0,0.0,0.0,66.7128,C,,
Raw,1733209522001,13914000000,18,94.65610312829551,-1417244726087000064,0.0,94.65610312829551,-4051.670597336287,0.0,0,8,0.0,47,198339929432086,487,23.610000610351562,-1587.6818089334856,0.14999,16,-19212.249585372694,0.009999999776482582,1575420030,,,,0,3.016689276829158,1,6.0,23.610000610351562,0.0,0.0,0.0,66.7128,C,,
Raw,1733209522001,13914000000,18,94.65610312829551,-1417244726087000064,0.0,94.65610312829551,-4051.670597336287,0.0,0,9,0.0,47,198325872470461,74,30.5,-1259.6407470703125,0.14999,17,-17116.76165760938,0.0006249999860301614,1561097980,,,,0,12.547317131854655,5,6.0,30.5,0.0,0.0,1.1553939459583178,66.7128,I,,
Raw,1733209522001,13914000000,18,94.65610312829551,-1417244726087000064,0.0,94.65610312829551,-4051.670597336287,0.0,0,36,0.0,47,198325923693153,74,30.56999969482422,-914.1854248046875,0.14999,21,-12787.643128574018,0.0006249999860301614,1561097980,,,,0,11.975810135262302,5,6.0,30.56999969482422,0.0,0.0,1.1553939459583178,66.7128,I,,
Raw,1733209522001,13914000000,18,94.65610312829551,-1417244726087000064,0.0,94.65610312829551,-4051.670597336287,0.0,0,22,0.0,47,198325926564641,235,28.899999618530273,-1507.06884765625,0.14999,17,-18304.629162180594,0.0008999999845400453,1561097980,,,,0,10.705882400855412,5,6.0,28.899999618530273,0.0,0.0,1.1553939459583178,66.7128,I,,
Raw,1733209522001,13914000000,18,94.65610312829551,-1417244726087000064,0.0,94.65610312829551,-4051.670597336287,0.0,0,6,0.0,16905,198325873449208,396,23.0,-1275.229248046875,0.14999,16,-17019.163731764194,0.004900000058114529,1561097980,,,,0,3.5218251811136247,5,6.0,23.0,0.0,0.0,1.1553939459583178,66.7128,I,,
Raw,1733209522001,13914000000,18,94.65610312829551,-1417244726087000064,0.0,94.65610312829551,-4051.670597336287,0.0,0,12,0.0,17,686700,487,0.0,-927.2986398733975,0.14999,16,-15397.743116733604,0.009999999776482582,1601437440,,,,0,0.0,3,6.0,18.0,0.0,0.0,-36.97903994767996,66.7128,C,,
Raw,1733209522001,13914000000,18,94.65610312829551,-1417244726087000064,0.0,94.65610312829551,-4051.670597336287,0.0,0,4,0.0,47,198339931275084,235,27.56599998474121,-1537.0583027928403,0.14999,20,-18202.959056239677,0.0008999999845400453,1575420030,,,,0,8.473246604806462,1,6.0,27.56599998474121,0.0,0.0,0.0,66.7128,C,,
Raw,1733209522001,13914000000,18,94.65610312829551,-1417244726087000064,0.0,94.65610312829551,-4051.670597336287,0.0,0,9,0.0,47,198339926813848,487,21.53700065612793,-1745.1747248852214,0.14999,16,-21281.71573969915,0.009999999776482582,1575420030,,,,0,0.0,1,6.0,21.53700065612793,0.0,0.0,0.0,66.7128,C,,
Raw,1733209523001,14914000000,18,96.19271533067958,-1417244726087000064,0.0,96.19271533067958,-4041.810423596625,0.0,0,16,0.0,47,198340926142154,316,24.31999969482422,-591.6527621164911,0.14999,21,-9079.584912252054,0.002025000052526593,1575420030,,,,0,4.045516839151089,1,6.0,24.31999969482422,0.0,0.0,0.0,66.7128,C,,
Raw,1733209523001,14914000000,18,96.19271533067958,-1417244726087000064,0.0,96.19271533067958,-4041.810423596625,0.0,0,3,0.0,16431,198340929980677,74,31.382999420166016,-804.9125954675411,0.14999,17,-12377.635407508888,0.0006249999860301614,1575420030,,,,0,13.194135157612266,1,6.0,31.382999420166016,0.0,0.0,0.0,66.7128,C,,
Raw,1733209523001,14914000000,18,96.19271533067958,-1417244726087000064,0.0,96.19271533067958,-4041.810423596625,0.0,0,7,0.0,47,198340921021158,487,20.95800018310547,-1321.8459151252937,0.14999,20,-19358.437851244904,0.009999999776482582,1575420030,,,,0,0.0,1,6.0,20.95800018310547,0.0,0.0,0.0,66.7128,C,,
Raw,1733209523001,14914000000,18,96.19271533067958,-1417244726087000064,0.0,96.19271533067958,-4041.810423596625,0.0,0,8,0.0,47,198340929437378,487,23.625,-1584.6698168937241,0.14999,16,-20797.892129101536,0.009999999776482582,1575420030,,,,0,3.472613210160489,1,6.0,23.625,0.0,0.0,0.0,66.7128,C,,
Raw,1733209523001,14914000000,18,96.19271533067958,-1417244726087000064,0.0,96.19271533067958,-4041.810423596625,0.0,0,16,0.0,16905,198326871624144,487,19.100000381469727,-1294.0819091796875,0.14999,16,-18256.134069722455,0.009999999776482582,1561097980,,,,0,0.0,5,6.0,19.100000381469727,0.0,0.0,1.6000069867869742,66.7128,I,,
Raw,1733209523001,14914000000,18,96.19271533067958,-1417244726087000064,0.0,96.19271533067958,-4041.810423596625,0.0,0,9,0.0,47,198326872474659,74,31.600000381469727,-1256.863525390625,0.14999,17,-18374.87504934178,0.0006249999860301614,1561097980,,,,0,13.803921600570275,5,6.0,31.600000381469727,0.0,0.0,1.6000069867869742,66.7128,I,,
Raw,1733209523001,14914000000,18,96.19271533067958,-1417244726087000064,0.0,96.19271533067958,-4041.810423596625,0.0,0,36,0.0,47,198326923696201,235,27.700000762939453,-911.1336059570312,0.14999,17,-13700.357677362003,0.0008999999845400453,1561097980,,,,0,9.366946608243145,5,6.0,27.700000762939453,0.0,0.0,1.6000069867869742,66.7128,I,,
Raw,1733209523001,14914000000,18,96.19271533067958,-1417244726087000064,0.0,96.19271533067958,-4041.810423596625,0.0,0,22,0.0,47,198326926569664,58,33.0,-1504.2489013671875,0.14999,21,-19810.021132156562,0.00039999998989515007,1561097980,,,,0,15.268559871258745,5,6.0,33.0,0.0,0.0,1.6000069867869742,66.7128,I,,
Raw,1733209523001,14914000000,18,96.19271533067958,-1417244726087000064,0.0,96.19271533067958,-4041.810423596625,0.0,0,6,0.0,16905,198326873453421,396,21.299999237060547,-1271.7208251953125,0.14999,16,-18292.13004884888,0.004900000058114529,1561097980,,,,0,1.1380970267294512,5,6.0,21.299999237060547,0.0,0.0,1.6000069867869742,66.7128,I,,
Raw,1733209523001,14914000000,18,96.19271533067958,-1417244726087000064,0.0,96.19271533067958,-4041.810423596625,0.0,0,12,0.0,17,689789,487,0.0,-923.7988381718305,0.14999,16,-16322.711171882056,0.009999999776482582,1601437440,,,,0,0.0,3,6.0,18.0,0.0,0.0,-34.00728466138373,66.7128,C,,
Raw,1733209523001,14914000000,18,96.19271533067958,-1417244726087000064,0.0,96.19271533067958,-4041.810423596625,0.0,0,4,0.0,47,198340931280205,396,25.261999130249023,-1534.932830251208,0.14999,16,-19738.418734483723,0.004900000058114529,1575420030,,,,0,5.371242150679859,1,6.0,25.261999130249023,0.0,0.0,0.0,66.7128,C,,
Raw,1733209523001,14914000000,18,96.19271533067958,-1417244726087000064,0.0,96.19271533067958,-4041.810423596625,0.0,0,9,0.0,47,198340926819679,487,21.47800064086914,-1742.307311436707,0.14999,16,-23024.83567936506,0.009999999776482582,1575420030,,,,0,0.0,1,6.0,21.47800064086914,0.0,0.0,0.0,66.7128,C,,
Raw,1733209523001,14914000000,18,96.19271533067958,-1417244726087000064,0.0,96.19271533067958,-4041.810423596625,0.0,0,27,0.0,47,198340927759540,487,17.589000701904297,-1274.7066972836062,0.14999,16,-18087.294392531305,0.009999999776482582,1575420030,,,,0,0.0,1,6.0,17.589000701904297,0.0,0.0,0.0,66.7128,C,,
Raw,1733209523001,14914000000,18,96.19271533067958,-1417244726087000064,0.0,96.19271533067958,-4041.810423596625,0.0,0,19,0.0,16431,198340918533433,396,19.799999237060547,-1580.4192434777895,0.14999,24,-18650.254038995976,0.004900000058114529,1575420030,,,,0,0.0,6,6.0,19.799999237060547,0.0,0.0,-10.687139089539638,66.7128,C,,
Raw,1733209523001,14914000000,18,96.19271533067958,-1417244726087000064,0.0,96.19271533067958,-4041.810423596625,0.0,0,45,0.0,47,198326923260143,74,26.5,-1232.8031005859375,0.14999,16,-18226.85852625345,0.0006249999860301614,1561097980,,,,0,7.923986941914728,5,6.0,26.5,0.0,0.0,1.6000069867869742,66.7128,I,,
Raw,1733209523001,14914000000,18,96.19271533067958,-1417244726087000064,0.0,96.19271533067958,-4041.810423596625,0.0,0,39,0.0,16905,198326871422642,487,19.5,-1306.8868408203125,0.14999,16,-18311.228914691445,0.009999999776482582,1561097980,,,,0,0.0,5,6.0,19.5,0.0,0.0,1.6000069867869742,66.7128,I,,
Raw,1733209524001,15914000000,18,93.42230127272383,-1417244726087000064,0.0,93.42230127272383,-4030.719706061002,0.0,0,16,0.0,47,198341926144123,316,25.643999099731445,-589.8947756470843,0.14999,20,-9670.321536265365,0.002025000052526593,1575420030,,,,0,5.909478274397872,1,6.0,25.643999099731445,0.0,0.0,0.0,66.7128,C,,
Raw,1733209524001,15914000000,18,93.42230127272383,-1417244726087000064,0.0,93.42230127272383,-4030.719706061002,0.0,0,3,0.0,16431,198341929983351,316,25.54199981689453,-801.1268849642091,0.14999,17,-13180.480268170477,0.002025000052526593,1575420030,,,,0,5.79691657422935,1,6.0,25.54199981689453,0.0,0.0,0.0,66.7128,C,,
Raw,1733209524001,15914000000,18,93.42230127272383,-1417244726087000064,0.0,93.42230127272383,-4030.719706061002,0.0,0,7,0.0,47,198341921025565,74,32.31999969482422,-1317.4894165203991,0.14999,17,-20677.7281252772,0.0006249999860301614,1575420030,,,,0,14.297388296788718,1,6.0,32.31999969482422,0.0,0.0,0.0,66.7128,C,,
Raw,1733209524001,15914000000,18,93.42230127272383,-1417244726087000064,0.0,93.42230127272383,-4030.719706061002,0.0,0,8,0.0,47,198341929442658,487,20.673999786376953,-1581.360490990215,0.14999,16,-22380.67973706714,0.009999999776482582,1575420030,,,,0,0.0,1,6.0,20.673999786376953,0.0,0.0,0.0,66.7128,C,,
Raw,1733209524001,15914000000,18,93.42230127272383,-1417244726087000064,0.0,93.42230127272383,-4030.719706061002,0.0,0,16,0.0,16905,198327871628486,487,20.0,-1290.392333984375,0.14999,16,-19548.12988459625,0.009999999776482582,1561097980,,,,0,0.0,5,6.0,20.0,0.0,0.0,1.0268527960120026,66.7128,I,,
Raw,1733209524001,15914000000,18,93.42230127272383,-1417244726087000064,0.0,93.42230127272383,-4030.719706061002,0.0,0,9,0.0,47,198327872478848,396,22.600000381469727,-1253.056396484375,0.14999,20,-19629.53127090648,0.004900000058114529,1561097980,,,,0,2.9843822531075976,5,6.0,22.600000381469727,0.0,0.0,1.0268527960120026,66.7128,I,,
Raw,1733209524001,15914000000,18,93.42230127272383,-1417244726087000064,0.0,93.42230127272383,-4030.719706061002,0.0,0,36,0.0,47,198327923699236,235,27.780000686645508,-908.0067749023438,0.14999,17,-14609.359057051277,0.0008999999845400453,1561097980,,,,0,11.150144038113158,5,6.0,27.780000686645508,0.0,0.0,1.0268527960120026,66.7128,I,,
Raw,1733209524001,15914000000,18,93.42230127272383,-1417244726087000064,0.0,93.42230127272383,-4030.719706061002,0.0,0,22,0.0,47,198327926574675,396,24.299999237060547,-1501.3463134765625,0.14999,20,-21312.837087769327,0.004900000058114529,1561097980,,,,0,5.201427759701495,5,6.0,24.299999237060547,0.0,0.0,1.0268527960120026,66.7128,I,,
Raw,1733209524001,15914000000,18,93.42230127272383,-1417244726087000064,0.0,93.42230127272383,-4030.719706061002,0.0,0,6,0.0,16905,198327873457649,396,22.5,-1267.966552734375,0.14999,16,-19561.512387463274,0.004900000058114529,1561097980,,,,0,2.7975817280247295,5,6.0,22.5,0.0,0.0,1.0268527960120026,66.7128,I,,
Raw,1733209524001,15914000000,18,93.42230127272383,-1417244726087000064,0.0,93.42230127272383,-4030.719706061002,0.0,0,12,0.0,17,692858,316,0.0,-920.3565316455217,0.14999,16,-17244.490236453916,0.002025000052526593,1601437440,,,,0,5.763009349759331,3,6.0,24.0,0.0,0.0,-27.61960671924027,66.7128,C,,
Raw,1733209524001,15914000000,18,93.42230127272383,-1417244726087000064,0.0,93.42230127272383,-4030.719706061002,0.0,0,8,0.0,32995,36323929615220,487,0.0,-639.2460905931015,0.14999,16,-18133.48144621989,0.009999999776482582,1605374980,,,,0,0.0,3,6.0,19.0,0.0,0.0,-27.61960671924027,66.7128,C,,
Raw,1733209524001,15914000000,18,93.42230127272383,-1417244726087000064,0.0,93.42230127272383,-4030.719706061002,0.0,0,4,0.0,47,198341931285320,487,20.323999404907227,-1530.8416092028756,0.14999,16,-21270.929305754875,0.009999999776482582,1575420030,,,,0,0.0,1,6.0,20.323999404907227,0.0,0.0,0.0,66.7128,C,,
Raw,1733209524001,15914000000,18,93.42230127272383,-1417244726087000064,0.0,93.42230127272383,-4030.719706061002,0.0,0,9,0.0,47,198341926825486,487,21.45800018310547,-1738.3312143437443,0.14999,16,-24764.875063776715,0.009999999776482582,1575420030,,,,0,0.0,1,6.0,21.45800018310547,0.0,0.0,0.0,66.7128,C,,
Raw,1733209524001,15914000000,18,93.42230127272383,-1417244726087000064,0.0,93.42230127272383,-4030.719706061002,0.0,0,27,0.0,47,198341927763805,797,18.951000213623047,-1271.1886801744795,0.14999,16,-19359.759565688517,0.02250000089406967,1575420030,,,,0,0.0,1,6.0,18.951000213623047,0.0,0.0,0.0,66.7128,C,,
Raw,1733209524001,15914000000,18,93.42230127272383,-1417244726087000064,0.0,93.42230127272383,-4030.719706061002,0.0,0,10,0.0,16905,198327877717204,797,17.700000762939453,-1357.2657470703125,0.14999,16,-19656.717895566053,0.02250000089406967,1561097980,,,,0,0.0,5,6.0,17.700000762939453,0.0,0.0,1.0268527960120026,66.7128,I,,
Raw,1733209524001,15914000000,18,93.42230127272383,-1417244726087000064,0.0,93.42230127272383,-4030.719706061002,0.0,0,7,0.0,16905,198327877976358,396,21.100000381469727,-1342.625244140625,0.14999,16,-19735.107213275423,0.004900000058114529,1561097980,,,,0,0.9064595757331495,5,6.0,21.100000381469727,0.0,0.0,1.0268527960120026,66.7128,I,,
Raw,1733209524001,15914000000,18,93.42230127272383,-1417244726087000064,0.0,93.42230127272383,-4030.719706061002,0.0,0,19,0.0,16431,198341918538687,396,20.0,-1577.0045498863149,0.14999,25,-20228.881960726012,0.004900000058114529,1575420030,,,,0,0.0,6,6.0,20.0,0.0,0.0,-6.662442957618391,66.7128,C,,
Raw,1733209524001,15914000000,18,93.42230127272383,-1417244726087000064,0.0,93.42230127272383,-4030.719706061002,0.0,0,45,0.0,47,198327923264239,235,29.899999618530273,-1226.5057373046875,0.14999,16,-19455.684387403457,0.0008999999845400453,1561097980,,,,0,11.865721340409145,5,6.0,29.899999618530273,0.0,0.0,1.0268527960120026,66.7128,I,,
Raw,1733209524001,15914000000,18,93.42230127272383,-1417244726087000064,0.0,93.42230127272383,-4030.719706061002,0.0,0,29,0.0,16431,198341920855683,487,18.799999237060547,-1282.62544140986,0.14999,24,-19448.17225175433,0.009999999776482582,1575420030,,,,0,0.0,6,6.0,18.799999237060547,0.0,0.0,-6.662442957618391,66.7128,C,,
Raw,1733209524001,15914000000,18,93.42230127272383,-1417244726087000064,0.0,93.42230127272383,-4030.719706061002,0.0,0,39,0.0,16905,198327871427024,487,18.899999618530273,-1303.210205078125,0.14999,16,-19616.05491084865,0.009999999776482582,1561097980,,,,0,0.0,5,6.0,18.899999618530273,0.0,0.0,1.0268527960120026,66.7128,I,,
Raw,1733209524001,15914000000,18,93.42230127272383,-1417244726087000064,0.0,93.42230127272383,-4030.719706061002,0.0,0,40,0.0,16905,198327876163672,396,21.100000381469727,-1390.456787109375,0.14999,16,-19816.927988560437,0.004900000058114529,1561097980,,,,0,0.9064595757331495,5,6.0,21.100000381469727,0.0,0.0,1.0268527960120026,66.7128,I,,
Raw,1733209525001,16914000000,18,92.04268982521506,-1417244726087000064,0.0,92.04268982521506,-4016.995036450941,0.0,0,16,0.0,47,198342926146076,316,26.888999938964844,-582.5950434584197,0.14999,16,-10256.628058185712,0.002025000052526593,1575420030,,,,0,7.598088564363296,1,6.0,26.888999938964844,0.0,0.0,0.0,66.7128,C,,
Raw,1733209525001,16914000000,18,92.04268982521506,-1417244726087000064,0.0,92.04268982521506,-4016.995036450941,0.0,0,3,0.0,16431,198342929986017,396,23.381000518798828,-796.8558698451419,0.14999,20,-13979.55252947452,0.004900000058114529,1575420030,,,,0,2.644759506995987,1,6.0,23.381000518798828,0.0,0.0,0.0,66.7128,C,,
Raw,1733209525001,16914000000,18,92.04268982521506,-1417244726087000064,0.0,92.04268982521506,-4016.995036450941,0.0,0,7,0.0,47,198342921029953,316,25.261999130249023,-1313.8864734264396,0.14999,20,-21993.50051402613,0.002025000052526593,1575420030,,,,0,5.371242150679859,1,6.0,25.261999130249023,0.0,0.0,0.0,66.7128,C,,
Raw,1733209525001,16914000000,18,92.04268982521506,-1417244726087000064,0.0,92.04268982521506,-4016.995036450941,0.0,0,8,0.0,47,198342929447929,396,24.17099952697754,-1577.4148706182864,0.14999,16,-23959.941396310514,0.004900000058114529,1575420030,,,,0,3.8113816484860825,1,6.0,24.17099952697754,0.0,0.0,0.0,66.7128,C,,
Raw,1733209525001,16914000000,18,92.04268982521506,-1417244726087000064,0.0,92.04268982521506,-4016.995036450941,0.0,0,16,0.0,16905,198328871632785,797,20.0,-1285.912109375,0.14999,16,-20836.934160565645,0.02250000089406967,1561097980,,,,0,0.0,5,6.0,20.0,0.0,0.0,11.4977063135866,66.7128,I,,
Raw,1733209525001,16914000000,18,92.04268982521506,-1417244726087000064,0.0,92.04268982521506,-4016.995036450941,0.0,0,9,0.0,47,198328872483023,396,22.53499984741211,-1248.7587890625,0.14999,16,-20880.7497681772,0.004900000058114529,1561097980,,,,0,1.213956807072233,5,6.0,22.53499984741211,0.0,0.0,11.4977063135866,66.7128,I,,
Raw,1733209525001,16914000000,18,92.04268982521506,-1417244726087000064,0.0,92.04268982521506,-4016.995036450941,0.0,0,36,0.0,47,198328923702258,74,32.099998474121094,-903.8634643554688,0.14999,17,-15515.245050214384,0.0006249999860301614,1561097980,,,,0,14.26981086187885,5,6.0,32.099998474121094,0.0,0.0,11.4977063135866,66.7128,I,,
Raw,1733209525001,16914000000,18,92.04268982521506,-1417244726087000064,0.0,92.04268982521506,-4016.995036450941,0.0,0,22,0.0,47,198328926579675,396,24.28499984741211,-1496.1458740234375,0.14999,16,-22811.67636548778,0.004900000058114529,1561097980,,,,0,4.760922062575908,5,6.0,24.28499984741211,0.0,0.0,11.4977063135866,66.7128,I,,
Raw,1733209525001,16914000000,18,92.04268982521506,-1417244726087000064,0.0,92.04268982521506,-4016.995036450941,0.0,0,6,0.0,16905,198328873461875,797,20.100000381469727,-1264.0206298828125,0.14999,16,-20827.85224516833,0.02250000089406967,1561097980,,,,0,0.0,5,6.0,20.100000381469727,0.0,0.0,11.4977063135866,66.7128,I,,
Raw,1733209525001,16914000000,18,92.04268982521506,-1417244726087000064,0.0,92.04268982521506,-4016.995036450941,0.0,0,19,0.0,16905,198328926025487,396,22.700000762939453,-909.300048828125,0.14999,16,-19830.28765547186,0.004900000058114529,1561097980,,,,0,3.1067207493012354,5,6.0,22.700000762939453,0.0,0.0,11.4977063135866,66.7128,I,,
Raw,1733209525001,16914000000,18,92.04268982521506,-1417244726087000064,0.0,92.04268982521506,-4016.995036450941,0.0,0,21,0.0,16431,198342921885996,487,16.0,-1027.3881060917784,0.14999,24,-20054.015751417333,0.009999999776482582,1575420030,,,,0,0.0,6,6.0,16.0,0.0,0.0,-2.7627481683073216,66.7128,C,,
Raw,1733209525001,16914000000,18,92.04268982521506,-1417244726087000064,0.0,92.04268982521506,-4016.995036450941,0.0,0,12,0.0,17,695925,235,0.0,-915.6748338929399,0.14999,17,-18162.44018576738,0.0008999999845400453,1601437440,,,,0,7.913561062643193,3,6.0,27.0,0.0,0.0,-18.4152165802787,66.7128,C,,
Raw,1733209525001,16914000000,18,92.04268982521506,-1417244726087000064,0.0,92.04268982521506,-4016.995036450941,0.0,0,8,0.0,32995,36324929617325,487,0.0,-635.331464218743,0.14999,16,-18771.04894445491,0.009999999776482582,1605374980,,,,0,0.0,3,6.0,19.0,0.0,0.0,-18.4152165802787,66.7128,C,,
Raw,1733209525001,16914000000,18,92.04268982521506,-1417244726087000064,0.0,92.04268982521506,-4016.995036450941,0.0,0,4,0.0,47,198342931290420,396,23.145000457763672,-1527.6186030366857,0.14999,16,-22799.8720983073,0.004900000058114529,1575420030,,,,0,2.312774270606754,1,6.0,23.145000457763672,0.0,0.0,0.0,66.7128,C,,
Raw,1733209525001,16914000000,18,92.04268982521506,-1417244726087000064,0.0,92.04268982521506,-4016.995036450941,0.0,0,9,0.0,47,198342926831283,487,21.517000198364258,-1733.8059787711732,0.14999,16,-26501.230334691794,0.009999999776482582,1575420030,,,,0,1.5467421069850897,1,6.0,21.517000198364258,0.0,0.0,0.0,66.7128,C,,
Raw,1733209525001,16914000000,18,92.04268982521506,-1417244726087000064,0.0,92.04268982521506,-4016.995036450941,0.0,0,27,0.0,47,198342927768035,396,18.951000213623047,-1265.9155570177509,0.14999,16,-20627.814744536034,0.004900000058114529,1575420030,,,,0,0.0,1,6.0,18.951000213623047,0.0,0.0,0.0,66.7128,C,,
Raw,1733209525001,16914000000,18,92.04268982521506,-1417244726087000064,0.0,92.04268982521506,-4016.995036450941,0.0,0,10,0.0,16905,198328877721734,487,15.699999809265137,-1353.008056640625,0.14999,16,-21012.249532562484,0.009999999776482582,1561097980,,,,0,0.0,5,6.0,15.699999809265137,0.0,0.0,11.4977063135866,66.7128,I,,
Raw,1733209525001,16914000000,18,92.04268982521506,-1417244726087000064,0.0,92.04268982521506,-4016.995036450941,0.0,0,7,0.0,16905,198328877980849,487,23.0,-1339.9583740234375,0.14999,16,-21076.039148865886,0.009999999776482582,1561097980,,,,0,3.4637253682454805,5,6.0,23.0,0.0,0.0,11.4977063135866,66.7128,I,,
Raw,1733209525001,16914000000,18,92.04268982521506,-1417244726087000064,0.0,92.04268982521506,-4016.995036450941,0.0,0,19,0.0,16431,198342918543950,797,17.299999237060547,-1573.0143294348243,0.14999,28,-21803.710990538577,0.02250000089406967,1575420030,,,,0,0.0,6,6.0,17.299999237060547,0.0,0.0,-2.7627481683073216,66.7128,C,,
Raw,1733209525001,16914000000,18,92.04268982521506,-1417244726087000064,0.0,92.04268982521506,-4016.995036450941,0.0,0,45,0.0,47,198328923268316,316,29.899999618530273,-1220.8477783203125,0.14999,16,-20678.242042803708,0.002025000052526593,1561097980,,,,0,11.865721340409145,5,6.0,29.899999618530273,0.0,0.0,11.4977063135866,66.7128,I,,
Raw,1733209525001,16914000000,18,92.04268982521506,-1417244726087000064,0.0,92.04268982521506,-4016.995036450941,0.0,0,29,0.0,16431,198342920859954,487,21.700000762939453,-1280.057127244909,0.14999,24,-20729.29015219872,0.009999999776482582,1575420030,,,,0,1.7897198985769904,6,6.0,21.700000762939453,0.0,0.0,-2.7627481683073216,66.7128,C,,
Raw,1733209525001,16914000000,18,92.04268982521506,-1417244726087000064,0.0,92.04268982521506,-4016.995036450941,0.0,0,39,0.0,16905,198328871431364,797,18.899999618530273,-1298.5072021484375,0.14999,16,-20916.864271676204,0.02250000089406967,1561097980,,,,0,0.0,5,6.0,18.899999618530273,0.0,0.0,11.4977063135866,66.7128,I,,
Raw,1733209525001,16914000000,18,92.04268982521506,-1417244726087000064,0.0,92.04268982521506,-4016.995036450941,0.0,0,40,0.0,16905,198328876168328,487,18.100000381469727,-1385.7677001953125,0.14999,16,-21205.465826798965,0.009999999776482582,1561097980,,,,0,0.0,5,6.0,18.100000381469727,0.0,0.0,11.4977063135866,66.7128,I,,
Raw,1733209526001,17914000000,18,94.07953874003674,-1417244726087000064,0.0,94.07953874003674,-4010.469255857438,0.0,0,16,0.0,47,198343926148021,487,25.593000411987305,-582.8942356588157,0.14999,17,-10839.573468806258,0.009999999776482582,1575420030,,,,0,5.834599451720378,1,6.0,25.593000411987305,0.0,0.0,0.0,66.7128,C,,
Raw,1733209526001,17914000000,18,94.07953874003674,-1417244726087000064,0.0,94.07953874003674,-4010.469255857438,0.0,0,3,0.0,16431,198343929988676,396,23.895000457763672,-794.3796362611203,0.14999,16,-14775.655518472038,0.004900000058114529,1575420030,,,,0,3.4231208276033813,1,6.0,23.895000457763672,0.0,0.0,0.0,66.7128,C,,
Raw,1733209526001,17914000000,18,94.07953874003674,-1417244726087000064,0.0,94.07953874003674,-4010.469255857438,0.0,0,7,0.0,47,198343921034330,396,20.770999908447266,-1311.7815355047724,0.14999,16,-23305.932578712866,0.004900000058114529,1575420030,,,,0,0.0,1,6.0,20.770999908447266,0.0,0.0,0.0,66.7128,C,,
Raw,1733209526001,17914000000,18,94.07953874003674,-1417244726087000064,0.0,94.07953874003674,-4010.469255857438,0.0,0,8,0.0,47,198343929453183,316,24.257999420166016,-1574.5755180531633,0.14999,16,-25535.74446868958,0.002025000052526593,1575420030,,,,0,6.2744853258437345,1,6.0,24.257999420166016,0.0,0.0,0.0,66.7128,C,,
Raw,1733209526001,17914000000,18,94.07953874003674,-1417244726087000064,0.0,94.07953874003674,-4010.469255857438,0.0,0,16,0.0,16905,198329871637070,487,20.0,-1283.9749755859375,0.14999,16,-22121.636242654655,0.009999999776482582,1561097980,,,,0,0.0,5,6.0,20.0,0.0,0.0,17.531286615631636,66.7128,I,,
Raw,1733209526001,17914000000,18,94.07953874003674,-1417244726087000064,0.0,94.07953874003674,-4010.469255857438,0.0,0,9,0.0,47,198329872487184,396,22.472999572753906,-1246.3031005859375,0.14999,16,-22128.287904404235,0.004900000058114529,1561097980,,,,0,1.213956807072233,5,6.0,22.472999572753906,0.0,0.0,17.531286615631636,66.7128,I,,
Raw,1733209526001,17914000000,18,94.07953874003674,-1417244726087000064,0.0,94.07953874003674,-4010.469255857438,0.0,0,36,0.0,47,198329923705267,235,27.600000381469727,-901.165283203125,0.14999,21,-16417.667142860955,0.0008999999845400453,1561097980,,,,0,9.187849755184617,5,6.0,27.600000381469727,0.0,0.0,17.531286615631636,66.7128,I,,
Raw,1733209526001,17914000000,18,94.07953874003674,-1417244726087000064,0.0,94.07953874003674,-4010.469255857438,0.0,0,22,0.0,47,198329926584663,316,24.309999465942383,-1494.7322998046875,0.14999,16,-24307.757517703474,0.002025000052526593,1561097980,,,,0,5.84512142712952,5,6.0,24.309999465942383,0.0,0.0,17.531286615631636,66.7128,I,,
Raw,1733209526001,17914000000,18,94.07953874003674,-1417244726087000064,0.0,94.07953874003674,-4010.469255857438,0.0,0,6,0.0,16905,198329873466087,797,20.100000381469727,-1262.708740234375,0.14999,16,-22090.268838364995,0.02250000089406967,1561097980,,,,0,0.0,5,6.0,20.100000381469727,0.0,0.0,17.531286615631636,66.7128,I,,
Raw,1733209526001,17914000000,18,94.07953874003674,-1417244726087000064,0.0,94.07953874003674,-4010.469255857438,0.0,0,19,0.0,16905,198329926028557,396,23.200000762939453,-906.9038696289062,0.14999,17,-20738.678854472717,0.004900000058114529,1561097980,,,,0,3.7504144167292615,5,6.0,23.200000762939453,0.0,0.0,17.531286615631636,66.7128,I,,
Raw,1733209526001,17914000000,18,94.07953874003674,-1417244726087000064,0.0,94.07953874003674,-4010.469255857438,0.0,0,21,0.0,16431,198343921889418,797,16.0,-1025.6854980544945,0.14999,24,-21080.168639577085,0.02250000089406967,1575420030,,,,0,0.0,6,6.0,16.0,0.0,0.0,-0.8764295114776772,66.7128,C,,
Raw,1733209526001,17914000000,18,94.07953874003674,-1417244726087000064,0.0,94.07953874003674,-4010.469255857438,0.0,0,12,0.0,17,698977,316,0.0,-913.1414812978988,0.14999,20,-19076.651321696714,0.002025000052526593,1601437440,,,,0,4.635140765532108,3,6.0,24.0,0.0,0.0,-12.931783761358536,66.7128,C,,
Raw,1733209526001,17914000000,18,94.07953874003674,-1417244726087000064,0.0,94.07953874003674,-4010.469255857438,0.0,0,8,0.0,32995,36325929619375,396,0.0,-631.1846857241669,0.14999,16,-19404.485950120223,0.004900000058114529,1605374980,,,,0,1.100951326618109,3,6.0,22.0,0.0,0.0,-12.931783761358536,66.7128,C,,
Raw,1733209526001,17914000000,18,94.07953874003674,-1417244726087000064,0.0,94.07953874003674,-4010.469255857438,0.0,0,4,0.0,47,198343931295510,487,23.315000534057617,-1525.083181430412,0.14999,16,-24325.883258581285,0.009999999776482582,1575420030,,,,0,2.5903023402865215,1,6.0,23.315000534057617,0.0,0.0,0.0,66.7128,C,,
Raw,1733209526001,17914000000,18,94.07953874003674,-1417244726087000064,0.0,94.07953874003674,-4010.469255857438,0.0,0,9,0.0,47,198343926837068,316,25.7189998626709,-1732.7792477729201,0.14999,17,-28234.29270687668,0.002025000052526593,1575420030,,,,0,6.020599913279624,1,6.0,25.7189998626709,0.0,0.0,0.0,66.7128,C,,
Raw,1733209526001,17914000000,18,94.07953874003674,-1417244726087000064,0.0,94.07953874003674,-4010.469255857438,0.0,0,27,0.0,47,198343927772287,487,21.367000579833984,-1262.9419396297792,0.14999,16,-21892.52896342178,0.009999999776482582,1575420030,,,,0,0.0,1,6.0,21.367000579833984,0.0,0.0,0.0,66.7128,C,,
Raw,1733209526001,17914000000,18,94.07953874003674,-1417244726087000064,0.0,94.07953874003674,-4010.469255857438,0.0,0,10,0.0,16905,198329877726234,235,29.100000381469727,-1349.6976318359375,0.14999,17,-22363.54521965819,0.0008999999845400453,1561097980,,,,0,10.980065240515756,5,6.0,29.100000381469727,0.0,0.0,17.531286615631636,66.7128,I,,
Raw,1733209526001,17914000000,18,94.07953874003674,-1417244726087000064,0.0,94.07953874003674,-4010.469255857438,0.0,0,7,0.0,16905,198329877985317,316,23.899999618530273,-1336.1790771484375,0.14999,16,-22413.2928654547,0.002025000052526593,1561097980,,,,0,4.710568938150978,5,6.0,23.899999618530273,0.0,0.0,17.531286615631636,66.7128,I,,
Raw,1733209526001,17914000000,18,94.07953874003674,-1417244726087000064,0.0,94.07953874003674,-4010.469255857438,0.0,0,19,0.0,16431,198343918549192,487,16.799999237060547,-1571.5992060770513,0.14999,24,-23375.704748635224,0.009999999776482582,1575420030,,,,0,0.0,6,6.0,16.799999237060547,0.0,0.0,-0.8764295114776772,66.7128,C,,
Raw,1733209526001,17914000000,18,94.07953874003674,-1417244726087000064,0.0,94.07953874003674,-4010.469255857438,0.0,0,45,0.0,47,198329923272380,235,25.299999237060547,-1209.8759765625,0.14999,16,-21893.90962635506,0.0008999999845400453,1561097980,,,,0,6.402925722221079,5,6.0,25.299999237060547,0.0,0.0,17.531286615631636,66.7128,I,,
Raw,1733209526001,17914000000,18,94.07953874003674,-1417244726087000064,0.0,94.07953874003674,-4010.469255857438,0.0,0,29,0.0,16431,198343920864212,487,20.399999618530273,-1276.8187898013698,0.14999,24,-22007.363985190128,0.009999999776482582,1575420030,,,,0,0.0,6,6.0,20.399999618530273,0.0,0.0,-0.8764295114776772,66.7128,C,,
Raw,1733209526001,17914000000,18,94.07953874003674,-1417244726087000064,0.0,94.07953874003674,-4010.469255857438,0.0,0,39,0.0,16905,198329871435694,797,18.899999618530273,-1299.2618408203125,0.14999,16,-22215.047636710355,0.02250000089406967,1561097980,,,,0,0.0,5,6.0,18.899999618530273,0.0,0.0,17.531286615631636,66.7128,I,,
Raw,1733209526001,17914000000,18,94.07953874003674,-1417244726087000064,0.0,94.07953874003674,-4010.469255857438,0.0,0,40,0.0,16905,198329876172963,396,21.799999237060547,-1384.46044921875,0.14999,16,-22589.559646960362,0.004900000058114529,1561097980,,,,0,1.7981022287879587,5,6.0,21.799999237060547,0.0,0.0,17.531286615631636,66.7128,I,,
Fix,FLP,12.9241704000,77.5226331000,760.7000122070312,0.28428608,32.109,133.08238,1733209524457,1.5,45.0,632986601000000,7.2394223,0,,,
Raw,1733209527001,18914000000,18,91.27182928859399,-1417244726087000064,0.0,91.27182928859399,-4003.709439525968,0.0,0,16,0.0,47,198344926149960,487,20.11400032043457,-581.1342050190956,0.14999,20,-11420.989391592626,0.009999999776482582,1575420030,,,,0,0.0,1,6.0,20.11400032043457,0.0,0.0,0.0,66.7128,C,,
Raw,1733209527001,18914000000,18,91.27182928859399,-1417244726087000064,0.0,91.27182928859399,-4003.709439525968,0.0,0,3,0.0,16431,198344929991323,235,27.20400047302246,-793.7097058993643,0.14999,16,-15569.047068164915,0.0008999999845400453,1575420030,,,,0,8.01748884022174,1,6.0,27.20400047302246,0.0,0.0,0.0,66.7128,C,,
Raw,1733209527001,18914000000,18,91.27182928859399,-1417244726087000064,0.0,91.27182928859399,-4003.709439525968,0.0,0,7,0.0,47,198344921038698,487,20.80900001525879,-1309.0264585066552,0.14999,16,-24616.47518414202,0.009999999776482582,1575420030,,,,0,0.0,1,6.0,20.80900001525879,0.0,0.0,0.0,66.7128,C,,
Raw,1733209527001,18914000000,18,91.27182928859399,-1417244726087000064,0.0,91.27182928859399,-4003.709439525968,0.0,0,8,0.0,47,198344929458435,74,29.878000259399414,-1571.9719884087247,0.14999,16,-27108.45666716786,0.0006249999860301614,1575420030,,,,0,11.391842063959484,1,6.0,29.878000259399414,0.0,0.0,0.0,66.7128,C,,
Raw,1733209527001,18914000000,18,91.27182928859399,-1417244726087000064,0.0,91.27182928859399,-4003.709439525968,0.0,0,16,0.0,16905,198330871641342,797,15.300000190734863,-1282.0103759765625,0.14999,16,-23403.71174037221,0.02250000089406967,1561097980,,,,0,0.0,5,6.0,15.300000190734863,0.0,0.0,13.338624398225642,66.7128,I,,
Raw,1733209527001,18914000000,18,91.27182928859399,-1417244726087000064,0.0,91.27182928859399,-4003.709439525968,0.0,0,9,0.0,47,198330872491339,487,19.200000762939453,-1246.092529296875,0.14999,16,-23374.086780324902,0.009999999776482582,1561097980,,,,0,0.0,5,6.0,19.200000762939453,0.0,0.0,13.338624398225642,66.7128,I,,
Raw,1733209527001,18914000000,18,91.27182928859399,-1417244726087000064,0.0,91.27182928859399,-4003.709439525968,0.0,0,36,0.0,47,198330923708268,235,27.614999771118164,-899.3656616210938,0.14999,17,-17317.329794714784,0.0008999999845400453,1561097980,,,,0,9.61379681591861,5,6.0,27.614999771118164,0.0,0.0,13.338624398225642,66.7128,I,,
Raw,1733209527001,18914000000,18,91.27182928859399,-1417244726087000064,0.0,91.27182928859399,-4003.709439525968,0.0,0,22,0.0,47,198330926589642,74,31.100000381469727,-1492.8038330078125,0.14999,17,-25800.80774654271,0.0006249999860301614,1561097980,,,,0,13.253286890940359,5,6.0,31.100000381469727,0.0,0.0,13.338624398225642,66.7128,I,,
Raw,1733209527001,18914000000,18,91.27182928859399,-1417244726087000064,0.0,91.27182928859399,-4003.709439525968,0.0,0,6,0.0,16905,198330873470285,797,15.899999618530273,-1261.90380859375,0.14999,16,-23351.11922246541,0.02250000089406967,1561097980,,,,0,0.0,5,6.0,15.899999618530273,0.0,0.0,13.338624398225642,66.7128,I,,
Raw,1733209527001,18914000000,18,91.27182928859399,-1417244726087000064,0.0,91.27182928859399,-4003.709439525968,0.0,0,19,0.0,16905,198330926031585,58,34.0,-904.7245483398438,0.14999,17,-21644.027552521064,0.00039999998989515007,1561097980,,,,0,16.363472229922166,5,6.0,34.0,0.0,0.0,13.338624398225642,66.7128,I,,
Raw,1733209527001,18914000000,18,91.27182928859399,-1417244726087000064,0.0,91.27182928859399,-4003.709439525968,0.0,0,21,0.0,16431,198344921892833,235,29.0,-1023.8078347049293,0.14999,24,-22104.44666803655,0.0008999999845400453,1575420030,,,,0,10.881360887005513,6,6.0,29.0,0.0,0.0,6.44510764284792,66.7128,C,,
Raw,1733209527001,18914000000,18,91.27182928859399,-1417244726087000064,0.0,91.27182928859399,-4003.709439525968,0.0,0,12,0.0,17,702017,316,0.0,-912.1358184708868,0.14999,16,-19988.651668617706,0.002025000052526593,1601437440,,,,0,8.561033668411472,3,6.0,25.0,0.0,0.0,-22.036335540518454,66.7128,C,,
Raw,1733209527001,18914000000,18,91.27182928859399,-1417244726087000064,0.0,91.27182928859399,-4003.709439525968,0.0,0,1,0.0,32995,36326936640518,487,0.0,-1362.6627563410414,0.14999,16,-23470.838250314748,0.009999999776482582,1602562560,,,,0,0.0,3,6.0,18.0,0.0,0.0,-22.036335540518454,66.7128,C,,
Raw,1733209527001,18914000000,18,91.27182928859399,-1417244726087000064,0.0,91.27182928859399,-4003.709439525968,0.0,0,8,0.0,32995,36326929621475,487,0.0,-629.6652564801591,0.14999,16,-20034.63693005962,0.009999999776482582,1605374980,,,,0,3.9790828403037093,3,6.0,20.0,0.0,0.0,-22.036335540518454,66.7128,C,,
Raw,1733209527001,18914000000,18,91.27182928859399,-1417244726087000064,0.0,91.27182928859399,-4003.709439525968,0.0,0,2,0.0,32995,36326927510489,487,0.0,-1922.4995869736752,0.14999,16,-24043.18121555955,0.009999999776482582,1599750020,,,,0,0.0,3,6.0,19.0,0.0,0.0,-22.036335540518454,66.7128,C,,
Raw,1733209527001,18914000000,18,91.27182928859399,-1417244726087000064,0.0,91.27182928859399,-4003.709439525968,0.0,0,4,0.0,47,198344931300586,396,23.51099967956543,-1521.4378682608683,0.14999,16,-25848.46506635588,0.004900000058114529,1575420030,,,,0,2.8592368148314504,1,6.0,23.51099967956543,0.0,0.0,0.0,66.7128,C,,
Raw,1733209527001,18914000000,18,91.27182928859399,-1417244726087000064,0.0,91.27182928859399,-4003.709439525968,0.0,0,9,0.0,47,198344926842842,316,24.63599967956543,-1730.1221980330072,0.14999,20,-29964.65293434382,0.002025000052526593,1575420030,,,,0,4.495663659108114,1,6.0,24.63599967956543,0.0,0.0,0.0,66.7128,C,,
Raw,1733209527001,18914000000,18,91.27182928859399,-1417244726087000064,0.0,91.27182928859399,-4003.709439525968,0.0,0,27,0.0,47,198344927776491,396,21.792999267578125,-1262.0671276525347,0.14999,16,-23154.74098880585,0.004900000058114529,1575420030,,,,0,0.21806726020649336,1,6.0,21.792999267578125,0.0,0.0,0.0,66.7128,C,,
Raw,1733209527001,18914000000,18,91.27182928859399,-1417244726087000064,0.0,91.27182928859399,-4003.709439525968,0.0,0,194,0.0,16431,198344859787324,797,15.0,-1094.196330687689,0.14999,16,-22615.16641843283,0.02250000089406967,1575420030,,,,0,0.0,4,6.0,15.0,0.0,,0.0,,C,,
Raw,1733209527001,18914000000,18,91.27182928859399,-1417244726087000064,0.0,91.27182928859399,-4003.709439525968,0.0,0,10,0.0,16905,198330877730732,235,29.0,-1348.231201171875,0.14999,17,-23712.197455632824,0.0008999999845400453,1561097980,,,,0,10.832079111464004,5,6.0,29.0,0.0,0.0,13.338624398225642,66.7128,I,,
Raw,1733209527001,18914000000,18,91.27182928859399,-1417244726087000064,0.0,91.27182928859399,-4003.709439525968,0.0,0,7,0.0,16905,198330877989770,396,23.899999618530273,-1333.254638671875,0.14999,16,-23747.665041924312,0.004900000058114529,1561097980,,,,0,4.649354512533007,5,6.0,23.899999618530273,0.0,0.0,13.338624398225642,66.7128,I,,
Raw,1733209527001,18914000000,18,91.27182928859399,-1417244726087000064,0.0,91.27182928859399,-4003.709439525968,0.0,0,19,0.0,16431,198344918554424,487,21.200000762939453,-1569.441491394569,0.14999,24,-24945.224786432027,0.009999999776482582,1575420030,,,,0,1.039392673219209,6,6.0,21.200000762939453,0.0,0.0,6.44510764284792,66.7128,C,,
Raw,1733209527001,18914000000,18,91.27182928859399,-1417244726087000064,0.0,91.27182928859399,-4003.709439525968,0.0,0,45,0.0,47,198330923276319,797,25.309999465942383,-1215.2999267578125,0.14999,16,-23105.95520013906,0.02250000089406967,1561097980,,,,0,6.662757750160272,5,6.0,25.309999465942383,0.0,0.0,13.338624398225642,66.7128,I,,
Raw,1733209527001,18914000000,18,91.27182928859399,-1417244726087000064,0.0,91.27182928859399,-4003.709439525968,0.0,0,29,0.0,16431,198344920868454,396,21.399999618530273,-1275.4202056397678,0.14999,24,-23282.318006494756,0.004900000058114529,1575420030,,,,0,1.3599415819022225,6,6.0,21.399999618530273,0.0,0.0,6.44510764284792,66.7128,C,,
Fix,GPS,12.9240829000,77.5227452000,101.22358513625639,6.354115,6.188059,289.93448,1733209527921,,,632990066393720,,1,,,
Fix,FLP,12.9240829000,77.5227452000,101.22358513625639,6.354115,6.188059,289.93448,1733209527921,,,632990066393720,,1,,,
Fix,FLP,12.9240829000,77.5227452000,100.13849908322378,6.650497,6.0880246,290.87247,1733209528198,,,632990342744182,,1,,,
Fix,FLP,12.9240829000,77.5227452000,100.10095560845589,6.8977633,5.6776977,289.24518,1733209528460,,,632990604799182,,1,,,
Fix,FLP,12.9240829000,77.5227452000,100.64341581678451,6.805977,5.4029965,289.88675,1733209528723,,,632990868200797,,1,,,
Raw,1733209528001,19914000000,18,88.23463419350125,-1417244726087000064,0.0,88.23463419350125,-4001.461557125027,0.0,0,16,0.0,47,198345926151894,487,20.572999954223633,-579.8700250555906,0.14999,16,-12000.890241517007,0.009999999776482582,1575420030,,,,0,0.0,1,6.0,20.572999954223633,0.0,0.0,0.0,66.7128,C,,
Raw,1733209528001,19914000000,18,88.23463419350125,-1417244726087000064,0.0,88.23463419350125,-4001.461557125027,0.0,0,3,0.0,16431,198345929993970,396,27.722999572753906,-794.7745327989098,0.14999,17,-16361.831287279187,0.004900000058114529,1575420030,,,,0,8.692460501974933,1,6.0,27.722999572753906,0.0,0.0,0.0,66.7128,C,,
Raw,1733209528001,19914000000,18,88.23463419350125,-1417244726087000064,0.0,88.23463419350125,-4001.461557125027,0.0,0,7,0.0,47,198345921043068,487,20.820999145507812,-1309.9346276267388,0.14999,16,-25925.546590875987,0.009999999776482582,1575420030,,,,0,0.0,1,6.0,20.820999145507812,0.0,0.0,0.0,66.7128,C,,
Raw,1733209528001,19914000000,18,88.23463419350125,-1417244726087000064,0.0,88.23463419350125,-4001.461557125027,0.0,0,8,0.0,47,198345929463682,316,26.716999053955078,-1572.6642188102617,0.14999,17,-28679.445955251922,0.002025000052526593,1575420030,,,,0,7.380541495181846,1,6.0,26.716999053955078,0.0,0.0,0.0,66.7128,C,,
Raw,1733209528001,19914000000,18,88.23463419350125,-1417244726087000064,0.0,88.23463419350125,-4001.461557125027,0.0,0,16,0.0,16905,198331871645614,797,15.300000190734863,-1282.977294921875,0.14999,16,-24684.505028106116,0.02250000089406967,1561097980,,,,0,0.0,5,6.0,15.300000190734863,0.0,0.0,11.214792843158074,66.7128,I,,
Raw,1733209528001,19914000000,18,88.23463419350125,-1417244726087000064,0.0,88.23463419350125,-4001.461557125027,0.0,0,40,0.0,16905,198331876182218,58,34.099998474121094,-1381.802001953125,0.14999,17,-24474.257164226106,0.00039999998989515007,1561097980,,,,0,16.480324525527237,5,6.0,34.099998474121094,0.0,0.0,11.214792843158074,66.7128,I,,
Raw,1733209528001,19914000000,18,88.23463419350125,-1417244726087000064,0.0,88.23463419350125,-4001.461557125027,0.0,0,9,0.0,47,198331872495491,487,19.295000076293945,-1245.8829345703125,0.14999,16,-24618.854024156306,0.009999999776482582,1561097980,,,,0,0.8590698720307388,5,6.0,19.295000076293945,0.0,0.0,11.214792843158074,66.7128,I,,
Raw,1733209528001,19914000000,18,88.23463419350125,-1417244726087000064,0.0,88.23463419350125,-4001.461557125027,0.0,0,36,0.0,47,198331923711267,316,27.518999099731445,-899.372802734375,0.14999,21,-18216.290223037086,0.002025000052526593,1561097980,,,,0,6.899123073706255,5,6.0,27.518999099731445,0.0,0.0,11.214792843158074,66.7128,I,,
Raw,1733209528001,19914000000,18,88.23463419350125,-1417244726087000064,0.0,88.23463419350125,-4001.461557125027,0.0,0,22,0.0,47,198331926594621,74,31.030000686645508,-1493.292236328125,0.14999,17,-27292.938101625492,0.0006249999860301614,1561097980,,,,0,11.611499407096144,5,6.0,31.030000686645508,0.0,0.0,11.214792843158074,66.7128,I,,
Raw,1733209528001,19914000000,18,88.23463419350125,-1417244726087000064,0.0,88.23463419350125,-4001.461557125027,0.0,0,6,0.0,16905,198331873474487,797,15.899999618530273,-1258.774658203125,0.14999,16,-24610.789619751118,0.02250000089406967,1561097980,,,,0,0.0,5,6.0,15.899999618530273,0.0,0.0,11.214792843158074,66.7128,I,,
Raw,1733209528001,19914000000,18,88.23463419350125,-1417244726087000064,0.0,88.23463419350125,-4001.461557125027,0.0,0,19,0.0,16905,198331926034600,58,34.70000076293945,-905.0701293945312,0.14999,17,-22548.127431241057,0.00039999998989515007,1561097980,,,,0,17.102343233448273,5,6.0,34.70000076293945,0.0,0.0,11.214792843158074,66.7128,I,,
Raw,1733209528001,19914000000,18,88.23463419350125,-1417244726087000064,0.0,88.23463419350125,-4001.461557125027,0.0,0,21,0.0,16431,198345921896248,396,22.600000381469727,-1024.0038892213379,0.14999,24,-23127.56577675635,0.004900000058114529,1575420030,,,,0,2.9645216146785947,6,6.0,22.600000381469727,0.0,0.0,5.605973991394426,66.7128,C,,
Raw,1733209528001,19914000000,18,88.23463419350125,-1417244726087000064,0.0,88.23463419350125,-4001.461557125027,0.0,0,12,0.0,17,705057,487,0.0,-912.076769371973,0.14999,16,-20899.612437728036,0.009999999776482582,1601437440,,,,0,0.0,3,6.0,20.0,0.0,0.0,-21.74234931626498,66.7128,C,,
Raw,1733209528001,19914000000,18,88.23463419350125,-1417244726087000064,0.0,88.23463419350125,-4001.461557125027,0.0,0,1,0.0,32995,36327936645103,797,0.0,-1361.7748100086849,0.14999,16,-24832.32977081295,0.02250000089406967,1602562560,,,,0,0.0,3,6.0,16.0,0.0,0.0,-21.74234931626498,66.7128,C,,
Raw,1733209528001,19914000000,18,88.23463419350125,-1417244726087000064,0.0,88.23463419350125,-4001.461557125027,0.0,0,8,0.0,32995,36327929623572,487,0.0,-630.4967549814409,0.14999,16,-20663.97007468379,0.009999999776482582,1605374980,,,,0,0.0,3,6.0,19.0,0.0,0.0,-21.74234931626498,66.7128,C,,
Raw,1733209528001,19914000000,18,88.23463419350125,-1417244726087000064,0.0,88.23463419350125,-4001.461557125027,0.0,0,2,0.0,32995,36327927516890,487,0.0,-1921.3693333325984,0.14999,16,-25964.705118363545,0.009999999776482582,1599750020,,,,0,0.0,3,6.0,18.0,0.0,0.0,-21.74234931626498,66.7128,C,,
Raw,1733209528001,19914000000,18,88.23463419350125,-1417244726087000064,0.0,88.23463419350125,-4001.461557125027,0.0,0,4,0.0,47,198345931305658,235,27.406999588012695,-1522.6440216625263,0.14999,17,-27369.647099442907,0.0008999999845400453,1575420030,,,,0,8.276788383509093,1,6.0,27.406999588012695,0.0,0.0,0.0,66.7128,C,,
Raw,1733209528001,19914000000,18,88.23463419350125,-1417244726087000064,0.0,88.23463419350125,-4001.461557125027,0.0,0,9,0.0,47,198345926848617,74,30.839000701904297,-1731.2373858557248,0.14999,17,-31694.869416538502,0.0006249999860301614,1575420030,,,,0,12.559114371222407,1,6.0,30.839000701904297,0.0,0.0,0.0,66.7128,C,,
Raw,1733209528001,19914000000,18,88.23463419350125,-1417244726087000064,0.0,88.23463419350125,-4001.461557125027,0.0,0,27,0.0,47,198345927780705,487,21.75200080871582,-1261.534900036427,0.14999,16,-24415.343279401248,0.009999999776482582,1575420030,,,,0,0.14598477482998845,1,6.0,21.75200080871582,0.0,0.0,0.0,66.7128,C,,
Raw,1733209528001,19914000000,18,88.23463419350125,-1417244726087000064,0.0,88.23463419350125,-4001.461557125027,0.0,0,10,0.0,16905,198331877735226,316,24.700000762939453,-1347.029052734375,0.14999,20,-25059.323948146735,0.002025000052526593,1561097980,,,,0,5.647191911445752,5,6.0,24.700000762939453,0.0,0.0,11.214792843158074,66.7128,I,,
Raw,1733209528001,19914000000,18,88.23463419350125,-1417244726087000064,0.0,88.23463419350125,-4001.461557125027,0.0,0,7,0.0,16905,198331877994220,316,23.799999237060547,-1334.298095703125,0.14999,16,-25081.10012918334,0.002025000052526593,1561097980,,,,0,4.598855011922934,5,6.0,23.799999237060547,0.0,0.0,11.214792843158074,66.7128,I,,
Raw,1733209528001,19914000000,18,88.23463419350125,-1417244726087000064,0.0,88.23463419350125,-4001.461557125027,0.0,0,13,0.0,16905,198331871700417,396,23.100000381469727,-896.1410522460938,0.14999,16,-22520.54786347454,0.004900000058114529,1561097980,,,,0,3.5789693980032418,5,6.0,23.100000381469727,0.0,0.0,11.214792843158074,66.7128,I,,
Raw,1733209528001,19914000000,18,88.23463419350125,-1417244726087000064,0.0,88.23463419350125,-4001.461557125027,0.0,0,19,0.0,16431,198345918559656,487,19.200000762939453,-1570.7568220743217,0.14999,24,-26514.392146747723,0.009999999776482582,1575420030,,,,0,0.0,6,6.0,19.200000762939453,0.0,0.0,5.605973991394426,66.7128,C,,
Raw,1733209528001,19914000000,18,88.23463419350125,-1417244726087000064,0.0,88.23463419350125,-4001.461557125027,0.0,0,45,0.0,47,198331923280410,396,21.200000762939453,-1217.8939208984375,0.14999,16,-24322.633881889244,0.004900000058114529,1561097980,,,,0,1.0134897549299797,5,6.0,21.200000762939453,0.0,0.0,11.214792843158074,66.7128,I,,
