# 
# Header Description:
# 
# Version: v3.1.0.3 Platform: 14 Manufacturer: samsung Model: SM-M346B GNSS Hardware Model Name: S.LSI,K050,SPOTNAV_4.11.0_25_E17P
# 
# Raw,utcTimeMillis,TimeNanos,LeapSecond,TimeUncertaintyNanos,FullBiasNanos,BiasNanos,BiasUncertaintyNanos,DriftNanosPerSecond,DriftUncertaintyNanosPerSecond,HardwareClockDiscontinuityCount,Svid,TimeOffsetNanos,State,ReceivedSvTimeNanos,ReceivedSvTimeUncertaintyNanos,Cn0DbHz,PseudorangeRateMetersPerSecond,PseudorangeRateUncertaintyMetersPerSecond,AccumulatedDeltaRangeState,AccumulatedDeltaRangeMeters,AccumulatedDeltaRangeUncertaintyMeters,CarrierFrequencyHz,CarrierCycles,CarrierPhase,CarrierPhaseUncertainty,MultipathIndicator,SnrInDb,ConstellationType,AgcDb,BasebandCn0DbHz,FullInterSignalBiasNanos,FullInterSignalBiasUncertaintyNanos,SatelliteInterSignalBiasNanos,SatelliteInterSignalBiasUncertaintyNanos,CodeType,ChipsetElapsedRealtimeNanos,IsFullTracking
# 
# UncalAccel,utcTimeMillis,elapsedRealtimeNanos,UncalAccelXMps2,UncalAccelYMps2,UncalAccelZMps2,BiasXMps2,BiasYMps2,BiasZMps2
# 
# Accel,utcTimeMillis,elapsedRealtimeNanos,AccelXMps2,AccelYMps2,AccelZMps2
# 
# UncalGyro,utcTimeMillis,elapsedRealtimeNanos,UncalGyroXRadPerSec,UncalGyroYRadPerSec,UncalGyroZRadPerSec,DriftXRadPerSec,DriftYRadPerSec,DriftZRadPerSec
# 
# Gyro,utcTimeMillis,elapsedRealtimeNanos,GyroXRadPerSec,GyroYRadPerSec,GyroZRadPerSec
# 
# UncalMag,utcTimeMillis,elapsedRealtimeNanos,UncalMagXMicroT,UncalMagYMicroT,UncalMagZMicroT,BiasXMicroT,BiasYMicroT,BiasZMicroT
# 
# Mag,utcTimeMillis,elapsedRealtimeNanos,MagXMicroT,MagYMicroT,MagZMicroT
# 
# Pressure,utcTimeMillis,elapsedRealtimeNanos,PressureHpa
# 
# OrientationDeg,utcTimeMillis,elapsedRealtimeNanos,yawDeg,rollDeg,pitchDeg
# 
# Fix,Provider,LatitudeDegrees,LongitudeDegrees,AltitudeMeters,SpeedMps,AccuracyMeters,BearingDegrees,UnixTimeMillis,SpeedAccuracyMps,BearingAccuracyDegrees,elapsedRealtimeNanos,VerticalAccuracyMeters,MockLocation,NumberOfUsedSignals,VerticalSpeedAccuracyMps,SolutionType
# 
# Nav,Svid,Type,Status,MessageId,Sub-messageId,Data(Bytes)
# 
# Status,UnixTimeMillis,SignalCount,SignalIndex,ConstellationType,Svid,CarrierFrequencyHz,Cn0DbHz,AzimuthDegrees,ElevationDegrees,UsedInFix,HasAlmanacData,HasEphemerisData,BasebandCn0DbHz
# 
# Agc,utcTimeMillis,TimeNanos,LeapSecond,TimeUncertaintyNanos,FullBiasNanos,BiasNanos,BiasUncertaintyNanos,DriftNanosPerSecond,DriftUncertaintyNanosPerSecond,HardwareClockDiscontinuityCount,AgcDb,CarrierFrequencyHz,ConstellationType
# 
Fix,FLP,12.9242257000,77.5225012000,761.2999877929688,,38.877,,1733209509859,1.5,45.0,789349272000000,2.9525678,0,,,
Raw,1733209513305,5388772436,18,0.0,-1417244725916998144,0.0,50.034610748291016,-28.923309326171875,0.0,0,7,0.0,15,198331226125571,10,41.20000076293945,-117.42884063720703,0.07631023973226547,19,-35002.94166852457,0.14910580217838287,1575420030,,,,0,,1,1.2999999523162842,36.20000076293945,0.0,0.0,0.0,0.0,C,920415592646114,
Raw,1733209513305,5388772436,18,0.0,-1417244725916998144,0.0,50.034610748291016,-28.923309326171875,0.0,0,3,0.0,19,15101789,17,31.5,398.5494384765625,0.14239943027496338,16,0.0,0.10069064050912857,1575420030,,,,0,,1,1.2999999523162842,26.5,0.0,0.0,0.0,0.0,C,920415592646114,
Raw,1733209513305,5388772436,18,0.0,-1417244725916998144,0.0,50.034610748291016,-28.923309326171875,0.0,0,4,0.0,19,16377646,17,31.700000762939453,-330.4750671386719,0.14027409255504608,16,0.0,0.09918781369924545,1575420030,,,,0,,1,1.2999999523162842,26.700000762939453,0.0,0.0,0.0,0.0,C,920415592646114,
Raw,1733209513305,5388772436,18,0.0,-1417244725916998144,0.0,50.034610748291016,-28.923309326171875,0.0,0,9,0.0,19,11910482,23,27.200000762939453,-538.6734619140625,0.2029055953025818,16,0.0,0.1434745490550995,1575420030,,,,0,,1,1.2999999523162842,22.200000762939453,0.0,0.0,0.0,0.0,C,920415592646114,
Raw,1733209513305,5388772436,18,0.0,-1417244725916998144,0.0,50.034610748291016,-28.923309326171875,0.0,0,16,0.0,19,11270088,24,26.799999237060547,610.1256713867188,0.21042001247406006,16,0.0,0.1487879902124405,1575420030,,,,0,,1,1.2999999523162842,21.799999237060547,0.0,0.0,0.0,0.0,C,920415592646114,
Raw,1733209513305,5388772436,18,0.0,-1417244725916998144,0.0,50.034610748291016,-28.923309326171875,0.0,0,12,0.0,51,17807012,10,42.099998474121094,279.6241760253906,0.07265277206897736,16,0.0,0.051372773945331573,1601437440,,,,0,,3,1.2999999523162842,37.099998474121094,0.0,0.0,0.0,0.0,C,920415592646114,
Raw,1733209513305,5388772436,18,0.0,-1417244725916998144,0.0,50.034610748291016,-28.923309326171875,0.0,0,22,0.0,51,11668122,10,42.099998474121094,-301.76513671875,0.07265277206897736,19,-30108.14281554529,0.14739251136779785,1561097980,,,,0,,5,1.2999999523162842,37.099998474121094,0.0,0.0,0.0,0.0,C,920415592646114,
Raw,1733209513305,5388772436,18,0.0,-1417244725916998144,0.0,50.034610748291016,-28.923309326171875,0.0,0,45,0.0,51,8367627,10,41.5,-24.865074157714844,0.07506098598241806,19,-41845.646729274275,0.14909537136554718,1561097980,,,,0,,5,1.2999999523162842,36.5,0.0,0.0,0.0,0.0,C,920415592646114,
Raw,1733209513305,5388772436,18,0.0,-1417244725916998144,0.0,50.034610748291016,-28.923309326171875,0.0,0,19,0.0,51,11136894,17,31.600000381469727,285.9679870605469,0.1413307636976242,16,0.0,0.09993498027324677,1561097980,,,,0,,5,1.2999999523162842,26.600000381469727,0.0,0.0,0.0,0.0,C,920415592646114,
Raw,1733209513305,5388772436,18,0.0,-1417244725916998144,0.0,50.034610748291016,-28.923309326171875,0.0,0,36,0.0,51,8813830,16,32.5,292.2281188964844,0.13223139941692352,16,0.0,0.09350082278251648,1561097980,,,,0,,5,1.2999999523162842,27.5,0.0,0.0,0.0,0.0,C,920415592646114,
Raw,1733209513305,5388772436,18,0.0,-1417244725916998144,0.0,50.034610748291016,-28.923309326171875,0.0,0,9,0.0,51,17581105,19,29.799999237060547,-54.33878707885742,0.16259105503559113,16,0.0,0.11496813595294952,1561097980,,,,0,,5,1.2999999523162842,24.799999237060547,0.0,0.0,0.0,0.0,C,920415592646114,
Raw,1733209513305,5388772436,18,0.0,-1417244725916998144,0.0,50.034610748291016,-28.923309326171875,0.0,0,1,0.0,51,1724848,21,28.700000762939453,-171.45999145507812,0.17803412675857544,16,0.0,0.125887930393219,1602562560,,,,0,,3,1.2999999523162842,23.700000762939453,0.0,0.0,0.0,0.0,C,920415592646114,
Raw,1733209513305,5388772436,18,0.0,-1417244725916998144,0.0,50.034610748291016,-28.923309326171875,0.0,0,21,0.0,1040,3992743,23,27.0,167.9507598876953,0.20661157369613647,16,0.0,0.14609503746032715,1575420030,,,,0,,6,1.2999999523162842,22.0,0.0,0.0,0.0,0.0,C,920415592646114,
Raw,1733209513305,5388772436,18,0.0,-1417244725916998144,0.0,50.034610748291016,-28.923309326171875,0.0,0,39,0.0,51,16527570,24,26.799999237060547,-102.09932708740234,0.21042001247406006,16,0.0,0.1487879902124405,1561097980,,,,0,,5,1.2999999523162842,21.799999237060547,0.0,0.0,0.0,0.0,C,920415592646114,
Raw,1733209513305,5388772436,18,0.0,-1417244725916998144,0.0,50.034610748291016,-28.923309326171875,0.0,0,16,0.0,51,16729385,25,25.899999618530273,-90.1546859741211,0.2289324849843979,16,0.0,0.16187815368175507,1561097980,,,,0,,5,1.2999999523162842,20.899999618530273,0.0,0.0,0.0,0.0,C,920415592646114,
Raw,1733209514000,6083020649,18,0.0,-1417244725916998144,0.0,50.034610748291016,-27.519622802734375,0.0,0,7,0.0,15,198331920374061,10,41.20000076293945,-117.43527221679688,0.07631023973226547,25,-35084.446722324916,0.05395897105336189,1575420030,,,,0,,1,1.2999999523162842,36.20000076293945,0.0,0.0,0.0,0.0,C,920416286887973,
Raw,1733209514000,6083020649,18,0.0,-1417244725916998144,0.0,50.034610748291016,-27.519622802734375,0.0,0,3,0.0,15,198331929349063,17,31.5,398.59033203125,0.14239943027496338,16,0.0,0.10069064050912857,1575420030,,,,0,,1,1.2999999523162842,26.5,0.0,0.0,0.0,0.0,C,920416286887973,
Raw,1733209514000,6083020649,18,0.0,-1417244725916998144,0.0,50.034610748291016,-27.519622802734375,0.0,0,4,0.0,15,198331930626669,17,31.5,-331.5284118652344,0.14239943027496338,16,0.0,0.10069064050912857,1575420030,,,,0,,1,1.2999999523162842,26.5,0.0,0.0,0.0,0.0,C,920416286887973,
Raw,1733209514000,6083020649,18,0.0,-1417244725916998144,0.0,50.034610748291016,-27.519622802734375,0.0,0,9,0.0,15,198331926159924,23,27.200000762939453,-538.6258544921875,0.2029055953025818,16,0.0,0.1434745490550995,1575420030,,,,0,,1,1.2999999523162842,22.200000762939453,0.0,0.0,0.0,0.0,C,920416286887973,
Raw,1733209514000,6083020649,18,0.0,-1417244725916998144,0.0,50.034610748291016,-27.519622802734375,0.0,0,16,0.0,15,198331925516875,24,26.700000762939453,610.28515625,0.21236379444599152,16,0.0,0.1501624435186386,1575420030,,,,0,,1,1.2999999523162842,21.700000762939453,0.0,0.0,0.0,0.0,C,920416286887973,
Raw,1733209514000,6083020649,18,0.0,-1417244725916998144,0.0,50.034610748291016,-27.519622802734375,0.0,0,12,0.0,239,36313932054559,10,42.099998474121094,279.68133544921875,0.07265277206897736,16,0.0,0.051372773945331573,1601437440,,,,0,,3,1.2999999523162842,37.099998474121094,0.0,0.0,0.0,0.0,C,920416286887973,
Raw,1733209514000,6083020649,18,0.0,-1417244725916998144,0.0,50.034610748291016,-27.519622802734375,0.0,0,22,0.0,51,5917029,10,42.099998474121094,-301.6861877441406,0.07265277206897736,19,-30317.591070981507,0.14739251136779785,1561097980,,,,0,,5,1.2999999523162842,37.099998474121094,0.0,0.0,0.0,0.0,C,920416286887973,
Raw,1733209514000,6083020649,18,0.0,-1417244725916998144,0.0,50.034610748291016,-27.519622802734375,0.0,0,45,0.0,51,2615902,10,41.400001525878906,-24.96552085876465,0.07547397166490555,19,-41862.97267457297,0.149387389421463,1561097980,,,,0,,5,1.2999999523162842,36.400001525878906,0.0,0.0,0.0,0.0,C,920416286887973,
Raw,1733209514000,6083020649,18,0.0,-1417244725916998144,0.0,50.034610748291016,-27.519622802734375,0.0,0,19,0.0,51,5384439,17,31.600000381469727,286.1902160644531,0.1413307636976242,16,0.0,0.09993498027324677,1561097980,,,,0,,5,1.2999999523162842,26.600000381469727,0.0,0.0,0.0,0.0,C,920416286887973,
Raw,1733209514000,6083020649,18,0.0,-1417244725916998144,0.0,50.034610748291016,-27.519622802734375,0.0,0,36,0.0,51,3061377,16,32.400001525878906,291.53668212890625,0.13319836556911469,16,0.0,0.09418456256389618,1561097980,,,,0,,5,1.2999999523162842,27.399999618530273,0.0,0.0,0.0,0.0,C,920416286887973,
Raw,1733209514000,6083020649,18,0.0,-1417244725916998144,0.0,50.034610748291016,-27.519622802734375,0.0,0,1,0.0,239,36313935973503,20,28.799999237060547,-172.1370391845703,0.17654122412204742,16,0.0,0.12483230233192444,1602562560,,,,0,,3,1.2999999523162842,23.799999237060547,0.0,0.0,0.0,0.0,C,920416286887973,
Raw,1733209514000,6083020649,18,0.0,-1417244725916998144,0.0,50.034610748291016,-27.519622802734375,0.0,0,9,0.0,51,11829470,19,29.700000762939453,-54.188941955566406,0.16391023993492126,16,0.0,0.1159009337425232,1561097980,,,,0,,5,1.2999999523162842,24.700000762939453,0.0,0.0,0.0,0.0,C,920416286887973,
Raw,1733209514000,6083020649,18,0.0,-1417244725916998144,0.0,50.034610748291016,-27.519622802734375,0.0,0,21,0.0,3072,21240559,23,27.299999237060547,166.9110870361328,0.20108991861343384,16,0.0,0.14219067990779877,1575420030,,,,0,,6,1.2999999523162842,22.299999237060547,0.0,0.0,0.0,0.0,C,920416286887973,
Raw,1733209514000,6083020649,18,0.0,-1417244725916998144,0.0,50.034610748291016,-27.519622802734375,0.0,0,16,0.0,51,10977827,24,26.299999237060547,-90.41714477539062,0.22041483223438263,16,0.0,0.15585532784461975,1561097980,,,,0,,5,1.2999999523162842,21.299999237060547,0.0,0.0,0.0,0.0,C,920416286887973,
Raw,1733209514000,6083020649,18,0.0,-1417244725916998144,0.0,50.034610748291016,-27.519622802734375,0.0,0,39,0.0,51,10776020,23,27.0,-103.11203002929688,0.20661157369613647,16,0.0,0.14609503746032715,1561097980,,,,0,,5,1.2999999523162842,22.0,0.0,0.0,0.0,0.0,C,920416286887973,
Raw,1733209515000,7083001955,18,0.0,-1417244725916998144,0.0,10.014025688171387,-26.775972366333008,0.0,0,7,0.0,15,198332920355759,10,41.099998474121094,-117.4313735961914,0.07673361152410507,25,-35201.85676800418,0.05425833538174629,1575420030,,,,0,,1,1.2999999523162842,36.099998474121094,0.0,0.0,0.0,0.0,C,920422434190359,
Raw,1733209515000,7083001955,18,0.0,-1417244725916998144,0.0,10.014025688171387,-26.775972366333008,0.0,0,3,0.0,15,198332929329044,17,31.399999618530273,399.1571044921875,0.14348027110099792,16,0.0,0.10145489871501923,1575420030,,,,0,,1,1.2999999523162842,26.399999618530273,0.0,0.0,0.0,0.0,C,920422434190359,
Raw,1733209515000,7083001955,18,0.0,-1417244725916998144,0.0,10.014025688171387,-26.775972366333008,0.0,0,4,0.0,15,198332930609082,17,31.299999237060547,-331.7212219238281,0.14457345008850098,16,0.0,0.10222788900136948,1575420030,,,,0,,1,1.2999999523162842,26.299999237060547,0.0,0.0,0.0,0.0,C,920422434190359,
Raw,1733209515000,7083001955,18,0.0,-1417244725916998144,0.0,10.014025688171387,-26.775972366333008,0.0,0,16,0.0,15,198332925496165,24,26.799999237060547,610.5655517578125,0.21042001247406006,16,0.0,0.1487879902124405,1575420030,,,,0,,1,1.2999999523162842,21.799999237060547,0.0,0.0,0.0,0.0,C,920422434190359,
Raw,1733209515000,7083001955,18,0.0,-1417244725916998144,0.0,10.014025688171387,-26.775972366333008,0.0,0,9,0.0,15,198332926143015,23,27.200000762939453,-538.5993041992188,0.2029055953025818,16,0.0,0.1434745490550995,1575420030,,,,0,,1,1.2999999523162842,22.200000762939453,0.0,0.0,0.0,0.0,C,920422434190359,
Raw,1733209515000,7083001955,18,0.0,-1417244725916998144,0.0,10.014025688171387,-26.775972366333008,0.0,0,12,0.0,239,36314932034944,10,42.099998474121094,279.7018127441406,0.07265277206897736,16,0.0,0.051372773945331573,1601437440,,,,0,,3,1.2999999523162842,37.099998474121094,0.0,0.0,0.0,0.0,C,920422434190359,
Raw,1733209515000,7083001955,18,0.0,-1417244725916998144,0.0,10.014025688171387,-26.775972366333008,0.0,0,22,0.0,51,5899360,10,42.099998474121094,-301.600830078125,0.07265277206897736,19,-30619.20186968331,0.14739251136779785,1561097980,,,,0,,5,1.2999999523162842,37.099998474121094,0.0,0.0,0.0,0.0,C,920422434190359,
Raw,1733209515000,7083001955,18,0.0,-1417244725916998144,0.0,10.014025688171387,-26.775972366333008,0.0,0,45,0.0,51,2597287,10,41.400001525878906,-24.987934112548828,0.07547397166490555,19,-41887.78369873446,0.149387389421463,1561097980,,,,0,,5,1.2999999523162842,36.400001525878906,0.0,0.0,0.0,0.0,C,920422434190359,
Raw,1733209515000,7083001955,18,0.0,-1417244725916998144,0.0,10.014025688171387,-26.775972366333008,0.0,0,19,0.0,51,5364790,17,31.600000381469727,287.2724304199219,0.1413307636976242,16,0.0,0.09993498027324677,1561097980,,,,0,,5,1.2999999523162842,26.600000381469727,0.0,0.0,0.0,0.0,C,920422434190359,
Raw,1733209515000,7083001955,18,0.0,-1417244725916998144,0.0,10.014025688171387,-26.775972366333008,0.0,0,36,0.0,51,3041721,16,32.29999923706055,291.0757141113281,0.13417595624923706,16,0.0,0.09487581998109818,1561097980,,,,0,,5,1.2999999523162842,27.299999237060547,0.0,0.0,0.0,0.0,C,920422434190359,
Raw,1733209515000,7083001955,18,0.0,-1417244725916998144,0.0,10.014025688171387,-26.775972366333008,0.0,0,21,0.0,3072,21221314,23,27.299999237060547,166.95401000976562,0.20108991861343384,16,0.0,0.14219067990779877,1575420030,,,,0,,6,1.2999999523162842,22.299999237060547,0.0,0.0,0.0,0.0,C,920422434190359,
Raw,1733209515000,7083001955,18,0.0,-1417244725916998144,0.0,10.014025688171387,-26.775972366333008,0.0,0,9,0.0,51,11810935,19,29.600000381469727,-54.49449157714844,0.16524554789066315,16,0.0,0.11684512346982956,1561097980,,,,0,,5,1.2999999523162842,24.600000381469727,0.0,0.0,0.0,0.0,C,920422434190359,
Raw,1733209515000,7083001955,18,0.0,-1417244725916998144,0.0,10.014025688171387,-26.775972366333008,0.0,0,1,0.0,239,36314935955380,20,28.799999237060547,-172.714111328125,0.17654122412204742,16,0.0,0.12483230233192444,1602562560,,,,0,,3,1.2999999523162842,23.799999237060547,0.0,0.0,0.0,0.0,C,920422434190359,
Raw,1733209515000,7083001955,18,0.0,-1417244725916998144,0.0,10.014025688171387,-26.775972366333008,0.0,0,16,0.0,51,10959428,23,27.100000381469727,-90.73623657226562,0.20474600791931152,16,0.0,0.1447758972644806,1561097980,,,,0,,5,1.2999999523162842,22.100000381469727,0.0,0.0,0.0,0.0,C,920422434190359,
Raw,1733209515000,7083001955,18,0.0,-1417244725916998144,0.0,10.014025688171387,-26.775972366333008,0.0,0,39,0.0,51,10757687,23,27.200000762939453,-103.00463104248047,0.2029055953025818,16,0.0,0.1434745490550995,1561097980,,,,0,,5,1.2999999523162842,22.200000762939453,0.0,0.0,0.0,0.0,C,920422434190359,
Raw,1733209515000,7083001955,18,0.0,-1417244725916998144,0.0,10.014025688171387,-26.775972366333008,0.0,0,8,0.0,239,36314928965727,29,24.200000762939453,560.8175048828125,0.2712673544883728,16,0.0,0.1918131411075592,1605374980,,,,0,,3,1.2999999523162842,19.200000762939453,0.0,0.0,0.0,0.0,C,920422434190359,
Raw,1733209515000,7083001955,18,0.0,-1417244725916998144,0.0,10.014025688171387,-26.775972366333008,0.0,0,2,0.0,239,36314926802967,30,23.899999618530273,-730.3463134765625,0.2799473702907562,16,0.0,0.19795078039169312,1599750020,,,,0,,3,1.2999999523162842,18.899999618530273,0.0,0.0,0.0,0.0,C,920422434190359,
Raw,1733209515000,7083001955,18,0.0,-1417244725916998144,0.0,10.014025688171387,-26.775972366333008,0.0,0,11,0.0,239,36314922868444,36,21.700000762939453,592.0753173828125,0.3585642874240875,16,0.0,0.2535408139228821,1602000000,,,,0,,3,1.2999999523162842,16.700000762939453,0.0,0.0,0.0,0.0,C,920422434190359,
Raw,1733209516000,8083001894,18,0.0,-1417244725916998144,0.0,10.014025688171387,-26.976613998413086,0.0,0,7,0.0,15,198333920356074,10,41.099998474121094,-117.42464447021484,0.07673361152410507,25,-35319.2772691098,0.05425833538174629,1575420030,,,,0,,1,1.2999999523162842,36.099998474121094,0.0,0.0,0.0,0.0,C,920423414253572,
Raw,1733209516000,8083001894,18,0.0,-1417244725916998144,0.0,10.014025688171387,-26.976613998413086,0.0,0,3,0.0,15,198333929327706,17,31.299999237060547,399.22222900390625,0.14457345008850098,16,0.0,0.10222788900136948,1575420030,,,,0,,1,1.2999999523162842,26.299999237060547,0.0,0.0,0.0,0.0,C,920423414253572,
Raw,1733209516000,8083001894,18,0.0,-1417244725916998144,0.0,10.014025688171387,-26.976613998413086,0.0,0,4,0.0,15,198333930610081,18,31.0,-332.2365417480469,0.14792899787425995,16,0.0,0.10460059344768524,1575420030,,,,0,,1,1.2999999523162842,26.0,0.0,0.0,0.0,0.0,C,920423414253572,
Raw,1733209516000,8083001894,18,0.0,-1417244725916998144,0.0,10.014025688171387,-26.976613998413086,0.0,0,16,0.0,15,198333925494054,23,27.100000381469727,610.4728393554688,0.20474600791931152,16,0.0,0.1447758972644806,1575420030,,,,0,,1,1.2999999523162842,22.100000381469727,0.0,0.0,0.0,0.0,C,920423414253572,
Raw,1733209516000,8083001894,18,0.0,-1417244725916998144,0.0,10.014025688171387,-26.976613998413086,0.0,0,9,0.0,15,198333926144736,23,27.200000762939453,-538.43603515625,0.2029055953025818,16,0.0,0.1434745490550995,1575420030,,,,0,,1,1.2999999523162842,22.200000762939453,0.0,0.0,0.0,0.0,C,920423414253572,
Raw,1733209516000,8083001894,18,0.0,-1417244725916998144,0.0,10.014025688171387,-26.976613998413086,0.0,0,12,0.0,239,36315932033953,10,42.099998474121094,279.7929992675781,0.07265277206897736,16,0.0,0.051372773945331573,1601437440,,,,0,,3,1.2999999523162842,37.099998474121094,0.0,0.0,0.0,0.0,C,920423414253572,
Raw,1733209516000,8083001894,18,0.0,-1417244725916998144,0.0,10.014025688171387,-26.976613998413086,0.0,0,22,0.0,51,5900292,10,42.099998474121094,-301.4613037109375,0.07265277206897736,19,-30920.723767417687,0.14739251136779785,1561097980,,,,0,,5,1.2999999523162842,37.099998474121094,0.0,0.0,0.0,0.0,C,920423414253572,
Raw,1733209516000,8083001894,18,0.0,-1417244725916998144,0.0,10.014025688171387,-26.976613998413086,0.0,0,45,0.0,51,2597316,10,41.29999923706055,-24.838361740112305,0.07589038461446762,19,-41912.64933361333,0.14968183636665344,1561097980,,,,0,,5,1.2999999523162842,36.29999923706055,0.0,0.0,0.0,0.0,C,920423414253572,
Raw,1733209516000,8083001894,18,0.0,-1417244725916998144,0.0,10.014025688171387,-26.976613998413086,0.0,0,19,0.0,51,5363769,17,31.600000381469727,286.55712890625,0.1413307636976242,16,0.0,0.09993498027324677,1561097980,,,,0,,5,1.2999999523162842,26.600000381469727,0.0,0.0,0.0,0.0,C,920423414253572,
Raw,1733209516000,8083001894,18,0.0,-1417244725916998144,0.0,10.014025688171387,-26.976613998413086,0.0,0,36,0.0,51,3040686,16,32.20000076293945,291.52197265625,0.13516435027122498,16,0.0,0.09557471424341202,1561097980,,,,0,,5,1.2999999523162842,27.200000762939453,0.0,0.0,0.0,0.0,C,920423414253572,
Raw,1733209516000,8083001894,18,0.0,-1417244725916998144,0.0,10.014025688171387,-26.976613998413086,0.0,0,21,0.0,3072,21220674,21,28.600000381469727,168.16847229003906,0.17954610288143158,16,0.0,0.12695704400539398,1575420030,,,,0,,6,1.2999999523162842,23.600000381469727,0.0,0.0,0.0,0.0,C,920423414253572,
Raw,1733209516000,8083001894,18,0.0,-1417244725916998144,0.0,10.014025688171387,-26.976613998413086,0.0,0,9,0.0,51,11811072,19,29.600000381469727,-53.644439697265625,0.16524554789066315,16,0.0,0.11684512346982956,1561097980,,,,0,,5,1.2999999523162842,24.600000381469727,0.0,0.0,0.0,0.0,C,920423414253572,
Raw,1733209516000,8083001894,18,0.0,-1417244725916998144,0.0,10.014025688171387,-26.976613998413086,0.0,0,1,0.0,239,36315935955887,21,28.700000762939453,-171.8370819091797,0.17803412675857544,16,0.0,0.125887930393219,1602562560,,,,0,,3,1.2999999523162842,23.700000762939453,0.0,0.0,0.0,0.0,C,920423414253572,
Raw,1733209516000,8083001894,18,0.0,-1417244725916998144,0.0,10.014025688171387,-26.976613998413086,0.0,0,16,0.0,51,10959665,22,27.5,-91.12723541259766,0.1975308656692505,16,0.0,0.1396740823984146,1561097980,,,,0,,5,1.2999999523162842,22.5,0.0,0.0,0.0,0.0,C,920423414253572,
Raw,1733209516000,8083001894,18,0.0,-1417244725916998144,0.0,10.014025688171387,-26.976613998413086,0.0,0,39,0.0,51,10757952,23,27.200000762939453,-102.97526550292969,0.2029055953025818,16,0.0,0.1434745490550995,1561097980,,,,0,,5,1.2999999523162842,22.200000762939453,0.0,0.0,0.0,0.0,C,920423414253572,
Raw,1733209516000,8083001894,18,0.0,-1417244725916998144,0.0,10.014025688171387,-26.976613998413086,0.0,0,8,0.0,239,36315928963727,29,24.200000762939453,560.8721923828125,0.2712673544883728,16,0.0,0.1918131411075592,1605374980,,,,0,,3,1.2999999523162842,19.200000762939453,0.0,0.0,0.0,0.0,C,920423414253572,
Raw,1733209516000,8083001894,18,0.0,-1417244725916998144,0.0,10.014025688171387,-26.976613998413086,0.0,0,2,0.0,239,36315926805219,30,23.899999618530273,-730.3551635742188,0.2799473702907562,16,0.0,0.19795078039169312,1599750020,,,,0,,3,1.2999999523162842,18.899999618530273,0.0,0.0,0.0,0.0,C,920423414253572,
Raw,1733209516000,8083001894,18,0.0,-1417244725916998144,0.0,10.014025688171387,-26.976613998413086,0.0,0,6,0.0,51,12789518,30,23.80000114440918,-67.58055114746094,0.28293341398239136,16,0.0,0.20006221532821655,1561097980,,,,0,,5,1.2999999523162842,18.80000114440918,0.0,0.0,0.0,0.0,C,920423414253572,
Raw,1733209516000,8083001894,18,0.0,-1417244725916998144,0.0,10.014025688171387,-26.976613998413086,0.0,0,13,0.0,239,36315928076176,34,22.30000114440918,-195.17239379882812,0.33412405848503113,16,0.0,0.2362591177225113,1600875010,,,,0,,3,1.2999999523162842,17.30000114440918,0.0,0.0,0.0,0.0,C,920423414253572,
Raw,1733209516000,8083001894,18,0.0,-1417244725916998144,0.0,10.014025688171387,-26.976613998413086,0.0,0,11,0.0,239,36315922866350,36,21.700000762939453,591.5217895507812,0.3585642874240875,16,0.0,0.2535408139228821,1602000000,,,,0,,3,1.2999999523162842,16.700000762939453,0.0,0.0,0.0,0.0,C,920423414253572,
Fix,FLP,12.9242165000,77.5224549000,761.2999877929688,0.29042524,30.522,258.5327,1733209516720,1.5,45.0,789356133000000,2.028703,0,,,
Raw,1733209516999,9083001833,18,0.0,-1417244725916998144,0.0,10.014025688171387,-25.582107543945312,0.0,0,7,0.0,15,198334920356400,10,41.099998474121094,-117.36858367919922,0.07673361152410507,25,-35436.66315616754,0.05425833538174629,1575420030,,,,0,,1,1.2999999523162842,36.099998474121094,0.0,0.0,0.0,0.0,C,920424400430539,
Raw,1733209516999,9083001833,18,0.0,-1417244725916998144,0.0,10.014025688171387,-25.582107543945312,0.0,0,3,0.0,15,198334929326263,17,31.200000762939453,398.94476318359375,0.14567914605140686,16,0.0,0.10300972312688828,1575420030,,,,0,,1,1.2999999523162842,26.200000762939453,0.0,0.0,0.0,0.0,C,920424400430539,
Raw,1733209516999,9083001833,18,0.0,-1417244725916998144,0.0,10.014025688171387,-25.582107543945312,0.0,0,4,0.0,15,198334930611154,18,30.799999237060547,-331.3924560546875,0.15023136138916016,16,0.0,0.10622859746217728,1575420030,,,,0,,1,1.2999999523162842,25.799999237060547,0.0,0.0,0.0,0.0,C,920424400430539,
Raw,1733209516999,9083001833,18,0.0,-1417244725916998144,0.0,10.014025688171387,-25.582107543945312,0.0,0,16,0.0,15,198334925491985,23,27.200000762939453,610.6834716796875,0.2029055953025818,16,0.0,0.1434745490550995,1575420030,,,,0,,1,1.2999999523162842,22.200000762939453,0.0,0.0,0.0,0.0,C,920424400430539,
Raw,1733209516999,9083001833,18,0.0,-1417244725916998144,0.0,10.014025688171387,-25.582107543945312,0.0,0,9,0.0,15,198334926146459,23,27.100000381469727,-539.56298828125,0.20474600791931152,16,0.0,0.1447758972644806,1575420030,,,,0,,1,1.2999999523162842,22.100000381469727,0.0,0.0,0.0,0.0,C,920424400430539,
Raw,1733209516999,9083001833,18,0.0,-1417244725916998144,0.0,10.014025688171387,-25.582107543945312,0.0,0,12,0.0,239,36316932032942,10,42.099998474121094,279.8475036621094,0.07265277206897736,16,0.0,0.051372773945331573,1601437440,,,,0,,3,1.2999999523162842,37.099998474121094,0.0,0.0,0.0,0.0,C,920424400430539,
Raw,1733209516999,9083001833,18,0.0,-1417244725916998144,0.0,10.014025688171387,-25.582107543945312,0.0,0,22,0.0,51,5901236,10,42.0,-301.539794921875,0.07304602116346359,19,-31222.130923291377,0.14767058193683624,1561097980,,,,0,,5,1.2999999523162842,37.0,0.0,0.0,0.0,0.0,C,920424400430539,
Raw,1733209516999,9083001833,18,0.0,-1417244725916998144,0.0,10.014025688171387,-25.582107543945312,0.0,0,45,0.0,51,2597316,10,41.29999923706055,-24.802682876586914,0.07589038461446762,19,-41937.42402524299,0.14968183636665344,1561097980,,,,0,,5,1.2999999523162842,36.29999923706055,0.0,0.0,0.0,0.0,C,920424400430539,
Raw,1733209516999,9083001833,18,0.0,-1417244725916998144,0.0,10.014025688171387,-25.582107543945312,0.0,0,19,0.0,51,5362745,17,31.600000381469727,287.17620849609375,0.1413307636976242,16,0.0,0.09993498027324677,1561097980,,,,0,,5,1.2999999523162842,26.600000381469727,0.0,0.0,0.0,0.0,C,920424400430539,
Raw,1733209516999,9083001833,18,0.0,-1417244725916998144,0.0,10.014025688171387,-25.582107543945312,0.0,0,36,0.0,51,3039644,16,32.099998474121094,291.59735107421875,0.13616371154785156,16,0.0,0.09628135710954666,1561097980,,,,0,,5,1.2999999523162842,27.100000381469727,0.0,0.0,0.0,0.0,C,920424400430539,
Raw,1733209516999,9083001833,18,0.0,-1417244725916998144,0.0,10.014025688171387,-25.582107543945312,0.0,0,21,0.0,3072,21220050,20,29.100000381469727,167.52676391601562,0.17217335104942322,16,0.0,0.12174377590417862,1575420030,,,,0,,6,1.2999999523162842,24.100000381469727,0.0,0.0,0.0,0.0,C,920424400430539,
Raw,1733209516999,9083001833,18,0.0,-1417244725916998144,0.0,10.014025688171387,-25.582107543945312,0.0,0,9,0.0,51,11811210,19,29.5,-54.29121780395508,0.16659724712371826,16,0.0,0.11780091375112534,1561097980,,,,0,,5,1.2999999523162842,24.5,0.0,0.0,0.0,0.0,C,920424400430539,
Raw,1733209516999,9083001833,18,0.0,-1417244725916998144,0.0,10.014025688171387,-25.582107543945312,0.0,0,1,0.0,239,36316935956446,21,28.700000762939453,-171.07034301757812,0.17803412675857544,16,0.0,0.125887930393219,1602562560,,,,0,,3,1.2999999523162842,23.700000762939453,0.0,0.0,0.0,0.0,C,920424400430539,
Raw,1733209516999,9083001833,18,0.0,-1417244725916998144,0.0,10.014025688171387,-25.582107543945312,0.0,0,16,0.0,51,10959931,22,28.0,-91.26573944091797,0.18903592228889465,16,0.0,0.13366730511188507,1561097980,,,,0,,5,1.2999999523162842,23.0,0.0,0.0,0.0,0.0,C,920424400430539,
Raw,1733209516999,9083001833,18,0.0,-1417244725916998144,0.0,10.014025688171387,-25.582107543945312,0.0,0,39,0.0,51,10758207,23,27.200000762939453,-102.86576080322266,0.2029055953025818,16,0.0,0.1434745490550995,1561097980,,,,0,,5,1.2999999523162842,22.200000762939453,0.0,0.0,0.0,0.0,C,920424400430539,
Raw,1733209516999,9083001833,18,0.0,-1417244725916998144,0.0,10.014025688171387,-25.582107543945312,0.0,0,8,0.0,239,36316928961832,28,24.799999237060547,559.4729614257812,0.25507602095603943,16,0.0,0.18036425113677979,1605374980,,,,0,,3,1.2999999523162842,19.799999237060547,0.0,0.0,0.0,0.0,C,920424400430539,
Raw,1733209516999,9083001833,18,0.0,-1417244725916998144,0.0,10.014025688171387,-25.582107543945312,0.0,0,13,0.0,239,36316928076806,34,22.299999237060547,-194.8403778076172,0.3341241180896759,16,0.0,0.23625916242599487,1600875010,,,,0,,3,1.2999999523162842,17.299999237060547,0.0,0.0,0.0,0.0,C,920424400430539,
Raw,1733209516999,9083001833,18,0.0,-1417244725916998144,0.0,10.014025688171387,-25.582107543945312,0.0,0,2,0.0,239,36316926807633,29,24.100000381469727,-729.207275390625,0.27411526441574097,16,0.0,0.19382689893245697,1599750020,,,,0,,3,1.2999999523162842,19.100000381469727,0.0,0.0,0.0,0.0,C,920424400430539,
Raw,1733209516999,9083001833,18,0.0,-1417244725916998144,0.0,10.014025688171387,-25.582107543945312,0.0,0,6,0.0,51,12789653,30,23.799999237060547,-68.15213775634766,0.28293347358703613,16,0.0,0.20006226003170013,1561097980,,,,0,,5,1.2999999523162842,18.799999237060547,0.0,0.0,0.0,0.0,C,920424400430539,
Raw,1733209516999,9083001833,18,0.0,-1417244725916998144,0.0,10.014025688171387,-25.582107543945312,0.0,0,11,0.0,239,36316922864417,32,23.0,592.1299438476562,0.3086419701576233,16,0.0,0.21824073791503906,1602000000,,,,0,,3,1.2999999523162842,18.0,0.0,0.0,0.0,0.0,C,920424400430539,
Raw,1733209516999,9083001833,18,0.0,-1417244725916998144,0.0,10.014025688171387,-25.582107543945312,0.0,0,40,0.0,51,15492806,35,22.200000762939453,-190.2621307373047,0.33802053332328796,16,0.0,0.23901431262493134,1561097980,,,,0,,5,1.2999999523162842,17.200000762939453,0.0,0.0,0.0,0.0,C,920424400430539,
Raw,1733209517999,10083001833,18,0.0,-1417244725916998144,0.0,10.014025688171387,-26.36492156982422,0.0,0,7,0.0,15,198335920356794,10,41.099998474121094,-117.42765808105469,0.07673361152410507,25,-35554.0768909511,0.05425833538174629,1575420030,,,,0,,1,1.2999999523162842,36.099998474121094,0.0,0.0,0.0,0.0,C,920425393307831,
Raw,1733209517999,10083001833,18,0.0,-1417244725916998144,0.0,10.014025688171387,-26.36492156982422,0.0,0,3,0.0,15,198335929324904,18,31.0,398.62298583984375,0.14792899787425995,16,0.0,0.10460059344768524,1575420030,,,,0,,1,1.2999999523162842,26.0,0.0,0.0,0.0,0.0,C,920425393307831,
Raw,1733209517999,10083001833,18,0.0,-1417244725916998144,0.0,10.014025688171387,-26.36492156982422,0.0,0,4,0.0,15,198335930612268,18,30.600000381469727,-330.4244384765625,0.1525878757238388,16,0.0,0.1078948900103569,1575420030,,,,0,,1,1.2999999523162842,25.600000381469727,0.0,0.0,0.0,0.0,C,920425393307831,
Raw,1733209517999,10083001833,18,0.0,-1417244725916998144,0.0,10.014025688171387,-26.36492156982422,0.0,0,16,0.0,15,198335925489938,23,27.200000762939453,610.1456298828125,0.2029055953025818,16,0.0,0.1434745490550995,1575420030,,,,0,,1,1.2999999523162842,22.200000762939453,0.0,0.0,0.0,0.0,C,920425393307831,
Raw,1733209517999,10083001833,18,0.0,-1417244725916998144,0.0,10.014025688171387,-26.36492156982422,0.0,0,9,0.0,15,198335926148329,23,27.100000381469727,-537.7167358398438,0.20474600791931152,16,0.0,0.1447758972644806,1575420030,,,,0,,1,1.2999999523162842,22.100000381469727,0.0,0.0,0.0,0.0,C,920425393307831,
Raw,1733209517999,10083001833,18,0.0,-1417244725916998144,0.0,10.014025688171387,-26.36492156982422,0.0,0,27,0.0,15,198335927095927,32,23.200000762939453,-71.45381164550781,0.3018958866596222,16,0.0,0.21347057819366455,1575420030,,,,0,,1,1.2999999523162842,18.200000762939453,0.0,0.0,0.0,0.0,C,920425393307831,
Raw,1733209517999,10083001833,18,0.0,-1417244725916998144,0.0,10.014025688171387,-26.36492156982422,0.0,0,22,0.0,51,5902253,10,42.0,-301.20306396484375,0.07304602116346359,19,-31523.440351543744,0.14767058193683624,1561097980,,,,0,,5,1.2999999523162842,37.0,0.0,0.0,0.0,0.0,C,920425393307831,
Raw,1733209517999,10083001833,18,0.0,-1417244725916998144,0.0,10.014025688171387,-26.36492156982422,0.0,0,12,0.0,239,36317932032005,10,42.0,280.0050354003906,0.07304602116346359,16,0.0,0.051650840789079666,1601437440,,,,0,,3,1.2999999523162842,37.0,0.0,0.0,0.0,0.0,C,920425393307831,
Raw,1733209517999,10083001833,18,0.0,-1417244725916998144,0.0,10.014025688171387,-26.36492156982422,0.0,0,45,0.0,51,2597391,10,41.20000076293945,-24.576173782348633,0.07631023973226547,19,-41962.158214188385,0.14997871220111847,1561097980,,,,0,,5,1.2999999523162842,36.20000076293945,0.0,0.0,0.0,0.0,C,920425393307831,
Raw,1733209517999,10083001833,18,0.0,-1417244725916998144,0.0,10.014025688171387,-26.36492156982422,0.0,0,36,0.0,51,3038669,17,32.0,291.59222412109375,0.13717420399188995,16,0.0,0.09699588268995285,1561097980,,,,0,,5,1.2999999523162842,27.0,0.0,0.0,0.0,0.0,C,920425393307831,
Raw,1733209517999,10083001833,18,0.0,-1417244725916998144,0.0,10.014025688171387,-26.36492156982422,0.0,0,19,0.0,51,5361777,17,31.600000381469727,287.2151794433594,0.1413307636976242,16,0.0,0.09993498027324677,1561097980,,,,0,,5,1.2999999523162842,26.600000381469727,0.0,0.0,0.0,0.0,C,920425393307831,
Raw,1733209517999,10083001833,18,0.0,-1417244725916998144,0.0,10.014025688171387,-26.36492156982422,0.0,0,21,0.0,3072,21219492,20,29.100000381469727,167.46583557128906,0.17217335104942322,16,0.0,0.12174377590417862,1575420030,,,,0,,6,1.2999999523162842,24.100000381469727,0.0,0.0,0.0,0.0,C,920425393307831,
Raw,1733209517999,10083001833,18,0.0,-1417244725916998144,0.0,10.014025688171387,-26.36492156982422,0.0,0,9,0.0,51,11811336,20,29.399999618530273,-54.31719970703125,0.1679656058549881,16,0.0,0.11876848340034485,1561097980,,,,0,,5,1.2999999523162842,24.399999618530273,0.0,0.0,0.0,0.0,C,920425393307831,
Raw,1733209517999,10083001833,18,0.0,-1417244725916998144,0.0,10.014025688171387,-26.36492156982422,0.0,0,16,0.0,51,10960204,22,28.0,-90.51558685302734,0.18903592228889465,16,0.0,0.13366730511188507,1561097980,,,,0,,5,1.2999999523162842,23.0,0.0,0.0,0.0,0.0,C,920425393307831,
Raw,1733209517999,10083001833,18,0.0,-1417244725916998144,0.0,10.014025688171387,-26.36492156982422,0.0,0,1,0.0,239,36317935957022,21,28.600000381469727,-171.1499786376953,0.17954610288143158,16,0.0,0.12695704400539398,1602562560,,,,0,,3,1.2999999523162842,23.600000381469727,0.0,0.0,0.0,0.0,C,920425393307831,
Raw,1733209517999,10083001833,18,0.0,-1417244725916998144,0.0,10.014025688171387,-26.36492156982422,0.0,0,39,0.0,51,10758533,23,27.200000762939453,-103.74884033203125,0.2029055953025818,16,0.0,0.1434745490550995,1561097980,,,,0,,5,1.2999999523162842,22.200000762939453,0.0,0.0,0.0,0.0,C,920425393307831,
Raw,1733209517999,10083001833,18,0.0,-1417244725916998144,0.0,10.014025688171387,-26.36492156982422,0.0,0,13,0.0,239,36317928077450,30,23.899999618530273,-194.0066375732422,0.2799473702907562,16,0.0,0.19795078039169312,1600875010,,,,0,,3,1.2999999523162842,18.899999618530273,0.0,0.0,0.0,0.0,C,920425393307831,
Raw,1733209517999,10083001833,18,0.0,-1417244725916998144,0.0,10.014025688171387,-26.36492156982422,0.0,0,2,0.0,239,36317926809963,29,24.299999237060547,-729.9512329101562,0.2684636116027832,16,0.0,0.18983061611652374,1599750020,,,,0,,3,1.2999999523162842,19.299999237060547,0.0,0.0,0.0,0.0,C,920425393307831,
Raw,1733209517999,10083001833,18,0.0,-1417244725916998144,0.0,10.014025688171387,-26.36492156982422,0.0,0,8,0.0,239,36317928959943,27,24.899999618530273,560.2227172851562,0.252518892288208,16,0.0,0.17855611443519592,1605374980,,,,0,,3,1.2999999523162842,19.899999618530273,0.0,0.0,0.0,0.0,C,920425393307831,
Raw,1733209517999,10083001833,18,0.0,-1417244725916998144,0.0,10.014025688171387,-26.36492156982422,0.0,0,6,0.0,51,12789881,30,23.799999237060547,-68.4884262084961,0.28293347358703613,16,0.0,0.20006226003170013,1561097980,,,,0,,5,1.2999999523162842,18.799999237060547,0.0,0.0,0.0,0.0,C,920425393307831,
Raw,1733209517999,10083001833,18,0.0,-1417244725916998144,0.0,10.014025688171387,-26.36492156982422,0.0,0,40,0.0,51,15493410,35,22.200000762939453,-189.91448974609375,0.33802053332328796,16,0.0,0.23901431262493134,1561097980,,,,0,,5,1.2999999523162842,17.200000762939453,0.0,0.0,0.0,0.0,C,920425393307831,
Raw,1733209517999,10083001833,18,0.0,-1417244725916998144,0.0,10.014025688171387,-26.36492156982422,0.0,0,11,0.0,239,36317922862476,31,23.399999618530273,593.5714111328125,0.29536861181259155,16,0.0,0.20885515213012695,1602000000,,,,0,,3,1.2999999523162842,18.399999618530273,0.0,0.0,0.0,0.0,C,920425393307831,
Raw,1733209518999,11083001833,18,0.0,-1417244725916998144,0.0,10.014025688171387,-26.540285110473633,0.0,0,7,0.0,15,198336920357213,10,41.0,-117.8287353515625,0.07716049253940582,25,-35671.767292517696,0.054560184478759766,1575420030,,,,0,,1,1.2999999523162842,36.0,0.0,0.0,0.0,0.0,C,920426359601585,
Raw,1733209518999,11083001833,18,0.0,-1417244725916998144,0.0,10.014025688171387,-26.540285110473633,0.0,0,3,0.0,15,198336929323579,18,30.899999618530273,398.96875,0.1490735113620758,16,0.0,0.1054098829627037,1575420030,,,,0,,1,1.2999999523162842,25.899999618530273,0.0,0.0,0.0,0.0,C,920426359601585,
Raw,1733209518999,11083001833,18,0.0,-1417244725916998144,0.0,10.014025688171387,-26.540285110473633,0.0,0,4,0.0,15,198336930613336,18,30.399999618530273,-331.8884582519531,0.15500031411647797,16,0.0,0.1096007227897644,1575420030,,,,0,,1,1.2999999523162842,25.399999618530273,0.0,0.0,0.0,0.0,C,920426359601585,
Raw,1733209518999,11083001833,18,0.0,-1417244725916998144,0.0,10.014025688171387,-26.540285110473633,0.0,0,16,0.0,15,198336925487884,23,27.399999618530273,608.770263671875,0.19929847121238708,16,0.0,0.14092394709587097,1575420030,,,,0,,1,1.2999999523162842,22.399999618530273,0.0,0.0,0.0,0.0,C,920426359601585,
Raw,1733209518999,11083001833,18,0.0,-1417244725916998144,0.0,10.014025688171387,-26.540285110473633,0.0,0,9,0.0,15,198336926150114,23,27.100000381469727,-538.0671997070312,0.20474600791931152,16,0.0,0.1447758972644806,1575420030,,,,0,,1,1.2999999523162842,22.100000381469727,0.0,0.0,0.0,0.0,C,920426359601585,
Raw,1733209518999,11083001833,18,0.0,-1417244725916998144,0.0,10.014025688171387,-26.540285110473633,0.0,0,27,0.0,15,198336927096147,32,23.200000762939453,-71.36417388916016,0.3018958866596222,16,0.0,0.21347057819366455,1575420030,,,,0,,1,1.2999999523162842,18.200000762939453,0.0,0.0,0.0,0.0,C,920426359601585,
Raw,1733209518999,11083001833,18,0.0,-1417244725916998144,0.0,10.014025688171387,-26.540285110473633,0.0,0,22,0.0,51,5903261,10,42.0,-301.5919494628906,0.07304602116346359,19,-31824.879144841107,0.14767058193683624,1561097980,,,,0,,5,1.2999999523162842,37.0,0.0,0.0,0.0,0.0,C,920426359601585,
Raw,1733209518999,11083001833,18,0.0,-1417244725916998144,0.0,10.014025688171387,-26.540285110473633,0.0,0,45,0.0,51,2597448,10,41.099998474121094,-25.160560607910156,0.07673361152410507,19,-41987.06413965754,0.15027807652950287,1561097980,,,,0,,5,1.2999999523162842,36.099998474121094,0.0,0.0,0.0,0.0,C,920426359601585,
Raw,1733209518999,11083001833,18,0.0,-1417244725916998144,0.0,10.014025688171387,-26.540285110473633,0.0,0,12,0.0,239,36318932031137,10,42.0,279.6763000488281,0.07304602116346359,16,0.0,0.051650840789079666,1601437440,,,,0,,3,1.2999999523162842,37.0,0.0,0.0,0.0,0.0,C,920426359601585,
Raw,1733209518999,11083001833,18,0.0,-1417244725916998144,0.0,10.014025688171387,-26.540285110473633,0.0,0,36,0.0,51,3037708,17,32.0,291.4486083984375,0.13717420399188995,16,0.0,0.09699588268995285,1561097980,,,,0,,5,1.2999999523162842,27.0,0.0,0.0,0.0,0.0,C,920426359601585,
Raw,1733209518999,11083001833,18,0.0,-1417244725916998144,0.0,10.014025688171387,-26.540285110473633,0.0,0,21,0.0,3072,21218949,19,30.100000381469727,167.26626586914062,0.15872763097286224,16,0.0,0.11223630607128143,1575420030,,,,0,,6,1.2999999523162842,25.100000381469727,0.0,0.0,0.0,0.0,C,920426359601585,
Raw,1733209518999,11083001833,18,0.0,-1417244725916998144,0.0,10.014025688171387,-26.540285110473633,0.0,0,19,0.0,51,5360831,17,31.5,285.9450378417969,0.14239943027496338,16,0.0,0.10069064050912857,1561097980,,,,0,,5,1.2999999523162842,26.5,0.0,0.0,0.0,0.0,C,920426359601585,
Raw,1733209518999,11083001833,18,0.0,-1417244725916998144,0.0,10.014025688171387,-26.540285110473633,0.0,0,16,0.0,51,10960526,21,28.200000762939453,-90.82955169677734,0.18579070270061493,16,0.0,0.1313726007938385,1561097980,,,,0,,5,1.2999999523162842,23.200000762939453,0.0,0.0,0.0,0.0,C,920426359601585,
Raw,1733209518999,11083001833,18,0.0,-1417244725916998144,0.0,10.014025688171387,-26.540285110473633,0.0,0,9,0.0,51,11811469,20,29.299999237060547,-54.269535064697266,0.16935087740421295,16,0.0,0.11974800378084183,1561097980,,,,0,,5,1.2999999523162842,24.299999237060547,0.0,0.0,0.0,0.0,C,920426359601585,
Raw,1733209518999,11083001833,18,0.0,-1417244725916998144,0.0,10.014025688171387,-26.540285110473633,0.0,0,1,0.0,239,36318935957624,21,28.600000381469727,-172.71966552734375,0.17954610288143158,16,0.0,0.12695704400539398,1602562560,,,,0,,3,1.2999999523162842,23.600000381469727,0.0,0.0,0.0,0.0,C,920426359601585,
Raw,1733209518999,11083001833,18,0.0,-1417244725916998144,0.0,10.014025688171387,-26.540285110473633,0.0,0,39,0.0,51,10758895,23,27.200000762939453,-103.48555755615234,0.2029055953025818,16,0.0,0.1434745490550995,1561097980,,,,0,,5,1.2999999523162842,22.200000762939453,0.0,0.0,0.0,0.0,C,920426359601585,
Raw,1733209518999,11083001833,18,0.0,-1417244725916998144,0.0,10.014025688171387,-26.540285110473633,0.0,0,2,0.0,239,36318926812633,28,24.5,-730.1666259765625,0.26298487186431885,16,0.0,0.18595659732818604,1599750020,,,,0,,3,1.2999999523162842,19.5,0.0,0.0,0.0,0.0,C,920426359601585,
Raw,1733209518999,11083001833,18,0.0,-1417244725916998144,0.0,10.014025688171387,-26.540285110473633,0.0,0,13,0.0,239,36318928077978,29,24.399999618530273,-193.96046447753906,0.2657030522823334,16,0.0,0.18787862360477448,1600875010,,,,0,,3,1.2999999523162842,19.399999618530273,0.0,0.0,0.0,0.0,C,920426359601585,
Raw,1733209518999,11083001833,18,0.0,-1417244725916998144,0.0,10.014025688171387,-26.540285110473633,0.0,0,8,0.0,239,36318928958163,27,24.899999618530273,561.7332763671875,0.252518892288208,16,0.0,0.17855611443519592,1605374980,,,,0,,3,1.2999999523162842,19.899999618530273,0.0,0.0,0.0,0.0,C,920426359601585,
Raw,1733209518999,11083001833,18,0.0,-1417244725916998144,0.0,10.014025688171387,-26.540285110473633,0.0,0,6,0.0,51,12790090,30,23.799999237060547,-68.93101501464844,0.28293347358703613,16,0.0,0.20006226003170013,1561097980,,,,0,,5,1.2999999523162842,18.799999237060547,0.0,0.0,0.0,0.0,C,920426359601585,
Raw,1733209518999,11083001833,18,0.0,-1417244725916998144,0.0,10.014025688171387,-26.540285110473633,0.0,0,40,0.0,51,15494043,32,23.100000381469727,-190.74752807617188,0.3052409589290619,16,0.0,0.21583588421344757,1561097980,,,,0,,5,1.2999999523162842,18.100000381469727,0.0,0.0,0.0,0.0,C,920426359601585,
Raw,1733209518999,11083001833,18,0.0,-1417244725916998144,0.0,10.014025688171387,-26.540285110473633,0.0,0,11,0.0,239,36318922860377,31,23.399999618530273,592.7882080078125,0.29536861181259155,16,0.0,0.20885515213012695,1602000000,,,,0,,3,1.2999999523162842,18.399999618530273,0.0,0.0,0.0,0.0,C,920426359601585,
Raw,1733209518999,11083001833,18,0.0,-1417244725916998144,0.0,10.014025688171387,-26.540285110473633,0.0,0,7,0.0,47,198322877307696,33,22.600000381469727,-142.64476013183594,0.32283055782318115,16,0.0,0.22827348113059998,1561097980,,,,0,,5,1.2999999523162842,17.600000381469727,0.0,0.0,0.0,0.0,C,920426359601585,
Raw,1733209519999,12083001833,18,0.0,-1417244725916998144,0.0,10.014025688171387,-28.20897674560547,0.0,0,7,0.0,15,198337920357587,10,41.0,-118.1421127319336,0.07716049253940582,25,-35789.75883265377,0.054560184478759766,1575420030,,,,0,,1,1.2999999523162842,36.0,0.0,0.0,0.0,0.0,C,920427275046050,
Raw,1733209519999,12083001833,18,0.0,-1417244725916998144,0.0,10.014025688171387,-28.20897674560547,0.0,0,3,0.0,15,198337929322259,18,30.899999618530273,398.4248352050781,0.1490735113620758,19,-36161.45406661139,0.20055672526359558,1575420030,,,,0,,1,1.2999999523162842,25.899999618530273,0.0,0.0,0.0,0.0,C,920427275046050,
Raw,1733209519999,12083001833,18,0.0,-1417244725916998144,0.0,10.014025688171387,-28.20897674560547,0.0,0,4,0.0,15,198337930614435,19,30.200000762939453,-333.0433044433594,0.15747039020061493,16,0.0,0.11134731024503708,1575420030,,,,0,,1,1.2999999523162842,25.200000762939453,0.0,0.0,0.0,0.0,C,920427275046050,
Raw,1733209519999,12083001833,18,0.0,-1417244725916998144,0.0,10.014025688171387,-28.20897674560547,0.0,0,16,0.0,15,198337925485875,23,27.399999618530273,609.123046875,0.19929847121238708,16,0.0,0.14092394709587097,1575420030,,,,0,,1,1.2999999523162842,22.399999618530273,0.0,0.0,0.0,0.0,C,920427275046050,
Raw,1733209519999,12083001833,18,0.0,-1417244725916998144,0.0,10.014025688171387,-28.20897674560547,0.0,0,9,0.0,15,198337926151915,23,27.100000381469727,-539.0177001953125,0.20474600791931152,16,0.0,0.1447758972644806,1575420030,,,,0,,1,1.2999999523162842,22.100000381469727,0.0,0.0,0.0,0.0,C,920427275046050,
Raw,1733209519999,12083001833,18,0.0,-1417244725916998144,0.0,10.014025688171387,-28.20897674560547,0.0,0,27,0.0,15,198337927096402,28,24.700000762939453,-71.26898956298828,0.25767216086387634,16,0.0,0.18219998478889465,1575420030,,,,0,,1,1.2999999523162842,19.700000762939453,0.0,0.0,0.0,0.0,C,920427275046050,
Raw,1733209519999,12083001833,18,0.0,-1417244725916998144,0.0,10.014025688171387,-28.20897674560547,0.0,0,22,0.0,51,5904266,10,42.0,-301.88433837890625,0.07304602116346359,19,-32126.572135224415,0.14767058193683624,1561097980,,,,0,,5,1.2999999523162842,37.0,0.0,0.0,0.0,0.0,C,920427275046050,
Raw,1733209519999,12083001833,18,0.0,-1417244725916998144,0.0,10.014025688171387,-28.20897674560547,0.0,0,45,0.0,51,2597552,10,41.0,-25.404634475708008,0.07716049253940582,19,-42012.28757096111,0.15057992935180664,1561097980,,,,0,,5,1.2999999523162842,36.0,0.0,0.0,0.0,0.0,C,920427275046050,
Raw,1733209519999,12083001833,18,0.0,-1417244725916998144,0.0,10.014025688171387,-28.20897674560547,0.0,0,12,0.0,239,36319932030193,10,41.900001525878906,279.427734375,0.07344246655702591,16,0.0,0.051931168884038925,1601437440,,,,0,,3,1.2999999523162842,36.900001525878906,0.0,0.0,0.0,0.0,C,920427275046050,
Raw,1733209519999,12083001833,18,0.0,-1417244725916998144,0.0,10.014025688171387,-28.20897674560547,0.0,0,36,0.0,51,3036734,16,32.20000076293945,291.5559997558594,0.13516435027122498,16,0.0,0.09557471424341202,1561097980,,,,0,,5,1.2999999523162842,27.200000762939453,0.0,0.0,0.0,0.0,C,920427275046050,
Raw,1733209519999,12083001833,18,0.0,-1417244725916998144,0.0,10.014025688171387,-28.20897674560547,0.0,0,21,0.0,3072,21218408,18,31.0,167.5207977294922,0.14792899787425995,16,0.0,0.10460059344768524,1575420030,,,,0,,6,1.2999999523162842,26.0,0.0,0.0,0.0,0.0,C,920427275046050,
Raw,1733209519999,12083001833,18,0.0,-1417244725916998144,0.0,10.014025688171387,-28.20897674560547,0.0,0,19,0.0,51,5359868,17,31.5,285.67388916015625,0.14239943027496338,16,0.0,0.10069064050912857,1561097980,,,,0,,5,1.2999999523162842,26.5,0.0,0.0,0.0,0.0,C,920427275046050,
Raw,1733209519999,12083001833,18,0.0,-1417244725916998144,0.0,10.014025688171387,-28.20897674560547,0.0,0,16,0.0,51,10960869,21,28.299999237060547,-91.52435302734375,0.18419939279556274,16,0.0,0.13024738430976868,1561097980,,,,0,,5,1.2999999523162842,23.299999237060547,0.0,0.0,0.0,0.0,C,920427275046050,
Raw,1733209519999,12083001833,18,0.0,-1417244725916998144,0.0,10.014025688171387,-28.20897674560547,0.0,0,1,0.0,239,36319935958138,21,28.5,-170.9747772216797,0.18107740581035614,16,0.0,0.12803983688354492,1602562560,,,,0,,3,1.2999999523162842,23.5,0.0,0.0,0.0,0.0,C,920427275046050,
Raw,1733209519999,12083001833,18,0.0,-1417244725916998144,0.0,10.014025688171387,-28.20897674560547,0.0,0,39,0.0,51,10759237,23,27.200000762939453,-103.49424743652344,0.2029055953025818,16,0.0,0.1434745490550995,1561097980,,,,0,,5,1.2999999523162842,22.200000762939453,0.0,0.0,0.0,0.0,C,920427275046050,
Raw,1733209519999,12083001833,18,0.0,-1417244725916998144,0.0,10.014025688171387,-28.20897674560547,0.0,0,2,0.0,239,36319926814881,28,24.5,-731.1800537109375,0.26298487186431885,16,0.0,0.18595659732818604,1599750020,,,,0,,3,1.2999999523162842,19.5,0.0,0.0,0.0,0.0,C,920427275046050,
Raw,1733209519999,12083001833,18,0.0,-1417244725916998144,0.0,10.014025688171387,-28.20897674560547,0.0,0,8,0.0,239,36319928956198,28,24.799999237060547,562.1435546875,0.25507602095603943,16,0.0,0.18036425113677979,1605374980,,,,0,,3,1.2999999523162842,19.799999237060547,0.0,0.0,0.0,0.0,C,920427275046050,
Raw,1733209519999,12083001833,18,0.0,-1417244725916998144,0.0,10.014025688171387,-28.20897674560547,0.0,0,13,0.0,239,36319928078776,28,24.5,-194.87303161621094,0.26298487186431885,16,0.0,0.18595659732818604,1600875010,,,,0,,3,1.2999999523162842,19.5,0.0,0.0,0.0,0.0,C,920427275046050,
Raw,1733209519999,12083001833,18,0.0,-1417244725916998144,0.0,10.014025688171387,-28.20897674560547,0.0,0,6,0.0,51,12790347,30,23.799999237060547,-68.9759292602539,0.28293347358703613,16,0.0,0.20006226003170013,1561097980,,,,0,,5,1.2999999523162842,18.799999237060547,0.0,0.0,0.0,0.0,C,920427275046050,
Raw,1733209519999,12083001833,18,0.0,-1417244725916998144,0.0,10.014025688171387,-28.20897674560547,0.0,0,40,0.0,51,15494691,31,23.399999618530273,-190.78073120117188,0.29536861181259155,16,0.0,0.20885515213012695,1561097980,,,,0,,5,1.2999999523162842,18.399999618530273,0.0,0.0,0.0,0.0,C,920427275046050,
Raw,1733209519999,12083001833,18,0.0,-1417244725916998144,0.0,10.014025688171387,-28.20897674560547,0.0,0,11,0.0,239,36319922858381,31,23.299999237060547,592.281005859375,0.2986055314540863,16,0.0,0.21114397048950195,1602000000,,,,0,,3,1.2999999523162842,18.299999237060547,0.0,0.0,0.0,0.0,C,920427275046050,
Raw,1733209519999,12083001833,18,0.0,-1417244725916998144,0.0,10.014025688171387,-28.20897674560547,0.0,0,7,0.0,47,198323877308214,33,22.600000381469727,-143.22312927246094,0.32283055782318115,16,0.0,0.22827348113059998,1561097980,,,,0,,5,1.2999999523162842,17.600000381469727,0.0,0.0,0.0,0.0,C,920427275046050,
Raw,1733209519999,12083001833,18,0.0,-1417244725916998144,0.0,10.014025688171387,-28.20897674560547,0.0,0,9,0.0,50,11811682,20,29.200000762939453,-54.313541412353516,0.1707533597946167,16,0.0,0.12073969841003418,1561097980,,,,0,,5,1.2999999523162842,24.200000762939453,0.0,0.0,0.0,0.0,C,920427275046050,
Raw,1733209520999,13083001772,18,0.0,-1417244725916998144,0.0,10.014025688171387,-29.310853958129883,0.0,0,7,0.0,15,198338920357920,10,40.900001525878906,-118.53578186035156,0.0775909498333931,25,-35908.113192273646,0.054864559322595596,1575420030,,,,0,,1,1.2999999523162842,35.900001525878906,0.0,0.0,0.0,0.0,C,920428116926801,
Raw,1733209520999,13083001772,18,0.0,-1417244725916998144,0.0,10.014025688171387,-29.310853958129883,0.0,0,3,0.0,15,198338929320856,15,34.0,398.0155029296875,0.11890606582164764,17,-35763.24949155544,0.17922531068325043,1575420030,,,,0,,1,1.2999999523162842,29.0,0.0,0.0,0.0,0.0,C,920428116926801,
Raw,1733209520999,13083001772,18,0.0,-1417244725916998144,0.0,10.014025688171387,-29.310853958129883,0.0,0,4,0.0,15,198338930615516,19,30.0,-331.4302673339844,0.1599999964237213,16,0.0,0.11313600093126297,1575420030,,,,0,,1,1.2999999523162842,25.0,0.0,0.0,0.0,0.0,C,920428116926801,
Raw,1733209520999,13083001772,18,0.0,-1417244725916998144,0.0,10.014025688171387,-29.310853958129883,0.0,0,16,0.0,15,198338925483754,23,27.399999618530273,609.8079223632812,0.19929847121238708,16,0.0,0.14092394709587097,1575420030,,,,0,,1,1.2999999523162842,22.399999618530273,0.0,0.0,0.0,0.0,C,920428116926801,
Raw,1733209520999,13083001772,18,0.0,-1417244725916998144,0.0,10.014025688171387,-29.310853958129883,0.0,0,9,0.0,15,198338926153639,23,27.0,-539.359375,0.20661157369613647,16,0.0,0.14609503746032715,1575420030,,,,0,,1,1.2999999523162842,22.0,0.0,0.0,0.0,0.0,C,920428116926801,
Raw,1733209520999,13083001772,18,0.0,-1417244725916998144,0.0,10.014025688171387,-29.310853958129883,0.0,0,27,0.0,15,198338927096616,27,25.100000381469727,-72.11270904541016,0.2475186139345169,16,0.0,0.17502041161060333,1575420030,,,,0,,1,1.2999999523162842,20.100000381469727,0.0,0.0,0.0,0.0,C,920428116926801,
Raw,1733209520999,13083001772,18,0.0,-1417244725916998144,0.0,10.014025688171387,-29.310853958129883,0.0,0,22,0.0,51,5905203,10,41.900001525878906,-302.057861328125,0.07344246655702591,19,-32428.47234943739,0.1479509174823761,1561097980,,,,0,,5,1.2999999523162842,36.900001525878906,0.0,0.0,0.0,0.0,C,920428116926801,
Raw,1733209520999,13083001772,18,0.0,-1417244725916998144,0.0,10.014025688171387,-29.310853958129883,0.0,0,45,0.0,51,2597580,10,40.79999923706055,-25.788951873779297,0.07802503556013107,19,-42037.86235279575,0.15119124948978424,1561097980,,,,0,,5,1.2999999523162842,35.79999923706055,0.0,0.0,0.0,0.0,C,920428116926801,
Raw,1733209520999,13083001772,18,0.0,-1417244725916998144,0.0,10.014025688171387,-29.310853958129883,0.0,0,12,0.0,239,36320932029148,10,41.29999923706055,279.0354919433594,0.07589038461446762,16,0.0,0.05366209149360657,1601437440,,,,0,,3,1.2999999523162842,36.29999923706055,0.0,0.0,0.0,0.0,C,920428116926801,
Raw,1733209520999,13083001772,18,0.0,-1417244725916998144,0.0,10.014025688171387,-29.310853958129883,0.0,0,36,0.0,51,3035703,16,32.20000076293945,290.1554870605469,0.13516435027122498,16,0.0,0.09557471424341202,1561097980,,,,0,,5,1.2999999523162842,27.200000762939453,0.0,0.0,0.0,0.0,C,920428116926801,
Raw,1733209520999,13083001772,18,0.0,-1417244725916998144,0.0,10.014025688171387,-29.310853958129883,0.0,0,21,0.0,3072,21217766,17,31.299999237060547,166.5907440185547,0.14457345008850098,16,0.0,0.10222788900136948,1575420030,,,,0,,6,1.2999999523162842,26.299999237060547,0.0,0.0,0.0,0.0,C,920428116926801,
Raw,1733209520999,13083001772,18,0.0,-1417244725916998144,0.0,10.014025688171387,-29.310853958129883,0.0,0,19,0.0,51,5358807,17,31.399999618530273,286.20721435546875,0.14348027110099792,16,0.0,0.10145489871501923,1561097980,,,,0,,5,1.2999999523162842,26.399999618530273,0.0,0.0,0.0,0.0,C,920428116926801,
Raw,1733209520999,13083001772,18,0.0,-1417244725916998144,0.0,10.014025688171387,-29.310853958129883,0.0,0,16,0.0,51,10961082,21,28.299999237060547,-91.43379211425781,0.18419939279556274,16,0.0,0.13024738430976868,1561097980,,,,0,,5,1.2999999523162842,23.299999237060547,0.0,0.0,0.0,0.0,C,920428116926801,
Raw,1733209520999,13083001772,18,0.0,-1417244725916998144,0.0,10.014025688171387,-29.310853958129883,0.0,0,1,0.0,239,36320935958639,21,28.399999618530273,-171.68374633789062,0.18262839317321777,16,0.0,0.12913653254508972,1602562560,,,,0,,3,1.2999999523162842,23.399999618530273,0.0,0.0,0.0,0.0,C,920428116926801,
Raw,1733209520999,13083001772,18,0.0,-1417244725916998144,0.0,10.014025688171387,-29.310853958129883,0.0,0,39,0.0,51,10759532,23,27.100000381469727,-104.54830169677734,0.20474600791931152,16,0.0,0.1447758972644806,1561097980,,,,0,,5,1.2999999523162842,22.100000381469727,0.0,0.0,0.0,0.0,C,920428116926801,
Raw,1733209520999,13083001772,18,0.0,-1417244725916998144,0.0,10.014025688171387,-29.310853958129883,0.0,0,2,0.0,239,36320926817327,28,24.5,-731.4874267578125,0.26298487186431885,16,0.0,0.18595659732818604,1599750020,,,,0,,3,1.2999999523162842,19.5,0.0,0.0,0.0,0.0,C,920428116926801,
Raw,1733209520999,13083001772,18,0.0,-1417244725916998144,0.0,10.014025688171387,-29.310853958129883,0.0,0,8,0.0,239,36320928954280,28,24.799999237060547,562.272705078125,0.25507602095603943,16,0.0,0.18036425113677979,1605374980,,,,0,,3,1.2999999523162842,19.799999237060547,0.0,0.0,0.0,0.0,C,920428116926801,
Raw,1733209520999,13083001772,18,0.0,-1417244725916998144,0.0,10.014025688171387,-29.310853958129883,0.0,0,13,0.0,239,36320928079304,28,24.5,-194.5112762451172,0.26298487186431885,16,0.0,0.18595659732818604,1600875010,,,,0,,3,1.2999999523162842,19.5,0.0,0.0,0.0,0.0,C,920428116926801,
Raw,1733209520999,13083001772,18,0.0,-1417244725916998144,0.0,10.014025688171387,-29.310853958129883,0.0,0,40,0.0,51,15495194,31,23.5,-190.97714233398438,0.29218408465385437,16,0.0,0.20660336315631866,1561097980,,,,0,,5,1.2999999523162842,18.5,0.0,0.0,0.0,0.0,C,920428116926801,
Raw,1733209520999,13083001772,18,0.0,-1417244725916998144,0.0,10.014025688171387,-29.310853958129883,0.0,0,6,0.0,51,12790478,30,23.799999237060547,-69.18853759765625,0.28293347358703613,16,0.0,0.20006226003170013,1561097980,,,,0,,5,1.2999999523162842,18.799999237060547,0.0,0.0,0.0,0.0,C,920428116926801,
Raw,1733209520999,13083001772,18,0.0,-1417244725916998144,0.0,10.014025688171387,-29.310853958129883,0.0,0,11,0.0,239,36320922856347,32,23.200000762939453,592.1416625976562,0.3018958866596222,16,0.0,0.21347057819366455,1602000000,,,,0,,3,1.2999999523162842,18.200000762939453,0.0,0.0,0.0,0.0,C,920428116926801,
Raw,1733209520999,13083001772,18,0.0,-1417244725916998144,0.0,10.014025688171387,-29.310853958129883,0.0,0,7,0.0,47,198324877308498,34,22.5,-144.87771606445312,0.3265306055545807,16,0.0,0.23088979721069336,1561097980,,,,0,,5,1.2999999523162842,17.5,0.0,0.0,0.0,0.0,C,920428116926801,
Raw,1733209520999,13083001772,18,0.0,-1417244725916998144,0.0,10.014025688171387,-29.310853958129883,0.0,0,9,0.0,51,11811786,21,28.700000762939453,-54.61808395385742,0.17803412675857544,16,0.0,0.125887930393219,1561097980,,,,0,,5,1.2999999523162842,23.700000762939453,0.0,0.0,0.0,0.0,C,920428116926801,
Raw,1733209521999,14083001772,18,0.0,-1417244725916998144,0.0,10.014025688171387,-29.62237548828125,0.0,0,7,0.0,15,198339920358304,10,40.79999923706055,-118.50345611572266,0.07802503556013107,25,-36026.566953720925,0.05517150089144707,1575420030,,,,0,,1,1.2999999523162842,35.79999923706055,0.0,0.0,0.0,0.0,C,920429115353634,
Raw,1733209521999,14083001772,18,0.0,-1417244725916998144,0.0,10.014025688171387,-29.62237548828125,0.0,0,3,0.0,15,198339929319540,13,37.0,397.9968566894531,0.09765625,17,-35365.183397157234,0.164199560880661,1575420030,,,,0,,1,1.2999999523162842,32.0,0.0,0.0,0.0,0.0,C,920429115353634,
Raw,1733209521999,14083001772,18,0.0,-1417244725916998144,0.0,10.014025688171387,-29.62237548828125,0.0,0,4,0.0,15,198339930616626,19,29.899999618530273,-331.3819580078125,0.16128772497177124,16,0.0,0.11404655128717422,1575420030,,,,0,,1,1.2999999523162842,24.899999618530273,0.0,0.0,0.0,0.0,C,920429115353634,
Raw,1733209521999,14083001772,18,0.0,-1417244725916998144,0.0,10.014025688171387,-29.62237548828125,0.0,0,16,0.0,15,198339925481730,23,27.399999618530273,610.5098876953125,0.19929847121238708,16,0.0,0.14092394709587097,1575420030,,,,0,,1,1.2999999523162842,22.399999618530273,0.0,0.0,0.0,0.0,C,920429115353634,
Raw,1733209521999,14083001772,18,0.0,-1417244725916998144,0.0,10.014025688171387,-29.62237548828125,0.0,0,9,0.0,15,198339926155420,23,27.0,-538.699951171875,0.20661157369613647,16,0.0,0.14609503746032715,1575420030,,,,0,,1,1.2999999523162842,22.0,0.0,0.0,0.0,0.0,C,920429115353634,
Raw,1733209521999,14083001772,18,0.0,-1417244725916998144,0.0,10.014025688171387,-29.62237548828125,0.0,0,27,0.0,15,198339927096927,26,25.399999618530273,-71.8267593383789,0.24029220640659332,16,0.0,0.16991062462329865,1575420030,,,,0,,1,1.2999999523162842,20.399999618530273,0.0,0.0,0.0,0.0,C,920429115353634,
Raw,1733209521999,14083001772,18,0.0,-1417244725916998144,0.0,10.014025688171387,-29.62237548828125,0.0,0,22,0.0,51,5906226,10,41.900001525878906,-302.0401306152344,0.07344246655702591,19,-32730.435667999,0.1479509174823761,1561097980,,,,0,,5,1.2999999523162842,36.900001525878906,0.0,0.0,0.0,0.0,C,920429115353634,
Raw,1733209521999,14083001772,18,0.0,-1417244725916998144,0.0,10.014025688171387,-29.62237548828125,0.0,0,45,0.0,51,2597675,11,40.29999923706055,-25.42650032043457,0.08025103062391281,19,-42063.41967967854,0.15276524424552917,1561097980,,,,0,,5,1.2999999523162842,35.29999923706055,0.0,0.0,0.0,0.0,C,920429115353634,
