# 
# Header Description:
# 
# Version: v3.1.0.2 Platform: 13 Manufacturer: OPPO Model: CPH2371 GNSS Hardware Model Name: MTK_MNLD_default,MNL_VER_default
# 
# Raw,utcTimeMillis,TimeNanos,LeapSecond,TimeUncertaintyNanos,FullBiasNanos,BiasNanos,BiasUncertaintyNanos,DriftNanosPerSecond,DriftUncertaintyNanosPerSecond,HardwareClockDiscontinuityCount,Svid,TimeOffsetNanos,State,ReceivedSvTimeNanos,ReceivedSvTimeUncertaintyNanos,Cn0DbHz,PseudorangeRateMetersPerSecond,PseudorangeRateUncertaintyMetersPerSecond,AccumulatedDeltaRangeState,AccumulatedDeltaRangeMeters,AccumulatedDeltaRangeUncertaintyMeters,CarrierFrequencyHz,CarrierCycles,CarrierPhase,CarrierPhaseUncertainty,MultipathIndicator,SnrInDb,ConstellationType,AgcDb,BasebandCn0DbHz,FullInterSignalBiasNanos,FullInterSignalBiasUncertaintyNanos,SatelliteInterSignalBiasNanos,SatelliteInterSignalBiasUncertaintyNanos,CodeType,ChipsetElapsedRealtimeNanos,IsFullTracking
# 
# UncalAccel,utcTimeMillis,elapsedRealtimeNanos,UncalAccelXMps2,UncalAccelYMps2,UncalAccelZMps2,BiasXMps2,BiasYMps2,BiasZMps2
# 
# Accel,utcTimeMillis,elapsedRealtimeNanos,AccelXMps2,AccelYMps2,AccelZMps2
# 
# UncalGyro,utcTimeMillis,elapsedRealtimeNanos,UncalGyroXRadPerSec,UncalGyroYRadPerSec,UncalGyroZRadPerSec,DriftXRadPerSec,DriftYRadPerSec,DriftZRadPerSec
# 
# Gyro,utcTimeMillis,elapsedRealtimeNanos,GyroXRadPerSec,GyroYRadPerSec,GyroZRadPerSec
# 
# UncalMag,utcTimeMillis,elapsedRealtimeNanos,UncalMagXMicroT,UncalMagYMicroT,UncalMagZMicroT,BiasXMicroT,BiasYMicroT,BiasZMicroT
# 
# Mag,utcTimeMillis,elapsedRealtimeNanos,MagXMicroT,MagYMicroT,MagZMicroT
# 
# Pressure,utcTimeMillis,elapsedRealtimeNanos,PressureHpa
# 
# OrientationDeg,utcTimeMillis,elapsedRealtimeNanos,yawDeg,rollDeg,pitchDeg
# 
# Fix,Provider,LatitudeDegrees,LongitudeDegrees,AltitudeMeters,SpeedMps,AccuracyMeters,BearingDegrees,UnixTimeMillis,SpeedAccuracyMps,BearingAccuracyDegrees,elapsedRealtimeNanos,VerticalAccuracyMeters,MockLocation,NumberOfUsedSignals,VerticalSpeedAccuracyMps,SolutionType
# 
# Nav,Svid,Type,Status,MessageId,Sub-messageId,Data(Bytes)
# 
# Status,UnixTimeMillis,SignalCount,SignalIndex,ConstellationType,Svid,CarrierFrequencyHz,Cn0DbHz,AzimuthDegrees,ElevationDegrees,UsedInFix,HasAlmanacData,HasEphemerisData,BasebandCn0DbHz
# 
# Agc,utcTimeMillis,TimeNanos,LeapSecond,TimeUncertaintyNanos,FullBiasNanos,BiasNanos,BiasUncertaintyNanos,DriftNanosPerSecond,DriftUncertaintyNanosPerSecond,HardwareClockDiscontinuityCount,AgcDb,CarrierFrequencyHz,ConstellationType
# 
Status,,70,0,1,31,1575420030,23.30,282.0,77.0,1,0,0,23.3
Status,,70,1,2,128,1575420030,32.00,156.0,73.0,0,0,0,32.0
Status,,70,2,1,28,1575420030,23.60,19.0,53.0,1,0,0,23.6
Status,,70,3,1,10,1575420030,26.10,99.0,45.0,1,0,0,26.1
Status,,70,4,1,26,1575420030,26.80,151.0,43.0,1,0,0,26.8
Status,,70,5,1,21,1575420030,28.80,284.0,40.0,1,0,0,28.8
Status,,70,6,1,2,1575420030,25.50,300.0,28.0,1,0,0,25.5
Status,,70,7,1,32,1575420030,25.10,38.0,25.0,1,0,0,25.1
Status,,70,8,1,16,1575420030,0.00,181.0,19.0,0,0,0,0.0
Status,,70,9,2,132,1575420030,0.00,348.0,16.0,0,0,0,0.0
Status,,70,10,2,122,1575420030,0.00,92.0,15.0,0,0,0,0.0
Status,,70,11,1,23,1575420030,14.90,125.0,13.0,1,0,0,14.9
Status,,70,12,1,27,1575420030,0.00,201.0,10.0,0,0,0,0.0
Status,,70,13,1,25,1575420030,0.00,54.0,9.0,0,0,0,0.0
Status,,70,14,1,8,1575420030,0.00,231.0,5.0,0,0,0,0.0
Status,,70,15,1,4,1575420030,0.00,273.0,2.0,0,0,0,0.0
Status,,70,16,3,14,1602000000,28.80,128.0,62.0,1,0,0,28.8
Status,,70,17,3,18,1602000000,30.70,234.0,34.0,1,0,0,30.7
Status,,70,18,3,19,1602000000,0.00,286.0,30.0,0,0,0,0.0
Status,,70,19,3,13,1602000000,0.00,42.0,29.0,0,0,0,0.0
Status,,70,20,3,3,1602000000,24.60,27.0,27.0,1,0,0,24.6
Status,,70,21,3,15,1602000000,0.00,186.0,24.0,0,0,0,0.0
Status,,70,22,3,4,1602000000,12.80,335.0,18.0,1,0,0,12.8
Status,,70,23,3,17,1602000000,0.00,187.0,13.0,0,0,0,0.0
Status,,70,24,3,2,1602000000,0.00,76.0,9.0,0,0,0,0.0
Status,,70,25,6,11,1575420030,13.10,247.0,62.0,1,0,0,13.1
Status,,70,26,6,10,1575420030,26.70,193.0,52.0,1,0,0,26.7
Status,,70,27,6,6,1575420030,17.30,353.0,40.0,1,0,0,17.3
Status,,70,28,6,31,1575420030,23.30,130.0,39.0,1,0,0,23.3
Status,,70,29,6,9,1575420030,0.00,322.0,36.0,0,0,0,0.0
Status,,70,30,6,12,1575420030,11.50,171.0,33.0,1,0,0,11.5
Status,,70,31,6,4,1575420030,23.40,24.0,32.0,1,0,0,23.4
Status,,70,32,6,36,1575420030,0.00,310.0,29.0,0,0,0,0.0
Status,,70,33,6,24,1575420030,9.30,184.0,18.0,0,0,0,9.3
Status,,70,34,6,5,1575420030,0.00,276.0,8.0,0,0,0,0.0
Status,,70,35,6,18,1575420030,0.00,132.0,1.0,0,0,0,0.0
Status,,70,36,5,2,1561097980,23.90,148.0,75.0,1,0,0,23.9
Status,,70,37,5,60,1561097980,22.70,169.0,75.0,1,0,0,22.7
Status,,70,38,5,56,1561097980,0.00,95.0,74.0,0,0,0,0.0
Status,,70,39,5,9,1561097980,0.00,7.0,66.0,0,0,0,0.0
Status,,70,40,5,13,1561097980,25.60,95.0,65.0,1,0,0,25.6
Status,,70,41,5,5,1561097980,0.00,241.0,65.0,0,0,0,0.0
Status,,70,42,5,23,1561097980,33.90,179.0,62.0,1,0,0,33.9
Status,,70,43,5,6,1561097980,0.00,18.0,54.0,0,0,0,0.0
Status,,70,44,5,8,1561097980,25.60,112.0,52.0,1,0,0,25.6
Status,,70,45,5,25,1561097980,22.70,56.0,52.0,1,0,0,22.7
Status,,70,46,5,3,1561097980,0.00,108.0,49.0,0,0,0,0.0
Status,,70,47,5,61,1561097980,0.00,109.0,48.0,0,0,0,0.0
Status,,70,48,5,16,1561097980,21.90,23.0,46.0,1,0,0,21.9
Status,,70,49,5,38,1561097980,30.50,124.0,40.0,1,0,0,30.5
Status,,70,50,5,41,1561097980,20.60,6.0,40.0,1,0,0,20.6
Status,,70,51,5,39,1561097980,22.70,25.0,37.0,1,0,0,22.7
Status,,70,52,5,33,1561097980,27.40,69.0,31.0,1,0,0,27.4
Status,,70,53,5,28,1561097980,28.50,209.0,27.0,1,0,0,28.5
Status,,70,54,5,27,1561097980,20.80,259.0,25.0,1,0,0,20.8
Status,,70,55,5,10,1561097980,0.00,155.0,20.0,0,0,0,0.0
Status,,70,56,5,7,1561097980,0.00,142.0,18.0,0,0,0,0.0
Status,,70,57,5,59,1561097980,0.00,95.0,18.0,0,0,0,0.0
Status,,70,58,5,14,1561097980,0.00,90.0,14.0,0,0,0,0.0
Status,,70,59,5,1,1561097980,0.00,96.0,14.0,0,0,0,0.0
Status,,70,60,5,37,1561097980,20.40,207.0,14.0,1,0,0,20.4
Status,,70,61,5,57,1561097980,0.00,70.0,13.0,0,0,0,0.0
Status,,70,62,5,32,1561097980,24.40,315.0,11.0,1,0,0,24.4
Status,,70,63,5,40,1561097980,0.00,135.0,6.0,0,0,0,0.0
Status,,70,64,5,24,1561097980,0.00,38.0,4.0,0,0,0,0.0
Status,,70,65,5,30,1561097980,0.00,300.0,1.0,0,0,0,0.0
Status,,70,66,4,196,1575420030,0.00,76.0,41.0,0,0,0,0.0
Status,,70,67,4,199,1575420030,0.00,54.0,19.0,0,0,0,0.0
Status,,70,68,4,194,1575420030,0.00,83.0,15.0,0,0,0,0.0
Status,,70,69,4,195,1575420030,0.00,136.0,1.0,0,0,0,0.0
Raw,1727336085999,42055000000,18,62.47047757382873,-1411371261944999936,0.0,62.47047757382873,-4242.398183492584,0.0,0,26,0.0,16431,372903927975100,316,26.839000701904297,-1703.0493922378078,0.14999,16,-72232.56119063274,0.002025000052526593,1575420030,,,,0,7.5327867552717205,1,6.0,26.839000701904297,0.0,0.0,0.0,66.7128,C,,
Raw,1727336085999,42055000000,18,62.47047757382873,-1411371261944999936,0.0,62.47047757382873,-4242.398183492584,0.0,0,28,0.0,16431,372903929086378,487,23.59600067138672,-846.4192878446954,0.14999,20,-37116.57252331292,0.009999999776482582,1575420030,,,,0,3.0122427273115187,1,6.0,23.59600067138672,0.0,0.0,0.0,66.7128,C,,
Raw,1727336085999,42055000000,18,62.47047757382873,-1411371261944999936,0.0,62.47047757382873,-4242.398183492584,0.0,0,31,0.0,16431,372903933099397,396,23.33799934387207,-1284.4902822365511,0.14999,16,-54762.31460114933,0.004900000058114529,1575420030,,,,0,2.7997332984192007,1,6.0,23.33799934387207,0.0,0.0,0.0,66.7128,C,,
Raw,1727336085999,42055000000,18,62.47047757382873,-1411371261944999936,0.0,62.47047757382873,-4242.398183492584,0.0,0,10,0.0,16431,372903928357500,316,26.08799934387207,-1117.3500903250322,0.14999,16,-48189.279906497184,0.002025000052526593,1575420030,,,,0,6.542810626463785,1,6.0,26.08799934387207,0.0,0.0,0.0,66.7128,C,,
Raw,1727336085999,42055000000,18,62.47047757382873,-1411371261944999936,0.0,62.47047757382873,-4242.398183492584,0.0,0,4,0.0,16431,372903914352317,316,23.399999618530273,-1125.4711143954667,0.14999,25,-49699.23801045117,0.002025000052526593,1575420030,,,,0,4.049859487970896,6,6.0,23.399999618530273,0.0,0.0,-7.804802881206921,66.7128,C,,
Raw,1727336085999,42055000000,18,62.47047757382873,-1411371261944999936,0.0,62.47047757382873,-4242.398183492584,0.0,0,39,0.0,16905,372889873125169,487,22.700000762939453,-1100.2969970703125,0.14999,16,-50301.8228322922,0.009999999776482582,1561097980,,,,0,3.1109294661984817,5,6.0,22.700000762939453,0.0,0.0,-39.11136913645231,66.7128,I,,
Raw,1727336085999,42055000000,18,62.47047757382873,-1411371261944999936,0.0,62.47047757382873,-4242.398183492584,0.0,0,38,0.0,16905,372889874738263,74,30.5,-1227.0355224609375,0.14999,16,-52633.89556711134,0.0006249999860301614,1561097980,,,,0,12.491563812759281,5,6.0,30.5,0.0,0.0,-39.11136913645231,66.7128,I,,
Raw,1727336085999,42055000000,18,62.47047757382873,-1411371261944999936,0.0,62.47047757382873,-4242.398183492584,0.0,0,8,0.0,16905,372889876834667,396,25.632999420166016,-1292.08251953125,0.14999,16,-55124.996693919784,0.004900000058114529,1561097980,,,,0,4.598855011922934,5,6.0,25.632999420166016,0.0,0.0,-39.11136913645231,66.7128,I,,
Raw,1727336085999,42055000000,18,62.47047757382873,-1411371261944999936,0.0,62.47047757382873,-4242.398183492584,0.0,0,31,0.0,16431,372903916138759,316,23.299999237060547,-1579.9567034859974,0.14999,29,-65417.34438212882,0.002025000052526593,1575420030,,,,0,3.90900413683893,6,6.0,23.299999237060547,0.0,0.0,-7.804802881206921,66.7128,C,,
Raw,1727336085999,42055000000,18,62.47047757382873,-1411371261944999936,0.0,62.47047757382873,-4242.398183492584,0.0,0,10,0.0,47,372903918402451,316,26.700000762939453,-878.632531559926,0.14999,25,-40210.14997000804,0.002025000052526593,1575420030,,,,0,8.193172291851935,6,6.0,26.700000762939453,0.0,0.0,-7.804802881206921,66.7128,C,,
Raw,1727336085999,42055000000,18,62.47047757382873,-1411371261944999936,0.0,62.47047757382873,-4242.398183492584,0.0,0,60,0.0,16905,372889880266299,235,22.700000762939453,-1267.1968994140625,0.14999,16,-53997.57389126313,0.0008999999845400453,1561097980,,,,0,3.17083239078567,5,6.0,22.700000762939453,0.0,0.0,-39.11136913645231,66.7128,I,,
Raw,1727336085999,42055000000,18,62.47047757382873,-1411371261944999936,0.0,62.47047757382873,-4242.398183492584,0.0,0,33,0.0,16905,372889918816517,235,27.399999618530273,-1223.602294921875,0.14999,17,-54341.14335704981,0.0008999999845400453,1561097980,,,,0,8.964633788925656,5,6.0,27.399999618530273,0.0,0.0,-39.11136913645231,66.7128,I,,
Raw,1727336085999,42055000000,18,62.47047757382873,-1411371261944999936,0.0,62.47047757382873,-4242.398183492584,0.0,0,25,0.0,16905,372889925348799,487,22.700000762939453,-1017.940185546875,0.14999,20,-44103.044535902234,0.009999999776482582,1561097980,,,,0,3.17083239078567,5,6.0,22.700000762939453,0.0,0.0,-39.11136913645231,66.7128,I,,
Raw,1727336085999,42055000000,18,62.47047757382873,-1411371261944999936,0.0,62.47047757382873,-4242.398183492584,0.0,0,3,0.0,32995,38085926843259,396,0.0,-1374.5514519179244,0.14999,16,-56263.112771475615,0.004900000058114529,1604812540,,,,0,5.586937990352928,3,6.0,23.0,0.0,0.0,-42.77873868127574,66.7128,C,,
Raw,1727336085999,42055000000,18,62.47047757382873,-1411371261944999936,0.0,62.47047757382873,-4242.398183492584,0.0,0,18,0.0,32995,38085928984213,74,0.0,-820.0131968757189,0.14999,17,-41298.58688693028,0.0006249999860301614,1600312450,,,,0,12.719722236016661,3,6.0,30.0,0.0,0.0,-42.77873868127574,66.7128,C,,
Raw,1727336085999,42055000000,18,62.47047757382873,-1411371261944999936,0.0,62.47047757382873,-4242.398183492584,0.0,0,4,0.0,32995,38085924166059,797,28.799999237060547,-1494.4006740855773,0.14999,16,-60673.6594364732,0.02250000089406967,1605374980,,,,0,0.0,3,6.0,28.799999237060547,0.0,0.0,-42.77873868127574,66.7128,C,,
Raw,1727336085999,42055000000,18,62.47047757382873,-1411371261944999936,0.0,62.47047757382873,-4242.398183492584,0.0,0,14,0.0,32995,38085934537905,235,0.0,-1538.1236251415507,0.14999,17,-64330.034210901315,0.0008999999845400453,1598062460,,,,0,10.635807017797616,3,6.0,29.0,0.0,0.0,-42.77873868127574,66.7128,C,,
Raw,1727336085999,42055000000,18,62.47047757382873,-1411371261944999936,0.0,62.47047757382873,-4242.398183492584,0.0,0,23,0.0,16431,372903919409943,797,14.899999618530273,-790.742592689662,0.14999,16,-53510.375199167815,0.02250000089406967,1575420030,,,,0,0.0,1,6.0,14.899999618530273,0.0,0.0,0.0,66.7128,C,,
Raw,1727336085999,42055000000,18,62.47047757382873,-1411371261944999936,0.0,62.47047757382873,-4242.398183492584,0.0,0,2,0.0,47,372903921818728,316,25.54599952697754,-1570.5754484174358,0.14999,17,-63992.956838688806,0.002025000052526593,1575420030,,,,0,5.814006853194147,1,6.0,25.54599952697754,0.0,0.0,0.0,66.7128,C,,
Raw,1727336085999,42055000000,18,62.47047757382873,-1411371261944999936,0.0,62.47047757382873,-4242.398183492584,0.0,0,21,0.0,47,372903924601147,235,28.802000045776367,-1380.2719264348343,0.14999,17,-57703.22123674487,0.0008999999845400453,1575420030,,,,0,10.058808306762998,1,6.0,28.802000045776367,0.0,0.0,0.0,66.7128,C,,
Raw,1727336085999,42055000000,18,62.47047757382873,-1411371261944999936,0.0,62.47047757382873,-4242.398183492584,0.0,0,41,0.0,47,372889921234665,487,20.565000534057617,-1472.449951171875,0.14999,16,-61684.07651200148,0.009999999776482582,1561097980,,,,0,0.0,5,6.0,20.565000534057617,0.0,0.0,-39.11136913645231,66.7128,I,,
Raw,1727336085999,42055000000,18,62.47047757382873,-1411371261944999936,0.0,62.47047757382873,-4242.398183492584,0.0,0,2,0.0,16905,372889881021789,316,23.93600082397461,-1271.9371337890625,0.14999,16,-54176.5054609728,0.002025000052526593,1561097980,,,,0,4.8484667188239765,5,6.0,23.93600082397461,0.0,0.0,-39.11136913645231,66.7128,I,,
Raw,1727336085999,42055000000,18,62.47047757382873,-1411371261944999936,0.0,62.47047757382873,-4242.398183492584,0.0,0,23,0.0,47,372889925654445,58,33.900001525878906,-1592.514892578125,0.14999,17,-66108.18420875436,0.00039999998989515007,1561097980,,,,0,16.2846881103032,5,6.0,33.900001525878906,0.0,0.0,-39.11136913645231,66.7128,I,,
Raw,1727336085999,42055000000,18,62.47047757382873,-1411371261944999936,0.0,62.47047757382873,-4242.398183492584,0.0,0,32,0.0,16431,372903921802278,316,25.101999282836914,-1100.5794383245197,0.14999,20,-47766.09032099604,0.002025000052526593,1575420030,,,,0,5.183461452803374,1,6.0,25.101999282836914,0.0,0.0,0.0,66.7128,C,,
Raw,1727336085999,42055000000,18,62.47047757382873,-1411371261944999936,0.0,62.47047757382873,-4242.398183492584,0.0,0,11,0.0,16431,372903922263465,396,13.137999534606934,-1119.4738903636808,0.14999,24,-49581.99627431136,0.004900000058114529,1575420030,,,,0,0.0,6,6.0,13.137999534606934,0.0,0.0,-7.804802881206921,66.7128,C,,
Raw,1727336085999,42055000000,18,62.47047757382873,-1411371261944999936,0.0,62.47047757382873,-4242.398183492584,0.0,0,24,0.0,16431,372903909266997,1934,9.300000190734863,-1719.1342250982202,0.14999,24,-57693.53396008873,0.02250000089406967,1575420030,,,,0,0.0,6,6.0,9.300000190734863,0.0,0.0,-7.804802881206921,66.7128,C,,
Raw,1727336085999,42055000000,18,62.47047757382873,-1411371261944999936,0.0,62.47047757382873,-4242.398183492584,0.0,0,6,0.0,16431,372903916428232,487,17.299999237060547,-1185.1414679247903,0.14999,24,-51707.047983994846,0.009999999776482582,1575420030,,,,0,0.0,6,6.0,17.299999237060547,0.0,0.0,-7.804802881206921,66.7128,C,,
Raw,1727336085999,42055000000,18,62.47047757382873,-1411371261944999936,0.0,62.47047757382873,-4242.398183492584,0.0,0,27,0.0,16905,372889918393070,487,20.799999237060547,-1111.22607421875,0.14999,16,-50823.57548342694,0.009999999776482582,1561097980,,,,0,0.46056467984227945,5,6.0,20.799999237060547,0.0,0.0,-39.11136913645231,66.7128,I,,
Raw,1727336085999,42055000000,18,62.47047757382873,-1411371261944999936,0.0,62.47047757382873,-4242.398183492584,0.0,0,16,0.0,16905,372889873567427,487,21.899999618530273,-1103.7633056640625,0.14999,17,-52430.0576131202,0.009999999776482582,1561097980,,,,0,1.955383034583883,5,6.0,21.899999618530273,0.0,0.0,-39.11136913645231,66.7128,I,,
Raw,1727336085999,42055000000,18,62.47047757382873,-1411371261944999936,0.0,62.47047757382873,-4242.398183492584,0.0,0,13,0.0,16905,372889880025824,396,25.600000381469727,-1344.63671875,0.14999,16,-55641.218481161304,0.004900000058114529,1561097980,,,,0,6.860172830686158,5,6.0,25.600000381469727,0.0,0.0,-39.11136913645231,66.7128,I,,
Raw,1727336085999,42055000000,18,62.47047757382873,-1411371261944999936,0.0,62.47047757382873,-4242.398183492584,0.0,0,32,0.0,16905,372889912811762,316,24.399999618530273,-1583.547119140625,0.14999,17,-62245.65333181028,0.002025000052526593,1561097980,,,,0,5.280450803368443,5,6.0,24.399999618530273,0.0,0.0,-39.11136913645231,66.7128,I,,
Raw,1727336085999,42055000000,18,62.47047757382873,-1411371261944999936,0.0,62.47047757382873,-4242.398183492584,0.0,0,28,0.0,16905,372889918889274,235,28.479999542236328,-896.9238891601562,0.14999,16,-42891.73357385283,0.0008999999845400453,1561097980,,,,0,9.810572957949029,5,6.0,28.479999542236328,0.0,0.0,-39.11136913645231,66.7128,I,,
Raw,1727336085999,42055000000,18,62.47047757382873,-1411371261944999936,0.0,62.47047757382873,-4242.398183492584,0.0,0,12,0.0,16431,372903913253275,797,11.5,-751.5662544696283,0.14999,24,-42667.97472020061,0.02250000089406967,1575420030,,,,0,0.0,6,6.0,11.5,0.0,0.0,-7.804802881206921,66.7128,C,,
Raw,1727336085999,42055000000,18,62.47047757382873,-1411371261944999936,0.0,62.47047757382873,-4242.398183492584,0.0,0,37,0.0,16905,372889913867222,487,20.399999618530273,-1880.7076416015625,0.14999,16,-72979.06803186997,0.009999999776482582,1561097980,,,,0,0.0,5,6.0,20.399999618530273,0.0,0.0,-39.11136913645231,66.7128,I,,
Status,,70,0,1,31,1575420030,30.90,282.0,77.0,1,0,0,30.9
Status,,70,1,2,128,1575420030,35.00,156.0,73.0,0,0,0,35.0
Status,,70,2,1,28,1575420030,20.80,19.0,53.0,1,0,0,20.8
Status,,70,3,1,10,1575420030,27.20,99.0,45.0,1,0,0,27.2
Status,,70,4,1,26,1575420030,33.90,151.0,43.0,1,0,0,33.9
Status,,70,5,1,21,1575420030,26.70,284.0,40.0,1,0,0,26.7
Status,,70,6,1,2,1575420030,26.90,300.0,28.0,1,0,0,26.9
Status,,70,7,1,32,1575420030,25.10,38.0,25.0,1,0,0,25.1
Status,,70,8,1,16,1575420030,0.00,181.0,19.0,0,0,0,0.0
Status,,70,9,2,132,1575420030,0.00,348.0,16.0,0,0,0,0.0
Status,,70,10,2,122,1575420030,0.00,92.0,15.0,0,0,0,0.0
Status,,70,11,1,23,1575420030,16.40,125.0,13.0,1,0,0,16.4
Status,,70,12,1,27,1575420030,0.00,201.0,10.0,0,0,0,0.0
Status,,70,13,1,25,1575420030,0.00,54.0,9.0,0,0,0,0.0
Status,,70,14,1,8,1575420030,0.00,231.0,5.0,0,0,0,0.0
Status,,70,15,1,4,1575420030,0.00,273.0,2.0,0,0,0,0.0
Status,,70,16,3,14,1602000000,24.70,128.0,62.0,1,0,0,24.7
Status,,70,17,3,18,1602000000,22.60,234.0,34.0,1,0,0,22.6
Status,,70,18,3,19,1602000000,0.00,286.0,30.0,0,0,0,0.0
Status,,70,19,3,13,1602000000,0.00,42.0,29.0,0,0,0,0.0
Status,,70,20,3,3,1602000000,24.60,27.0,27.0,1,0,0,24.6
Status,,70,21,3,15,1602000000,0.00,186.0,24.0,0,0,0,0.0
Status,,70,22,3,4,1602000000,17.90,335.0,18.0,1,0,0,17.9
Status,,70,23,3,17,1602000000,0.00,187.0,13.0,0,0,0,0.0
Status,,70,24,3,2,1602000000,0.00,76.0,9.0,0,0,0,0.0
Status,,70,25,6,11,1575420030,13.10,247.0,62.0,1,0,0,13.1
Status,,70,26,6,10,1575420030,29.10,193.0,52.0,1,0,0,29.1
Status,,70,27,6,6,1575420030,20.00,353.0,40.0,1,0,0,20.0
Status,,70,28,6,31,1575420030,18.00,130.0,39.0,1,0,0,18.0
Status,,70,29,6,9,1575420030,0.00,322.0,36.0,0,0,0,0.0
Status,,70,30,6,12,1575420030,11.50,171.0,33.0,1,0,0,11.5
Status,,70,31,6,4,1575420030,0.00,24.0,32.0,0,0,0,0.0
Status,,70,32,6,36,1575420030,0.00,310.0,29.0,0,0,0,0.0
Status,,70,33,6,24,1575420030,9.30,184.0,18.0,0,0,0,9.3
Status,,70,34,6,5,1575420030,0.00,276.0,8.0,0,0,0,0.0
Status,,70,35,6,18,1575420030,0.00,132.0,1.0,0,0,0,0.0
Status,,70,36,5,2,1561097980,24.00,148.0,75.0,1,0,0,24.0
Status,,70,37,5,60,1561097980,28.90,169.0,75.0,1,0,0,28.9
Status,,70,38,5,56,1561097980,0.00,95.0,74.0,0,0,0,0.0
Status,,70,39,5,9,1561097980,0.00,7.0,66.0,0,0,0,0.0
Status,,70,40,5,13,1561097980,20.20,95.0,65.0,1,0,0,20.2
Status,,70,41,5,5,1561097980,0.00,241.0,65.0,0,0,0,0.0
Status,,70,42,5,23,1561097980,34.00,179.0,62.0,1,0,0,34.0
Status,,70,43,5,6,1561097980,0.00,18.0,54.0,0,0,0,0.0
Status,,70,44,5,8,1561097980,20.60,112.0,52.0,1,0,0,20.6
Status,,70,45,5,25,1561097980,19.90,56.0,52.0,1,0,0,19.9
Status,,70,46,5,3,1561097980,0.00,108.0,49.0,0,0,0,0.0
Status,,70,47,5,61,1561097980,0.00,109.0,48.0,0,0,0,0.0
Status,,70,48,5,16,1561097980,17.40,23.0,46.0,1,0,0,17.4
Status,,70,49,5,38,1561097980,27.30,124.0,40.0,1,0,0,27.3
Status,,70,50,5,41,1561097980,20.50,6.0,40.0,1,0,0,20.5
Status,,70,51,5,39,1561097980,18.10,25.0,37.0,1,0,0,18.1
Status,,70,52,5,33,1561097980,27.40,69.0,31.0,1,0,0,27.4
Status,,70,53,5,28,1561097980,28.50,209.0,27.0,1,0,0,28.5
Status,,70,54,5,27,1561097980,20.80,259.0,25.0,1,0,0,20.8
Status,,70,55,5,10,1561097980,0.00,155.0,20.0,0,0,0,0.0
Status,,70,56,5,7,1561097980,0.00,142.0,18.0,0,0,0,0.0
Status,,70,57,5,59,1561097980,0.00,95.0,18.0,0,0,0,0.0
Status,,70,58,5,14,1561097980,0.00,90.0,14.0,0,0,0,0.0
Status,,70,59,5,1,1561097980,0.00,96.0,14.0,0,0,0,0.0
Status,,70,60,5,37,1561097980,19.70,207.0,14.0,1,0,0,19.7
Status,,70,61,5,57,1561097980,0.00,70.0,13.0,0,0,0,0.0
Status,,70,62,5,32,1561097980,24.40,315.0,11.0,1,0,0,24.4
Status,,70,63,5,40,1561097980,0.00,135.0,6.0,0,0,0,0.0
Status,,70,64,5,24,1561097980,0.00,38.0,4.0,0,0,0,0.0
Status,,70,65,5,30,1561097980,0.00,300.0,1.0,0,0,0,0.0
Status,,70,66,4,196,1575420030,0.00,76.0,41.0,0,0,0,0.0
Status,,70,67,4,199,1575420030,0.00,54.0,19.0,0,0,0,0.0
Status,,70,68,4,194,1575420030,0.00,83.0,15.0,0,0,0,0.0
Status,,70,69,4,195,1575420030,0.00,136.0,1.0,0,0,0,0.0
Raw,1727336086999,43055000000,18,57.354652798129734,-1411371261944999936,0.0,57.354652798129734,-4240.876503929719,0.0,0,26,0.0,16431,372904927980782,58,33.86800003051758,-1702.2832000376634,0.14999,17,-73935.52224338261,0.00039999998989515007,1575420030,,,,0,16.085235720857035,1,6.0,33.86800003051758,0.0,0.0,0.0,66.7128,C,,
Raw,1727336086999,43055000000,18,57.354652798129734,-1411371261944999936,0.0,57.354652798129734,-4240.876503929719,0.0,0,28,0.0,16431,372904929089205,487,20.768999099731445,-845.8297305429836,0.14999,16,-37963.1627183431,0.009999999776482582,1575420030,,,,0,0.0,1,6.0,20.768999099731445,0.0,0.0,0.0,66.7128,C,,
Raw,1727336086999,43055000000,18,57.354652798129734,-1411371261944999936,0.0,57.354652798129734,-4240.876503929719,0.0,0,31,0.0,16431,372904933103684,74,30.900999069213867,-1284.2650518347625,0.14999,17,-56046.760859419715,0.0006249999860301614,1575420030,,,,0,12.641701512205506,1,6.0,30.900999069213867,0.0,0.0,0.0,66.7128,C,,
Raw,1727336086999,43055000000,18,57.354652798129734,-1411371261944999936,0.0,57.354652798129734,-4240.876503929719,0.0,0,10,0.0,16431,372904928361225,316,27.158000946044922,-1115.7402132865045,0.14999,16,-49305.84348606278,0.002025000052526593,1575420030,,,,0,7.958800173440752,1,6.0,27.158000946044922,0.0,0.0,0.0,66.7128,C,,
Raw,1727336086999,43055000000,18,57.354652798129734,-1411371261944999936,0.0,57.354652798129734,-4240.876503929719,0.0,0,39,0.0,16905,372890873128837,487,18.100000381469727,-1100.66162109375,0.14999,16,-51401.751421872796,0.009999999776482582,1561097980,,,,0,0.0,5,6.0,18.100000381469727,0.0,0.0,-40.52971824128372,66.7128,I,,
Raw,1727336086999,43055000000,18,57.354652798129734,-1411371261944999936,0.0,57.354652798129734,-4240.876503929719,0.0,0,38,0.0,16905,372890874742354,316,27.299999237060547,-1226.281982421875,0.14999,16,-53860.497698175524,0.002025000052526593,1561097980,,,,0,8.863725275247454,5,6.0,27.299999237060547,0.0,0.0,-40.52971824128372,66.7128,I,,
Raw,1727336086999,43055000000,18,57.354652798129734,-1411371261944999936,0.0,57.354652798129734,-4240.876503929719,0.0,0,8,0.0,16905,372890876838979,487,20.600000381469727,-1291.424072265625,0.14999,16,-56417.31518026282,0.009999999776482582,1561097980,,,,0,0.1686633507372553,5,6.0,20.600000381469727,0.0,0.0,-40.52971824128372,66.7128,I,,
Raw,1727336086999,43055000000,18,57.354652798129734,-1411371261944999936,0.0,57.354652798129734,-4240.876503929719,0.0,0,31,0.0,16431,372904916144024,396,18.0,-1578.5399076252409,0.14999,28,-66996.06856825245,0.004900000058114529,1575420030,,,,0,0.0,6,6.0,18.0,0.0,0.0,-6.334572166256361,66.7128,C,,
Raw,1727336086999,43055000000,18,57.354652798129734,-1411371261944999936,0.0,57.354652798129734,-4240.876503929719,0.0,0,10,0.0,47,372904918405378,235,29.100000381469727,-877.4240552374574,0.14999,29,-41088.149556199656,0.0008999999845400453,1575420030,,,,0,10.986773462802615,6,6.0,29.100000381469727,0.0,0.0,-6.334572166256361,66.7128,C,,
Raw,1727336086999,43055000000,18,57.354652798129734,-1411371261944999936,0.0,57.354652798129734,-4240.876503929719,0.0,0,60,0.0,16905,372890880270524,235,28.899999618530273,-1262.5069580078125,0.14999,16,-55264.48792020107,0.0008999999845400453,1561097980,,,,0,10.709357451767161,5,6.0,28.899999618530273,0.0,0.0,-40.52971824128372,66.7128,I,,
Raw,1727336086999,43055000000,18,57.354652798129734,-1411371261944999936,0.0,57.354652798129734,-4240.876503929719,0.0,0,33,0.0,16905,372890918820596,316,27.395000457763672,-1222.5916748046875,0.14999,20,-55564.066766802025,0.002025000052526593,1561097980,,,,0,8.894363365702402,5,6.0,27.395000457763672,0.0,0.0,-40.52971824128372,66.7128,I,,
Raw,1727336086999,43055000000,18,57.354652798129734,-1411371261944999936,0.0,57.354652798129734,-4240.876503929719,0.0,0,25,0.0,16905,372890925352192,487,19.899999618530273,-1017.0547485351562,0.14999,16,-45120.326872834856,0.009999999776482582,1561097980,,,,0,0.0,5,6.0,19.899999618530273,0.0,0.0,-40.52971824128372,66.7128,I,,
Raw,1727336086999,43055000000,18,57.354652798129734,-1411371261944999936,0.0,57.354652798129734,-4240.876503929719,0.0,0,3,0.0,32995,38086926847843,797,0.0,-1373.9956786801429,0.14999,16,-57637.51678970267,0.02250000089406967,1604812540,,,,0,5.586937990352928,3,6.0,17.0,0.0,0.0,-41.413495651537346,66.7128,C,,
Raw,1727336086999,43055000000,18,57.354652798129734,-1411371261944999936,0.0,57.354652798129734,-4240.876503929719,0.0,0,18,0.0,32995,38086928986942,396,0.0,-818.3923213278034,0.14999,20,-42118.600136430716,0.004900000058114529,1600312450,,,,0,2.992955521874761,3,6.0,23.0,0.0,0.0,-41.413495651537346,66.7128,C,,
Raw,1727336086999,43055000000,18,57.354652798129734,-1411371261944999936,0.0,57.354652798129734,-4240.876503929719,0.0,0,4,0.0,32995,38086924171004,487,24.700000762939453,-1492.9450274056276,0.14999,16,-62166.73969810231,0.009999999776482582,1605374980,,,,0,0.0,3,6.0,24.700000762939453,0.0,0.0,-41.413495651537346,66.7128,C,,
Raw,1727336086999,43055000000,18,57.354652798129734,-1411371261944999936,0.0,57.354652798129734,-4240.876503929719,0.0,0,14,0.0,32995,38086934543036,316,0.0,-1537.203225127745,0.14999,17,-65867.3948122772,0.002025000052526593,1598062460,,,,0,5.664907489684131,3,6.0,25.0,0.0,0.0,-41.413495651537346,66.7128,C,,
Raw,1727336086999,43055000000,18,57.354652798129734,-1411371261944999936,0.0,57.354652798129734,-4240.876503929719,0.0,0,23,0.0,16431,372904919412583,797,16.36400032043457,-791.5095282244656,0.14999,16,-54301.095722396625,0.02250000089406967,1575420030,,,,0,0.0,1,6.0,16.36400032043457,0.0,0.0,0.0,66.7128,C,,
Raw,1727336086999,43055000000,18,57.354652798129734,-1411371261944999936,0.0,57.354652798129734,-4240.876503929719,0.0,0,2,0.0,47,372904921823978,235,26.881999969482422,-1571.9214416518876,0.14999,17,-65564.87054910854,0.0008999999845400453,1575420030,,,,0,7.594940076920372,1,6.0,26.881999969482422,0.0,0.0,0.0,66.7128,C,,
Raw,1727336086999,43055000000,18,57.354652798129734,-1411371261944999936,0.0,57.354652798129734,-4240.876503929719,0.0,0,21,0.0,47,372904924605765,316,26.684999465942383,-1378.926676535042,0.14999,20,-59082.97551888948,0.002025000052526593,1575420030,,,,0,7.343612897329993,1,6.0,26.684999465942383,0.0,0.0,0.0,66.7128,C,,
Raw,1727336086999,43055000000,18,57.354652798129734,-1411371261944999936,0.0,57.354652798129734,-4240.876503929719,0.0,0,41,0.0,47,372890921239580,487,20.47599983215332,-1472.579345703125,0.14999,16,-63157.74430350276,0.009999999776482582,1561097980,,,,0,0.0,5,6.0,20.47599983215332,0.0,0.0,-40.52971824128372,66.7128,I,,
Raw,1727336086999,43055000000,18,57.354652798129734,-1411371261944999936,0.0,57.354652798129734,-4240.876503929719,0.0,0,2,0.0,16905,372890881026027,316,23.9689998626709,-1271.03173828125,0.14999,16,-55447.207944725094,0.002025000052526593,1561097980,,,,0,5.6021872012375376,5,6.0,23.9689998626709,0.0,0.0,-40.52971824128372,66.7128,I,,
Raw,1727336086999,43055000000,18,57.354652798129734,-1411371261944999936,0.0,57.354652798129734,-4240.876503929719,0.0,0,23,0.0,47,372890925659758,51,34.0,-1591.7852783203125,0.14999,17,-67700.42067002822,0.00022499999613501132,1561097980,,,,0,18.365130743755497,5,6.0,34.0,0.0,0.0,-40.52971824128372,66.7128,I,,
Raw,1727336086999,43055000000,18,57.354652798129734,-1411371261944999936,0.0,57.354652798129734,-4240.876503929719,0.0,0,32,0.0,16431,372904921805946,396,25.101999282836914,-1098.7321587791562,0.14999,16,-48865.63472797455,0.004900000058114529,1575420030,,,,0,5.183461452803374,1,6.0,25.101999282836914,0.0,0.0,0.0,66.7128,C,,
Raw,1727336086999,43055000000,18,57.354652798129734,-1411371261944999936,0.0,57.354652798129734,-4240.876503929719,0.0,0,11,0.0,16431,372904922267200,396,13.140999794006348,-1119.2267315894408,0.14999,24,-50701.624497820536,0.004900000058114529,1575420030,,,,0,0.0,6,6.0,13.140999794006348,0.0,0.0,-6.334572166256361,66.7128,C,,
Raw,1727336086999,43055000000,18,57.354652798129734,-1411371261944999936,0.0,57.354652798129734,-4240.876503929719,0.0,0,24,0.0,16431,372904909272732,1934,9.300000190734863,-1718.7397002277603,0.14999,24,-59412.6796528953,0.02250000089406967,1575420030,,,,0,0.0,6,6.0,9.300000190734863,0.0,0.0,-6.334572166256361,66.7128,C,,
Raw,1727336086999,43055000000,18,57.354652798129734,-1411371261944999936,0.0,57.354652798129734,-4240.876503929719,0.0,0,6,0.0,16431,372904916432182,487,20.0,-1184.018660921814,0.14999,24,-52891.696784835425,0.009999999776482582,1575420030,,,,0,0.0,6,6.0,20.0,0.0,0.0,-6.334572166256361,66.7128,C,,
Raw,1727336086999,43055000000,18,57.354652798129734,-1411371261944999936,0.0,57.354652798129734,-4240.876503929719,0.0,0,27,0.0,16905,372890918396772,487,20.78499984741211,-1110.228759765625,0.14999,16,-51934.66997846639,0.009999999776482582,1561097980,,,,0,0.0,5,6.0,20.78499984741211,0.0,0.0,-40.52971824128372,66.7128,I,,
Raw,1727336086999,43055000000,18,57.354652798129734,-1411371261944999936,0.0,57.354652798129734,-4240.876503929719,0.0,0,16,0.0,16905,372890873571107,797,17.399999618530273,-1102.9317626953125,0.14999,20,-53533.39002764112,0.02250000089406967,1561097980,,,,0,0.0,5,6.0,17.399999618530273,0.0,0.0,-40.52971824128372,66.7128,I,,
Raw,1727336086999,43055000000,18,57.354652798129734,-1411371261944999936,0.0,57.354652798129734,-4240.876503929719,0.0,0,13,0.0,16905,372890880030311,487,20.200000762939453,-1345.1278076171875,0.14999,16,-56986.26635926011,0.009999999776482582,1561097980,,,,0,0.0,5,6.0,20.200000762939453,0.0,0.0,-40.52971824128372,66.7128,I,,
Raw,1727336086999,43055000000,18,57.354652798129734,-1411371261944999936,0.0,57.354652798129734,-4240.876503929719,0.0,0,32,0.0,16905,372890912817045,487,24.399999618530273,-1583.02685546875,0.14999,17,-63829.460910409725,0.009999999776482582,1561097980,,,,0,5.280450803368443,5,6.0,24.399999618530273,0.0,0.0,-40.52971824128372,66.7128,I,,
Raw,1727336086999,43055000000,18,57.354652798129734,-1411371261944999936,0.0,57.354652798129734,-4240.876503929719,0.0,0,28,0.0,16905,372890918892264,316,28.45599937438965,-897.3267211914062,0.14999,16,-43788.53487511018,0.002025000052526593,1561097980,,,,0,9.711088445130503,5,6.0,28.45599937438965,0.0,0.0,-40.52971824128372,66.7128,I,,
Raw,1727336086999,43055000000,18,57.354652798129734,-1411371261944999936,0.0,57.354652798129734,-4240.876503929719,0.0,0,12,0.0,16431,372904913255781,1797,11.5,-750.6065165075511,0.14999,24,-43419.132368282866,0.02250000089406967,1575420030,,,,0,0.0,6,6.0,11.5,0.0,0.0,-6.334572166256361,66.7128,C,,
Raw,1727336086999,43055000000,18,57.354652798129734,-1411371261944999936,0.0,57.354652798129734,-4240.876503929719,0.0,0,37,0.0,16905,372890913873493,487,19.700000762939453,-1879.5958251953125,0.14999,16,-74859.43979809308,0.009999999776482582,1561097980,,,,0,0.0,5,6.0,19.700000762939453,0.0,0.0,-40.52971824128372,66.7128,I,,
Fix,FLP,12.9357871000,77.5427265000,804.0999755859375,1.8464811,32.793,319.134,1727336084524,1.5,45.0,124814665000000,2.627486,0,,,
Status,,70,0,1,31,1575420030,25.10,282.0,77.0,1,0,0,25.1
Status,,70,1,2,128,1575420030,27.00,156.0,73.0,0,0,0,27.0
Status,,70,2,1,28,1575420030,27.20,19.0,53.0,1,0,0,27.2
Status,,70,3,1,10,1575420030,24.50,99.0,45.0,1,0,0,24.5
Status,,70,4,1,26,1575420030,28.30,151.0,43.0,1,0,0,28.3
Status,,70,5,1,21,1575420030,25.10,284.0,40.0,1,0,0,25.1
Status,,70,6,1,2,1575420030,25.10,300.0,28.0,1,0,0,25.1
Status,,70,7,1,32,1575420030,21.00,38.0,25.0,1,0,0,21.0
Status,,70,8,1,16,1575420030,0.00,181.0,19.0,0,0,0,0.0
Status,,70,9,2,132,1575420030,0.00,348.0,16.0,0,0,0,0.0
Status,,70,10,2,122,1575420030,0.00,92.0,15.0,0,0,0,0.0
Status,,70,11,1,23,1575420030,16.40,125.0,13.0,1,0,0,16.4
Status,,70,12,1,27,1575420030,0.00,201.0,10.0,0,0,0,0.0
Status,,70,13,1,25,1575420030,0.00,54.0,9.0,0,0,0,0.0
Status,,70,14,1,8,1575420030,0.00,231.0,5.0,0,0,0,0.0
Status,,70,15,1,4,1575420030,0.00,273.0,2.0,0,0,0,0.0
Status,,70,16,3,14,1602000000,24.10,128.0,62.0,1,0,0,24.1
Status,,70,17,3,18,1602000000,22.70,234.0,34.0,1,0,0,22.7
Status,,70,18,3,19,1602000000,0.00,286.0,30.0,0,0,0,0.0
Status,,70,19,3,13,1602000000,0.00,42.0,29.0,0,0,0,0.0
Status,,70,20,3,3,1602000000,24.60,27.0,27.0,1,0,0,24.6
Status,,70,21,3,15,1602000000,25.40,186.0,24.0,1,0,0,25.4
Status,,70,22,3,4,1602000000,21.90,335.0,18.0,1,0,0,21.9
Status,,70,23,3,17,1602000000,0.00,187.0,13.0,0,0,0,0.0
Status,,70,24,3,2,1602000000,0.00,76.0,9.0,0,0,0,0.0
Status,,70,25,6,11,1575420030,13.10,247.0,62.0,1,0,0,13.1
Status,,70,26,6,10,1575420030,35.20,193.0,52.0,1,0,0,35.2
Status,,70,27,6,6,1575420030,22.70,353.0,40.0,1,0,0,22.7
Status,,70,28,6,31,1575420030,18.90,130.0,39.0,1,0,0,18.9
Status,,70,29,6,9,1575420030,0.00,322.0,36.0,0,0,0,0.0
Status,,70,30,6,12,1575420030,11.50,171.0,33.0,1,0,0,11.5
Status,,70,31,6,4,1575420030,0.00,24.0,32.0,0,0,0,0.0
Status,,70,32,6,36,1575420030,0.00,310.0,29.0,0,0,0,0.0
Status,,70,33,6,24,1575420030,9.30,184.0,18.0,1,0,0,9.3
Status,,70,34,6,5,1575420030,0.00,276.0,8.0,0,0,0,0.0
Status,,70,35,6,18,1575420030,0.00,132.0,1.0,0,0,0,0.0
Status,,70,36,5,2,1561097980,0.00,148.0,75.0,0,0,0,0.0
Status,,70,37,5,60,1561097980,23.80,169.0,75.0,1,0,0,23.8
Status,,70,38,5,56,1561097980,0.00,95.0,74.0,0,0,0,0.0
Status,,70,39,5,9,1561097980,0.00,7.0,66.0,0,0,0,0.0
Status,,70,40,5,13,1561097980,20.20,95.0,65.0,1,0,0,20.2
Status,,70,41,5,5,1561097980,0.00,241.0,65.0,0,0,0,0.0
Status,,70,42,5,23,1561097980,28.50,179.0,62.0,1,0,0,28.5
Status,,70,43,5,6,1561097980,0.00,18.0,54.0,0,0,0,0.0
Status,,70,44,5,8,1561097980,20.60,112.0,52.0,1,0,0,20.6
Status,,70,45,5,25,1561097980,19.90,56.0,52.0,1,0,0,19.9
Status,,70,46,5,3,1561097980,0.00,108.0,49.0,0,0,0,0.0
Status,,70,47,5,61,1561097980,0.00,109.0,48.0,0,0,0,0.0
Status,,70,48,5,16,1561097980,17.50,23.0,46.0,1,0,0,17.5
Status,,70,49,5,38,1561097980,22.50,124.0,40.0,1,0,0,22.5
Status,,70,50,5,41,1561097980,23.30,6.0,40.0,1,0,0,23.3
Status,,70,51,5,39,1561097980,18.10,25.0,37.0,1,0,0,18.1
Status,,70,52,5,33,1561097980,22.00,69.0,31.0,1,0,0,22.0
Status,,70,53,5,28,1561097980,38.40,209.0,27.0,1,0,0,38.4
Status,,70,54,5,27,1561097980,20.80,259.0,25.0,1,0,0,20.8
Status,,70,55,5,10,1561097980,0.00,155.0,20.0,0,0,0,0.0
Status,,70,56,5,7,1561097980,0.00,142.0,18.0,0,0,0,0.0
Status,,70,57,5,59,1561097980,0.00,95.0,18.0,0,0,0,0.0
Status,,70,58,5,14,1561097980,0.00,90.0,14.0,0,0,0,0.0
Status,,70,59,5,1,1561097980,0.00,96.0,14.0,0,0,0,0.0
Status,,70,60,5,37,1561097980,20.50,207.0,14.0,1,0,0,20.5
Status,,70,61,5,57,1561097980,0.00,70.0,13.0,0,0,0,0.0
Status,,70,62,5,32,1561097980,24.40,315.0,11.0,1,0,0,24.4
Status,,70,63,5,40,1561097980,0.00,135.0,6.0,0,0,0,0.0
Status,,70,64,5,24,1561097980,0.00,38.0,4.0,0,0,0,0.0
Status,,70,65,5,30,1561097980,0.00,300.0,1.0,0,0,0,0.0
Status,,70,66,4,196,1575420030,0.00,76.0,41.0,0,0,0,0.0
Status,,70,67,4,199,1575420030,0.00,54.0,19.0,0,0,0,0.0
Status,,70,68,4,194,1575420030,0.00,83.0,15.0,0,0,0,0.0
Status,,70,69,4,195,1575420030,0.00,136.0,1.0,0,0,0,0.0
Raw,1727336087999,44055000000,18,56.512681614459154,-1411371261944999936,0.0,56.512681614459154,-4246.157010195123,0.0,0,26,0.0,16431,372905927986465,235,28.288999557495117,-1703.130415715679,0.14999,21,-75638.49717692003,0.0008999999845400453,1575420030,,,,0,9.430347544033278,1,6.0,28.288999557495117,0.0,0.0,0.0,66.7128,C,,
Raw,1727336087999,44055000000,18,56.512681614459154,-1411371261944999936,0.0,56.512681614459154,-4246.157010195123,0.0,0,28,0.0,16431,372905929092029,396,27.200000762939453,-846.935998349789,0.14999,16,-38810.213999971595,0.004900000058114529,1575420030,,,,0,8.017988747539174,1,6.0,27.200000762939453,0.0,0.0,0.0,66.7128,C,,
Raw,1727336087999,44055000000,18,56.512681614459154,-1411371261944999936,0.0,56.512681614459154,-4246.157010195123,0.0,0,31,0.0,16431,372905933107972,396,25.101999282836914,-1285.1835347232447,0.14999,21,-57332.119167423625,0.004900000058114529,1575420030,,,,0,5.183461452803374,1,6.0,25.101999282836914,0.0,0.0,0.0,66.7128,C,,
Raw,1727336087999,44055000000,18,56.512681614459154,-1411371261944999936,0.0,56.512681614459154,-4246.157010195123,0.0,0,10,0.0,16431,372905928364951,396,24.45800018310547,-1118.238653993475,0.14999,16,-50423.13707096163,0.004900000058114529,1575420030,,,,0,4.279658331169598,1,6.0,24.45800018310547,0.0,0.0,0.0,66.7128,C,,
Raw,1727336087999,44055000000,18,56.512681614459154,-1411371261944999936,0.0,56.512681614459154,-4246.157010195123,0.0,0,39,0.0,16905,372891873132511,487,18.100000381469727,-1101.5482177734375,0.14999,16,-52503.213169866605,0.009999999776482582,1561097980,,,,0,0.0,5,6.0,18.100000381469727,0.0,0.0,-40.29021363069519,66.7128,I,,
Raw,1727336087999,44055000000,18,56.512681614459154,-1411371261944999936,0.0,56.512681614459154,-4246.157010195123,0.0,0,38,0.0,16905,372891874746446,396,22.5,-1228.0009765625,0.14999,16,-55087.72538598058,0.004900000058114529,1561097980,,,,0,2.812378817869247,5,6.0,22.5,0.0,0.0,-40.29021363069519,66.7128,I,,
Raw,1727336087999,44055000000,18,56.512681614459154,-1411371261944999936,0.0,56.512681614459154,-4246.157010195123,0.0,0,8,0.0,16905,372891876843290,487,20.600000381469727,-1294.0345458984375,0.14999,16,-57709.93333699765,0.009999999776482582,1561097980,,,,0,0.1686633507372553,5,6.0,20.600000381469727,0.0,0.0,-40.29021363069519,66.7128,I,,
Raw,1727336087999,44055000000,18,56.512681614459154,-1411371261944999936,0.0,56.512681614459154,-4246.157010195123,0.0,0,31,0.0,16431,372905916149287,487,18.899999618530273,-1579.3406648870457,0.14999,24,-68574.0645606888,0.009999999776482582,1575420030,,,,0,0.0,6,6.0,18.899999618530273,0.0,0.0,-5.541575497925702,66.7128,C,,
Raw,1727336087999,44055000000,18,56.512681614459154,-1411371261944999936,0.0,56.512681614459154,-4246.157010195123,0.0,0,10,0.0,47,372905918408311,58,35.20000076293945,-879.1551887422945,0.14999,25,-41966.67353148534,0.00039999998989515007,1575420030,,,,0,17.638709715304234,6,6.0,35.20000076293945,0.0,0.0,-5.541575497925702,66.7128,C,,
Raw,1727336087999,44055000000,18,56.512681614459154,-1411371261944999936,0.0,56.512681614459154,-4246.157010195123,0.0,0,60,0.0,16905,372891880274751,235,23.799999237060547,-1269.6934814453125,0.14999,16,-56532.05067568344,0.0008999999845400453,1561097980,,,,0,4.5889186273375575,5,6.0,23.799999237060547,0.0,0.0,-40.29021363069519,66.7128,I,,
Raw,1727336087999,44055000000,18,56.512681614459154,-1411371261944999936,0.0,56.512681614459154,-4246.157010195123,0.0,0,33,0.0,16905,372891918824679,396,22.0,-1223.77001953125,0.14999,16,-56788.04929022236,0.004900000058114529,1561097980,,,,0,2.1068636108983836,5,6.0,22.0,0.0,0.0,-40.29021363069519,66.7128,I,,
Raw,1727336087999,44055000000,18,56.512681614459154,-1411371261944999936,0.0,56.512681614459154,-4246.157010195123,0.0,0,25,0.0,16905,372891925355588,487,19.899999618530273,-1018.1373291015625,0.14999,16,-46138.50808638394,0.009999999776482582,1561097980,,,,0,0.0,5,6.0,19.899999618530273,0.0,0.0,-40.29021363069519,66.7128,I,,
Raw,1727336087999,44055000000,18,56.512681614459154,-1411371261944999936,0.0,56.512681614459154,-4246.157010195123,0.0,0,3,0.0,32995,38087926852429,797,0.0,-1375.481389249154,0.14999,16,-59012.46779733021,0.02250000089406967,1604812540,,,,0,5.586937990352928,3,6.0,16.0,0.0,0.0,-40.5743687724443,66.7128,C,,
Raw,1727336087999,44055000000,18,56.512681614459154,-1411371261944999936,0.0,56.512681614459154,-4246.157010195123,0.0,0,15,0.0,32995,38087926247989,316,0.0,-2034.0904240072566,0.14999,16,-57320.100668917126,0.002025000052526593,1602000000,,,,0,6.579456278338319,3,6.0,24.0,0.0,0.0,-40.5743687724443,66.7128,C,,
Raw,1727336087999,44055000000,18,56.512681614459154,-1411371261944999936,0.0,56.512681614459154,-4246.157010195123,0.0,0,18,0.0,32995,38087928989672,316,0.0,-820.633739749142,0.14999,16,-42937.729600737344,0.002025000052526593,1600312450,,,,0,5.54028202740014,3,6.0,25.0,0.0,0.0,-40.5743687724443,66.7128,C,,
Raw,1727336087999,44055000000,18,56.512681614459154,-1411371261944999936,0.0,56.512681614459154,-4246.157010195123,0.0,0,4,0.0,32995,38087924175991,396,24.100000381469727,-1494.969291768875,0.14999,16,-63660.38109031509,0.004900000058114529,1605374980,,,,0,1.961964678919847,3,6.0,24.100000381469727,0.0,0.0,-40.5743687724443,66.7128,C,,
Raw,1727336087999,44055000000,18,56.512681614459154,-1411371261944999936,0.0,56.512681614459154,-4246.157010195123,0.0,0,14,0.0,32995,38087934548163,396,0.0,-1538.7131648000752,0.14999,20,-67405.028097672,0.004900000058114529,1598062460,,,,0,4.89097279423066,3,6.0,23.0,0.0,0.0,-40.5743687724443,66.7128,C,,
Raw,1727336087999,44055000000,18,56.512681614459154,-1411371261944999936,0.0,56.512681614459154,-4246.157010195123,0.0,0,23,0.0,16431,372905919415221,797,16.36400032043457,-789.2246103983989,0.14999,16,-55091.79679540298,0.02250000089406967,1575420030,,,,0,0.0,1,6.0,16.36400032043457,0.0,0.0,0.0,66.7128,C,,
Raw,1727336087999,44055000000,18,56.512681614459154,-1411371261944999936,0.0,56.512681614459154,-4246.157010195123,0.0,0,2,0.0,47,372905921829221,316,25.1299991607666,-1573.5344778627175,0.14999,17,-67137.4263510198,0.002025000052526593,1575420030,,,,0,5.22424035229762,1,6.0,25.1299991607666,0.0,0.0,0.0,66.7128,C,,
Raw,1727336087999,44055000000,18,56.512681614459154,-1411371261944999936,0.0,56.512681614459154,-4246.157010195123,0.0,0,21,0.0,47,372905924610366,487,25.101999282836914,-1380.6351383327683,0.14999,16,-60463.45549734924,0.009999999776482582,1575420030,,,,0,5.183461452803374,1,6.0,25.101999282836914,0.0,0.0,0.0,66.7128,C,,
Raw,1727336087999,44055000000,18,56.512681614459154,-1411371261944999936,0.0,56.512681614459154,-4246.157010195123,0.0,0,41,0.0,47,372891921244499,396,23.299999237060547,-1474.8187255859375,0.14999,16,-64632.202530376046,0.004900000058114529,1561097980,,,,0,3.8559390511706786,5,6.0,23.299999237060547,0.0,0.0,-40.29021363069519,66.7128,I,,
Raw,1727336087999,44055000000,18,56.512681614459154,-1411371261944999936,0.0,56.512681614459154,-4246.157010195123,0.0,0,23,0.0,47,372891925665070,235,28.5,-1592.9930419921875,0.14999,21,-69292.91922951468,0.0008999999845400453,1561097980,,,,0,10.328892705498554,5,6.0,28.5,0.0,0.0,-40.29021363069519,66.7128,I,,
Raw,1727336087999,44055000000,18,56.512681614459154,-1411371261944999936,0.0,56.512681614459154,-4246.157010195123,0.0,0,32,0.0,16431,372905921809613,487,21.003000259399414,-1100.3454737404834,0.14999,16,-49964.9888280977,0.009999999776482582,1575420030,,,,0,0.0,1,6.0,21.003000259399414,0.0,0.0,0.0,66.7128,C,,
Raw,1727336087999,44055000000,18,56.512681614459154,-1411371261944999936,0.0,56.512681614459154,-4246.157010195123,0.0,0,11,0.0,16431,372905922270936,487,13.142999649047852,-1120.469587139905,0.14999,24,-51821.63853367917,0.009999999776482582,1575420030,,,,0,0.0,6,6.0,13.142999649047852,0.0,0.0,-5.541575497925702,66.7128,C,,
Raw,1727336087999,44055000000,18,56.512681614459154,-1411371261944999936,0.0,56.512681614459154,-4246.157010195123,0.0,0,24,0.0,16431,372905909278467,1837,9.300000190734863,-1720.1273202031366,0.14999,24,-61132.22321981763,0.02250000089406967,1575420030,,,,0,0.0,6,6.0,9.300000190734863,0.0,0.0,-5.541575497925702,66.7128,C,,
Raw,1727336087999,44055000000,18,56.512681614459154,-1411371261944999936,0.0,56.512681614459154,-4246.157010195123,0.0,0,6,0.0,16431,372905916436128,396,22.700000762939453,-1185.911283881399,0.14999,25,-54076.790768977735,0.004900000058114529,1575420030,,,,0,3.1165789925340484,6,6.0,22.700000762939453,0.0,0.0,-5.541575497925702,66.7128,C,,
Raw,1727336087999,44055000000,18,56.512681614459154,-1411371261944999936,0.0,56.512681614459154,-4246.157010195123,0.0,0,27,0.0,16905,372891918400472,487,20.770000457763672,-1111.1710205078125,0.14999,16,-53044.00802089462,0.009999999776482582,1561097980,,,,0,0.0,5,6.0,20.770000457763672,0.0,0.0,-40.29021363069519,66.7128,I,,
Raw,1727336087999,44055000000,18,56.512681614459154,-1411371261944999936,0.0,56.512681614459154,-4246.157010195123,0.0,0,16,0.0,16905,372891873574790,487,17.4950008392334,-1106.3590087890625,0.14999,16,-54637.702950799154,0.009999999776482582,1561097980,,,,0,0.0,5,6.0,17.4950008392334,0.0,0.0,-40.29021363069519,66.7128,I,,
Raw,1727336087999,44055000000,18,56.512681614459154,-1411371261944999936,0.0,56.512681614459154,-4246.157010195123,0.0,0,13,0.0,16905,372891880034799,487,20.190000534057617,-1345.169921875,0.14999,16,-58331.91751510442,0.009999999776482582,1561097980,,,,0,0.0,5,6.0,20.190000534057617,0.0,0.0,-40.29021363069519,66.7128,I,,
Raw,1727336087999,44055000000,18,56.512681614459154,-1411371261944999936,0.0,56.512681614459154,-4246.157010195123,0.0,0,32,0.0,16905,372891912822334,396,24.40999984741211,-1584.96044921875,0.14999,17,-65414.382448916454,0.004900000058114529,1561097980,,,,0,5.5391427449171236,5,6.0,24.40999984741211,0.0,0.0,-40.29021363069519,66.7128,I,,
Raw,1727336087999,44055000000,18,56.512681614459154,-1411371261944999936,0.0,56.512681614459154,-4246.157010195123,0.0,0,28,0.0,16905,372891918895254,51,38.400001525878906,-897.4194946289062,0.14999,17,-44685.73784429593,0.00022499999613501132,1561097980,,,,0,21.04195337183388,5,6.0,38.400001525878906,0.0,0.0,-40.29021363069519,66.7128,I,,
Raw,1727336087999,44055000000,18,56.512681614459154,-1411371261944999936,0.0,56.512681614459154,-4246.157010195123,0.0,0,12,0.0,16431,372905913258287,1797,11.5,-751.851044560999,0.14999,24,-44170.42855089064,0.02250000089406967,1575420030,,,,0,0.0,6,6.0,11.5,0.0,0.0,-5.541575497925702,66.7128,C,,
Raw,1727336087999,44055000000,18,56.512681614459154,-1411371261944999936,0.0,56.512681614459154,-4246.157010195123,0.0,0,37,0.0,16905,372891913879762,396,20.5,-1881.32666015625,0.14999,16,-76740.1261616056,0.004900000058114529,1561097980,,,,0,0.0,5,6.0,20.5,0.0,0.0,-40.29021363069519,66.7128,I,,
Status,,70,0,1,31,1575420030,24.40,282.0,77.0,1,0,0,24.4
Status,,70,1,2,128,1575420030,24.00,156.0,73.0,0,0,0,24.0
Status,,70,2,1,28,1575420030,27.50,19.0,53.0,1,0,0,27.5
Status,,70,3,1,10,1575420030,23.60,99.0,45.0,1,0,0,23.6
Status,,70,4,1,26,1575420030,23.60,151.0,43.0,1,0,0,23.6
Status,,70,5,1,21,1575420030,21.20,284.0,40.0,1,0,0,21.2
Status,,70,6,1,2,1575420030,26.50,300.0,28.0,1,0,0,26.5
Status,,70,7,1,32,1575420030,21.00,38.0,25.0,1,0,0,21.0
Status,,70,8,1,16,1575420030,17.10,181.0,19.0,1,0,0,17.1
Status,,70,9,2,132,1575420030,0.00,348.0,16.0,0,0,0,0.0
Status,,70,10,2,122,1575420030,0.00,92.0,15.0,0,0,0,0.0
Status,,70,11,1,23,1575420030,16.40,125.0,13.0,1,0,0,16.4
Status,,70,12,1,27,1575420030,0.00,201.0,10.0,0,0,0,0.0
Status,,70,13,1,25,1575420030,0.00,54.0,9.0,0,0,0,0.0
Status,,70,14,1,8,1575420030,0.00,231.0,5.0,0,0,0,0.0
Status,,70,15,1,4,1575420030,0.00,273.0,2.0,0,0,0,0.0
Status,,70,16,3,14,1602000000,24.10,128.0,62.0,1,0,0,24.1
Status,,70,17,3,18,1602000000,19.50,234.0,34.0,1,0,0,19.5
Status,,70,18,3,19,1602000000,0.00,286.0,30.0,0,0,0,0.0
Status,,70,19,3,13,1602000000,0.00,42.0,29.0,0,0,0,0.0
Status,,70,20,3,3,1602000000,15.40,27.0,27.0,1,0,0,15.4
Status,,70,21,3,15,1602000000,22.40,186.0,24.0,1,0,0,22.4
Status,,70,22,3,4,1602000000,27.00,335.0,18.0,1,0,0,27.0
Status,,70,23,3,17,1602000000,0.00,187.0,13.0,0,0,0,0.0
Status,,70,24,3,2,1602000000,0.00,76.0,9.0,0,0,0,0.0
Status,,70,25,6,11,1575420030,19.00,247.0,62.0,1,0,0,19.0
Status,,70,26,6,10,1575420030,26.80,193.0,52.0,1,0,0,26.8
Status,,70,27,6,6,1575420030,20.00,353.0,40.0,1,0,0,20.0
Status,,70,28,6,31,1575420030,0.00,130.0,39.0,0,0,0,0.0
Status,,70,29,6,9,1575420030,19.90,322.0,36.0,1,0,0,19.9
Status,,70,30,6,12,1575420030,11.60,171.0,33.0,1,0,0,11.6
Status,,70,31,6,4,1575420030,14.40,24.0,32.0,1,0,0,14.4
Status,,70,32,6,36,1575420030,16.00,310.0,29.0,1,0,0,16.0
Status,,70,33,6,24,1575420030,9.30,184.0,18.0,1,0,0,9.3
Status,,70,34,6,5,1575420030,0.00,276.0,8.0,0,0,0,0.0
Status,,70,35,6,18,1575420030,0.00,132.0,1.0,0,0,0,0.0
Status,,70,36,5,2,1561097980,0.00,148.0,75.0,0,0,0,0.0
Status,,70,37,5,60,1561097980,23.90,169.0,75.0,1,0,0,23.9
Status,,70,38,5,56,1561097980,0.00,95.0,74.0,0,0,0,0.0
Status,,70,39,5,9,1561097980,0.00,7.0,66.0,0,0,0,0.0
Status,,70,40,5,13,1561097980,20.10,95.0,65.0,1,0,0,20.1
Status,,70,41,5,5,1561097980,0.00,241.0,65.0,0,0,0,0.0
Status,,70,42,5,23,1561097980,24.00,179.0,62.0,1,0,0,24.0
Status,,70,43,5,6,1561097980,0.00,18.0,54.0,0,0,0,0.0
Status,,70,44,5,8,1561097980,20.50,112.0,52.0,1,0,0,20.5
Status,,70,45,5,25,1561097980,28.10,56.0,52.0,1,0,0,28.1
Status,,70,46,5,3,1561097980,0.00,108.0,49.0,0,0,0,0.0
Status,,70,47,5,61,1561097980,0.00,109.0,48.0,0,0,0,0.0
Status,,70,48,5,16,1561097980,17.60,23.0,46.0,1,0,0,17.6
Status,,70,49,5,38,1561097980,22.50,124.0,40.0,1,0,0,22.5
Status,,70,50,5,41,1561097980,23.40,6.0,40.0,1,0,0,23.4
Status,,70,51,5,39,1561097980,22.40,25.0,37.0,1,0,0,22.4
Status,,70,52,5,33,1561097980,19.20,69.0,31.0,1,0,0,19.2
Status,,70,53,5,28,1561097980,38.40,209.0,27.0,1,0,0,38.4
Status,,70,54,5,27,1561097980,17.90,259.0,25.0,1,0,0,17.9
Status,,70,55,5,10,1561097980,0.00,155.0,20.0,0,0,0,0.0
Status,,70,56,5,7,1561097980,0.00,142.0,18.0,0,0,0,0.0
Status,,70,57,5,59,1561097980,0.00,95.0,18.0,0,0,0,0.0
Status,,70,58,5,14,1561097980,0.00,90.0,14.0,0,0,0,0.0
Status,,70,59,5,1,1561097980,0.00,96.0,14.0,0,0,0,0.0
Status,,70,60,5,37,1561097980,20.10,207.0,14.0,1,0,0,20.1
Status,,70,61,5,57,1561097980,0.00,70.0,13.0,0,0,0,0.0
Status,,70,62,5,32,1561097980,24.40,315.0,11.0,1,0,0,24.4
Status,,70,63,5,40,1561097980,0.00,135.0,6.0,0,0,0,0.0
Status,,70,64,5,24,1561097980,0.00,38.0,4.0,0,0,0,0.0
Status,,70,65,5,30,1561097980,0.00,300.0,1.0,0,0,0,0.0
Status,,70,66,4,196,1575420030,0.00,76.0,41.0,0,0,0,0.0
Status,,70,67,4,199,1575420030,0.00,54.0,19.0,0,0,0,0.0
Status,,70,68,4,194,1575420030,0.00,83.0,15.0,0,0,0,0.0
Status,,70,69,4,195,1575420030,0.00,136.0,1.0,0,0,0,0.0
Raw,1727336088999,45055000000,18,66.00864103783317,-1411371261944999936,0.0,66.00864103783317,-4254.012271652825,0.0,0,26,0.0,16431,372906927992147,396,23.57699966430664,-1705.7913679625537,0.14999,20,-77342.10157603228,0.004900000058114529,1575420030,,,,0,2.9645216146785947,1,6.0,23.57699966430664,0.0,0.0,0.0,66.7128,C,,
Raw,1727336088999,45055000000,18,66.00864103783317,-1411371261944999936,0.0,66.00864103783317,-4254.012271652825,0.0,0,28,0.0,16431,372906929094858,235,27.486000061035156,-850.8779020484208,0.14999,17,-39658.51758031725,0.0008999999845400453,1575420030,,,,0,8.389593730562947,1,6.0,27.486000061035156,0.0,0.0,0.0,66.7128,C,,
Raw,1727336088999,45055000000,18,66.00864103783317,-1411371261944999936,0.0,66.00864103783317,-4254.012271652825,0.0,0,31,0.0,16431,372906933112258,396,24.378000259399414,-1288.645801732919,0.14999,20,-58617.637815530084,0.004900000058114529,1575420030,,,,0,4.137431872934071,1,6.0,24.378000259399414,0.0,0.0,0.0,66.7128,C,,
Raw,1727336088999,45055000000,18,66.00864103783317,-1411371261944999936,0.0,66.00864103783317,-4254.012271652825,0.0,0,10,0.0,16431,372906928368684,487,23.628999710083008,-1120.7237146765767,0.14999,16,-51542.97032600179,0.009999999776482582,1575420030,,,,0,3.0645675219235406,1,6.0,23.628999710083008,0.0,0.0,0.0,66.7128,C,,
Raw,1727336088999,45055000000,18,66.00864103783317,-1411371261944999936,0.0,66.00864103783317,-4254.012271652825,0.0,0,4,0.0,16431,372906914363577,487,14.399999618530273,-1128.2440314254088,0.14999,24,-53075.273845091215,0.009999999776482582,1575420030,,,,0,0.0,6,6.0,14.399999618530273,0.0,0.0,-5.236475275061917,66.7128,C,,
Raw,1727336088999,45055000000,18,66.00864103783317,-1411371261944999936,0.0,66.00864103783317,-4254.012271652825,0.0,0,39,0.0,16905,372892873136188,396,22.399999618530273,-1104.1456298828125,0.14999,16,-53605.87195650185,0.004900000058114529,1561097980,,,,0,2.6882925698435507,5,6.0,22.399999618530273,0.0,0.0,-38.87252533060804,66.7128,I,,
Raw,1727336088999,45055000000,18,66.00864103783317,-1411371261944999936,0.0,66.00864103783317,-4254.012271652825,0.0,0,38,0.0,16905,372892874750544,396,22.514999389648438,-1230.815185546875,0.14999,16,-56316.66626837069,0.004900000058114529,1561097980,,,,0,3.2917219330071292,5,6.0,22.514999389648438,0.0,0.0,-38.87252533060804,66.7128,I,,
Raw,1727336088999,45055000000,18,66.00864103783317,-1411371261944999936,0.0,66.00864103783317,-4254.012271652825,0.0,0,8,0.0,16905,372892876847610,487,20.514999389648438,-1295.2261962890625,0.14999,16,-59004.25453486246,0.009999999776482582,1561097980,,,,0,0.0,5,6.0,20.514999389648438,0.0,0.0,-38.87252533060804,66.7128,I,,
Raw,1727336088999,45055000000,18,66.00864103783317,-1411371261944999936,0.0,66.00864103783317,-4254.012271652825,0.0,0,10,0.0,47,372906918411246,235,26.799999237060547,-881.9574674912818,0.14999,29,-42846.449721282304,0.0008999999845400453,1575420030,,,,0,8.305127363421223,6,6.0,26.799999237060547,0.0,0.0,-5.236475275061917,66.7128,C,,
Raw,1727336088999,45055000000,18,66.00864103783317,-1411371261944999936,0.0,66.00864103783317,-4254.012271652825,0.0,0,60,0.0,16905,372892880278978,316,23.864999771118164,-1267.98486328125,0.14999,16,-57799.537255843396,0.002025000052526593,1561097980,,,,0,6.189263264016879,5,6.0,23.864999771118164,0.0,0.0,-38.87252533060804,66.7128,I,,
Raw,1727336088999,45055000000,18,66.00864103783317,-1411371261944999936,0.0,66.00864103783317,-4254.012271652825,0.0,0,33,0.0,16905,372892918828766,487,19.200000762939453,-1227.7596435546875,0.14999,16,-58013.26300481485,0.009999999776482582,1561097980,,,,0,0.0,5,6.0,19.200000762939453,0.0,0.0,-38.87252533060804,66.7128,I,,
Raw,1727336088999,45055000000,18,66.00864103783317,-1411371261944999936,0.0,66.00864103783317,-4254.012271652825,0.0,0,25,0.0,16905,372892925358985,235,28.100000381469727,-1019.582275390625,0.14999,17,-47157.01469156122,0.0008999999845400453,1561097980,,,,0,9.766589526225948,5,6.0,28.100000381469727,0.0,0.0,-38.87252533060804,66.7128,I,,
Raw,1727336088999,45055000000,18,66.00864103783317,-1411371261944999936,0.0,66.00864103783317,-4254.012271652825,0.0,0,3,0.0,32995,38088926857009,797,0.0,-1377.8133929578562,0.14999,16,-60388.440462346574,0.02250000089406967,1604812540,,,,0,0.0,3,6.0,17.0,0.0,0.0,-38.50362008880853,66.7128,C,,
Raw,1727336088999,45055000000,18,66.00864103783317,-1411371261944999936,0.0,66.00864103783317,-4254.012271652825,0.0,0,15,0.0,32995,38088926254760,487,0.0,-2035.4935812499878,0.14999,16,-59353.87679383439,0.009999999776482582,1602000000,,,,0,2.6756274592236533,3,6.0,19.0,0.0,0.0,-38.50362008880853,66.7128,C,,
Raw,1727336088999,45055000000,18,66.00864103783317,-1411371261944999936,0.0,66.00864103783317,-4254.012271652825,0.0,0,18,0.0,32995,38088928992410,487,0.0,-824.2460420213051,0.14999,16,-43759.30691233119,0.009999999776482582,1600312450,,,,0,0.0,3,6.0,20.0,0.0,0.0,-38.50362008880853,66.7128,C,,
Raw,1727336088999,45055000000,18,66.00864103783317,-1411371261944999936,0.0,66.00864103783317,-4254.012271652825,0.0,0,4,0.0,32995,38088924180956,235,24.100000381469727,-1498.2081147500712,0.14999,16,-65156.26396826647,0.0008999999845400453,1605374980,,,,0,8.511934910825413,3,6.0,24.100000381469727,0.0,0.0,-38.50362008880853,66.7128,C,,
Raw,1727336088999,45055000000,18,66.00864103783317,-1411371261944999936,0.0,66.00864103783317,-4254.012271652825,0.0,0,14,0.0,32995,38088934553299,396,0.0,-1539.6973186364935,0.14999,16,-68944.75613974275,0.004900000058114529,1598062460,,,,0,4.89097279423066,3,6.0,21.0,0.0,0.0,-38.50362008880853,66.7128,C,,
Raw,1727336088999,45055000000,18,66.00864103783317,-1411371261944999936,0.0,66.00864103783317,-4254.012271652825,0.0,0,23,0.0,16431,372906919417859,1797,16.36400032043457,-793.3781786412859,0.14999,16,-55882.91711255448,0.02250000089406967,1575420030,,,,0,0.0,1,6.0,16.36400032043457,0.0,0.0,0.0,66.7128,C,,
Raw,1727336088999,45055000000,18,66.00864103783317,-1411371261944999936,0.0,66.00864103783317,-4254.012271652825,0.0,0,2,0.0,47,372906921834472,487,26.459999084472656,-1573.4331985153785,0.14999,17,-68711.16037370359,0.009999999776482582,1575420030,,,,0,7.051895156048076,1,6.0,26.459999084472656,0.0,0.0,0.0,66.7128,C,,
Raw,1727336088999,45055000000,18,66.00864103783317,-1411371261944999936,0.0,66.00864103783317,-4254.012271652825,0.0,0,16,0.0,16431,372906920262720,797,17.08099937438965,-1845.1062206530949,0.14999,16,-59858.75962210731,0.02250000089406967,1575420030,,,,0,0.0,1,6.0,17.08099937438965,0.0,0.0,0.0,66.7128,C,,
Raw,1727336088999,45055000000,18,66.00864103783317,-1411371261944999936,0.0,66.00864103783317,-4254.012271652825,0.0,0,21,0.0,47,372906924614972,797,21.236000061035156,-1383.2606892664908,0.14999,16,-61844.412279028176,0.02250000089406967,1575420030,,,,0,0.0,1,6.0,21.236000061035156,0.0,0.0,0.0,66.7128,C,,
Raw,1727336088999,45055000000,18,66.00864103783317,-1411371261944999936,0.0,66.00864103783317,-4254.012271652825,0.0,0,41,0.0,47,372892921249421,316,23.405000686645508,-1477.979248046875,0.14999,17,-66107.7465796616,0.002025000052526593,1561097980,,,,0,6.557191241732239,5,6.0,23.405000686645508,0.0,0.0,-38.87252533060804,66.7128,I,,
Raw,1727336088999,45055000000,18,66.00864103783317,-1411371261944999936,0.0,66.00864103783317,-4254.012271652825,0.0,0,23,0.0,47,372892925670385,316,24.0,-1595.4434814453125,0.14999,20,-70886.21532068586,0.002025000052526593,1561097980,,,,0,4.787461891997782,5,6.0,24.0,0.0,0.0,-38.87252533060804,66.7128,I,,
Raw,1727336088999,45055000000,18,66.00864103783317,-1411371261944999936,0.0,66.00864103783317,-4254.012271652825,0.0,0,32,0.0,16431,372906921813283,797,21.003000259399414,-1102.300908478785,0.14999,16,-51065.19554808701,0.02250000089406967,1575420030,,,,0,0.0,1,6.0,21.003000259399414,0.0,0.0,0.0,66.7128,C,,
Raw,1727336088999,45055000000,18,66.00864103783317,-1411371261944999936,0.0,66.00864103783317,-4254.012271652825,0.0,0,11,0.0,16431,372906922274776,487,19.0,-1121.709748102229,0.14999,24,-52943.44697118817,0.009999999776482582,1575420030,,,,0,0.0,6,6.0,19.0,0.0,0.0,-5.236475275061917,66.7128,C,,
Raw,1727336088999,45055000000,18,66.00864103783317,-1411371261944999936,0.0,66.00864103783317,-4254.012271652825,0.0,0,24,0.0,16431,372906909284206,1837,9.300000190734863,-1722.4374184907895,0.14999,24,-62852.66094333386,0.02250000089406967,1575420030,,,,0,0.0,6,6.0,9.300000190734863,0.0,0.0,-5.236475275061917,66.7128,C,,
Raw,1727336088999,45055000000,18,66.00864103783317,-1411371261944999936,0.0,66.00864103783317,-4254.012271652825,0.0,0,6,0.0,16431,372906916440083,487,20.0,-1187.8929211664433,0.14999,28,-55262.90571215368,0.009999999776482582,1575420030,,,,0,0.0,6,6.0,20.0,0.0,0.0,-5.236475275061917,66.7128,C,,
Raw,1727336088999,45055000000,18,66.00864103783317,-1411371261944999936,0.0,66.00864103783317,-4254.012271652825,0.0,0,27,0.0,16905,372892918404186,487,17.899999618530273,-1114.990478515625,0.14999,16,-54156.74983601609,0.009999999776482582,1561097980,,,,0,0.0,5,6.0,17.899999618530273,0.0,0.0,-38.87252533060804,66.7128,I,,
