# 
# Header Description:
# 
# Version: v3.1.0.3 Platform: 13 Manufacturer: OPPO Model: CPH2371 GNSS Hardware Model Name: MTK_MNLD_6_0_0_20040301,MNL_VER_22051902ALPS05_6.7o_00
# 
# Raw,utcTimeMillis,TimeNanos,LeapSecond,TimeUncertaintyNanos,FullBiasNanos,BiasNanos,BiasUncertaintyNanos,DriftNanosPerSecond,DriftUncertaintyNanosPerSecond,HardwareClockDiscontinuityCount,Svid,TimeOffsetNanos,State,ReceivedSvTimeNanos,ReceivedSvTimeUncertaintyNanos,Cn0DbHz,PseudorangeRateMetersPerSecond,PseudorangeRateUncertaintyMetersPerSecond,AccumulatedDeltaRangeState,AccumulatedDeltaRangeMeters,AccumulatedDeltaRangeUncertaintyMeters,CarrierFrequencyHz,CarrierCycles,CarrierPhase,CarrierPhaseUncertainty,MultipathIndicator,SnrInDb,ConstellationType,AgcDb,BasebandCn0DbHz,FullInterSignalBiasNanos,FullInterSignalBiasUncertaintyNanos,SatelliteInterSignalBiasNanos,SatelliteInterSignalBiasUncertaintyNanos,CodeType,ChipsetElapsedRealtimeNanos,IsFullTracking
# 
# UncalAccel,utcTimeMillis,elapsedRealtimeNanos,UncalAccelXMps2,UncalAccelYMps2,UncalAccelZMps2,BiasXMps2,BiasYMps2,BiasZMps2
# 
# Accel,utcTimeMillis,elapsedRealtimeNanos,AccelXMps2,AccelYMps2,AccelZMps2
# 
# UncalGyro,utcTimeMillis,elapsedRealtimeNanos,UncalGyroXRadPerSec,UncalGyroYRadPerSec,UncalGyroZRadPerSec,DriftXRadPerSec,DriftYRadPerSec,DriftZRadPerSec
# 
# Gyro,utcTimeMillis,elapsedRealtimeNanos,GyroXRadPerSec,GyroYRadPerSec,GyroZRadPerSec
# 
# UncalMag,utcTimeMillis,elapsedRealtimeNanos,UncalMagXMicroT,UncalMagYMicroT,UncalMagZMicroT,BiasXMicroT,BiasYMicroT,BiasZMicroT
# 
# Mag,utcTimeMillis,elapsedRealtimeNanos,MagXMicroT,MagYMicroT,MagZMicroT
# 
# Pressure,utcTimeMillis,elapsedRealtimeNanos,PressureHpa
# 
# OrientationDeg,utcTimeMillis,elapsedRealtimeNanos,yawDeg,rollDeg,pitchDeg
# 
# Fix,Provider,LatitudeDegrees,LongitudeDegrees,AltitudeMeters,SpeedMps,AccuracyMeters,BearingDegrees,UnixTimeMillis,SpeedAccuracyMps,BearingAccuracyDegrees,elapsedRealtimeNanos,VerticalAccuracyMeters,MockLocation,NumberOfUsedSignals,VerticalSpeedAccuracyMps,SolutionType
# 
# Nav,Svid,Type,Status,MessageId,Sub-messageId,Data(Bytes)
# 
# Status,UnixTimeMillis,SignalCount,SignalIndex,ConstellationType,Svid,CarrierFrequencyHz,Cn0DbHz,AzimuthDegrees,ElevationDegrees,UsedInFix,HasAlmanacData,HasEphemerisData,BasebandCn0DbHz
# 
# Agc,utcTimeMillis,TimeNanos,LeapSecond,TimeUncertaintyNanos,FullBiasNanos,BiasNanos,BiasUncertaintyNanos,DriftNanosPerSecond,DriftUncertaintyNanosPerSecond,HardwareClockDiscontinuityCount,AgcDb,CarrierFrequencyHz,ConstellationType
# 
Fix,FLP,12.9402992000,77.5450508000,812.5,0.19266102,11.54,309.30017,1730960143768,1.5,45.0,2273694910000000,1.0842034,0,,,
Raw,1730960147862,11012000000,18,704362.1261646282,-1414995354850999808,0.0,1394.8152435910554,-3842.1376442679593,0.0,0,26,0.0,47,368165794416512,316,26.875999450683594,-1031.60364986189,0.14999,17,-11080.322045274708,0.002025000052526593,1575420030,,,,0,7.601183023786722,1,6.0,26.875999450683594,0.0,0.0,0.0,66.7128,C,,
Raw,1730960147862,11012000000,18,704362.1261646282,-1414995354850999808,0.0,1394.8152435910554,-3842.1376442679593,0.0,0,31,0.0,47,368165791020568,58,32.89699935913086,-705.0014484859679,0.14999,17,-7571.502634014019,0.00039999998989515007,1575420030,,,,0,14.978086172881643,1,6.0,32.89699935913086,0.0,0.0,0.0,66.7128,C,,
Raw,1730960147862,11012000000,18,704362.1261646282,-1414995354850999808,0.0,1394.8152435910554,-3842.1376442679593,0.0,0,3,0.0,47,368165789370282,487,18.01099967956543,-1707.0217726574735,0.14999,16,-15396.85916181166,0.009999999776482582,1575420030,,,,0,0.0,1,6.0,18.01099967956543,0.0,0.0,0.0,66.7128,C,,
Raw,1730960147862,11012000000,18,704362.1261646282,-1414995354850999808,0.0,1394.8152435910554,-3842.1376442679593,0.0,0,21,0.0,47,368165785802070,797,19.51300048828125,-919.1349788122733,0.14999,16,-11670.3403654651,0.02250000089406967,1575420030,,,,0,0.0,1,6.0,19.51300048828125,0.0,0.0,0.0,66.7128,C,,
Raw,1730960147862,11012000000,18,704362.1261646282,-1414995354850999808,0.0,1394.8152435910554,-3842.1376442679593,0.0,0,9,0.0,47,368151736924881,316,26.399999618530273,-1009.1043090820312,0.14999,17,-10842.42595031751,0.002025000052526593,1561097980,,,,0,5.780823618576059,5,6.0,26.399999618530273,0.0,0.0,35.85028947406112,66.7128,I,,
Raw,1730960148862,12012000000,18,704274.4613508589,-1414995354850999808,0.0,616.6099957228316,-3836.400139381722,0.0,0,26,0.0,47,368166794419953,316,25.738000869750977,-1031.0847093528184,0.14999,20,-12112.141914260723,0.002025000052526593,1575420030,,,,0,6.075171127161026,1,6.0,25.738000869750977,0.0,0.0,0.0,66.7128,C,,
Raw,1730960148862,12012000000,18,704274.4613508589,-1414995354850999808,0.0,616.6099957228316,-3836.400139381722,0.0,0,31,0.0,47,368166791022921,235,29.180999755859375,-704.1824795250086,0.14999,20,-8276.579561659504,0.0008999999845400453,1575420030,,,,0,10.541111180554514,1,6.0,29.180999755859375,0.0,0.0,0.0,66.7128,C,,
Raw,1730960148862,12012000000,18,704274.4613508589,-1414995354850999808,0.0,616.6099957228316,-3836.400139381722,0.0,0,3,0.0,47,368166789376044,487,18.493999481201172,-1706.406849060511,0.14999,16,-17103.871868022103,0.009999999776482582,1575420030,,,,0,0.0,1,6.0,18.493999481201172,0.0,0.0,0.0,66.7128,C,,
Raw,1730960148862,12012000000,18,704274.4613508589,-1414995354850999808,0.0,616.6099957228316,-3836.400139381722,0.0,0,21,0.0,47,368166785805137,1797,19.51300048828125,-918.9194117610564,0.14999,16,-12589.592929280232,0.02250000089406967,1575420030,,,,0,0.0,1,6.0,19.51300048828125,0.0,0.0,0.0,66.7128,C,,
Raw,1730960148862,12012000000,18,704274.4613508589,-1414995354850999808,0.0,616.6099957228316,-3836.400139381722,0.0,0,9,0.0,47,368152736928249,396,23.0,-1008.566162109375,0.14999,20,-11851.683922797249,0.004900000058114529,1561097980,,,,0,3.5218251811136247,5,6.0,23.0,0.0,0.0,-22.72191922480081,66.7128,I,,
Raw,1730960150000,13149000000,18,576.3771350992635,-1414995354851000064,0.0,576.3771350992635,-3836.8350446852037,0.0,0,26,0.0,16431,368167931423868,316,26.89699935913086,-1030.8919998423771,0.14999,16,-13286.028006018369,0.002025000052526593,1575420030,,,,0,7.63155329821756,1,6.0,26.89699935913086,0.0,0.0,0.0,66.7128,C,,
Raw,1730960150000,13149000000,18,576.3771350992635,-1414995354851000064,0.0,576.3771350992635,-3836.8350446852037,0.0,0,31,0.0,16431,368167928025591,58,32.94599914550781,-704.1926074597425,0.14999,17,-9079.19481727869,0.00039999998989515007,1575420030,,,,0,15.02998111224407,1,6.0,32.94599914550781,0.0,0.0,0.0,66.7128,C,,
Raw,1730960150000,13149000000,18,576.3771350992635,-1414995354851000064,0.0,576.3771350992635,-3836.8350446852037,0.0,0,3,0.0,47,368167926382517,487,18.2450008392334,-1706.3942123713016,0.14999,16,-19045.94234617312,0.009999999776482582,1575420030,,,,0,0.0,1,6.0,18.2450008392334,0.0,0.0,0.0,66.7128,C,,
Raw,1730960150000,13149000000,18,576.3771350992635,-1414995354851000064,0.0,576.3771350992635,-3836.8350446852037,0.0,0,21,0.0,47,368167922808622,1797,19.51300048828125,-918.658501295618,0.14999,16,-13635.987504256704,0.02250000089406967,1575420030,,,,0,0.0,1,6.0,19.51300048828125,0.0,0.0,0.0,66.7128,C,,
Raw,1730960150000,13149000000,18,576.3771350992635,-1414995354851000064,0.0,576.3771350992635,-3836.8350446852037,0.0,0,9,0.0,47,368153873932076,235,28.600000381469727,-1008.50390625,0.14999,17,-12999.895093783081,0.0008999999845400453,1561097980,,,,0,10.375489289398503,5,6.0,28.600000381469727,0.0,0.0,-13.64337330976971,66.7128,I,,
Raw,1730960150000,13149000000,18,576.3771350992635,-1414995354851000064,0.0,576.3771350992635,-3836.8350446852037,0.0,0,5,0.0,17,74439,316,0.0,-1059.5145353168552,0.14999,16,-14542.081288280515,0.002025000052526593,1602562560,,,,0,5.769625770455277,3,6.0,24.0,0.0,0.0,88.29548182124609,66.7128,C,,
Raw,1730960151000,14149000000,18,540.0498185609063,-1414995354851000064,0.0,540.0498185609063,-3837.7609496740397,0.0,0,26,0.0,16431,368168931427304,487,20.95800018310547,-1029.5637537229177,0.14999,16,-14314.324119148429,0.009999999776482582,1575420030,,,,0,0.0,1,6.0,20.95800018310547,0.0,0.0,0.0,66.7128,C,,
Raw,1730960151000,14149000000,18,540.0498185609063,-1414995354851000064,0.0,540.0498185609063,-3837.7609496740397,0.0,0,31,0.0,16431,368168928027938,235,29.46500015258789,-703.4331517299488,0.14999,17,-9781.236853560098,0.0008999999845400453,1575420030,,,,0,10.902190368541802,1,6.0,29.46500015258789,0.0,0.0,0.0,66.7128,C,,
Raw,1730960151000,14149000000,18,540.0498185609063,-1414995354851000064,0.0,540.0498185609063,-3837.7609496740397,0.0,0,3,0.0,47,368168926388220,797,18.218000411987305,-1705.697893629138,0.14999,16,-20750.464540415083,0.02250000089406967,1575420030,,,,0,0.0,1,6.0,18.218000411987305,0.0,0.0,0.0,66.7128,C,,
Raw,1730960151000,14149000000,18,540.0498185609063,-1414995354851000064,0.0,540.0498185609063,-3837.7609496740397,0.0,0,21,0.0,47,368168922811685,797,19.51300048828125,-918.4573363534264,0.14999,16,-14552.81275987496,0.02250000089406967,1575420030,,,,0,0.0,1,6.0,19.51300048828125,0.0,0.0,0.0,66.7128,C,,
Raw,1730960151000,14149000000,18,540.0498185609063,-1414995354851000064,0.0,540.0498185609063,-3837.7609496740397,0.0,0,9,0.0,47,368154873935439,797,25.299999237060547,-1008.5170288085938,0.14999,21,-14006.41245273025,0.02250000089406967,1561097980,,,,0,6.501530111568003,5,6.0,25.299999237060547,0.0,0.0,-10.40230189851675,66.7128,I,,
Raw,1730960151000,14149000000,18,540.0498185609063,-1414995354851000064,0.0,540.0498185609063,-3837.7609496740397,0.0,0,16,0.0,17,454387,235,0.0,-597.5671004295317,0.14999,16,-15362.206468359971,0.0008999999845400453,1601437440,,,,0,10.430044329030686,3,6.0,29.0,0.0,0.0,-32.68011749465177,66.7128,C,,
Raw,1730960151000,14149000000,18,540.0498185609063,-1414995354851000064,0.0,540.0498185609063,-3837.7609496740397,0.0,0,5,0.0,17,77936,487,0.0,-1060.252770298658,0.14999,16,-15600.015816737043,0.009999999776482582,1602562560,,,,0,0.0,3,6.0,19.0,0.0,0.0,-32.68011749465177,66.7128,C,,
Raw,1730960152000,15149000000,18,494.270671027907,-1414995354851000064,0.0,494.270671027907,-3832.10676982214,0.0,0,26,0.0,16431,368169931430735,487,22.672000885009766,-1028.620926624341,0.14999,16,-15344.036857404568,0.009999999776482582,1575420030,,,,0,1.6260987935496067,1,6.0,22.672000885009766,0.0,0.0,0.0,66.7128,C,,
Raw,1730960152000,15149000000,18,494.270671027907,-1414995354851000064,0.0,494.270671027907,-3832.10676982214,0.0,0,31,0.0,16431,368169928030287,235,27.83799934387207,-702.4858181649997,0.14999,20,-10484.37078806018,0.0008999999845400453,1575420030,,,,0,8.846169150749958,1,6.0,27.83799934387207,0.0,0.0,0.0,66.7128,C,,
Raw,1730960152000,15149000000,18,494.270671027907,-1414995354851000064,0.0,494.270671027907,-3832.10676982214,0.0,0,3,0.0,47,368169926393876,797,18.18000030517578,-1703.5214097465068,0.14999,16,-22455.37163450513,0.02250000089406967,1575420030,,,,0,0.0,1,6.0,18.18000030517578,0.0,0.0,0.0,66.7128,C,,
Raw,1730960152000,15149000000,18,494.270671027907,-1414995354851000064,0.0,494.270671027907,-3832.10676982214,0.0,0,21,0.0,47,368169922814723,797,18.086999893188477,-916.5495679501569,0.14999,16,-15470.845914569865,0.02250000089406967,1575420030,,,,0,0.0,1,6.0,18.086999893188477,0.0,0.0,0.0,66.7128,C,,
Raw,1730960152000,15149000000,18,494.270671027907,-1414995354851000064,0.0,494.270671027907,-3832.10676982214,0.0,0,41,0.0,47,368155924399579,235,26.299999237060547,-1244.3502197265625,0.14999,16,-17557.58863885085,0.0008999999845400453,1561097980,,,,0,7.679149793539929,5,6.0,26.299999237060547,0.0,0.0,-10.556477348701119,66.7128,I,,
Raw,1730960152000,15149000000,18,494.270671027907,-1414995354851000064,0.0,494.270671027907,-3832.10676982214,0.0,0,9,0.0,47,368155873938801,797,25.299999237060547,-1006.6185913085938,0.14999,17,-15014.527476734263,0.02250000089406967,1561097980,,,,0,6.501530111568003,5,6.0,25.299999237060547,0.0,0.0,-10.556477348701119,66.7128,I,,
Raw,1730960152000,15149000000,18,494.270671027907,-1414995354851000064,0.0,494.270671027907,-3832.10676982214,0.0,0,16,0.0,17,456374,316,0.0,-594.8177067427217,0.14999,16,-15958.545238928828,0.002025000052526593,1601437440,,,,0,4.938942326383499,3,6.0,25.0,0.0,0.0,-27.115381711370674,66.7128,C,,
Raw,1730960152000,15149000000,18,494.270671027907,-1414995354851000064,0.0,494.270671027907,-3832.10676982214,0.0,0,5,0.0,17,81469,487,0.0,-1057.4584020032717,0.14999,16,-16659.299863083244,0.009999999776482582,1602562560,,,,0,0.0,3,6.0,18.0,0.0,0.0,-27.115381711370674,66.7128,C,,
Raw,1730960153000,16149000000,18,430.7810596079991,-1414995354851000064,0.0,430.7810596079991,-3845.140378471012,0.0,0,26,0.0,16431,368170931434167,235,27.43000030517578,-1032.466196817255,0.14999,16,-16374.623342811052,0.0008999999845400453,1575420030,,,,0,8.330292862401365,1,6.0,27.43000030517578,0.0,0.0,0.0,66.7128,C,,
Raw,1730960153000,16149000000,18,430.7810596079991,-1414995354851000064,0.0,430.7810596079991,-3845.140378471012,0.0,0,31,0.0,16431,368170928032637,74,31.993999481201172,-707.4607247480728,0.14999,17,-11188.432227905463,0.0006249999860301614,1575420030,,,,0,13.928155751428369,1,6.0,31.993999481201172,0.0,0.0,0.0,66.7128,C,,
Raw,1730960153000,16149000000,18,430.7810596079991,-1414995354851000064,0.0,430.7810596079991,-3845.140378471012,0.0,0,3,0.0,47,368170926399568,797,18.18899917602539,-1707.416855028928,0.14999,16,-24160.91767781364,0.02250000089406967,1575420030,,,,0,0.0,1,6.0,18.18899917602539,0.0,0.0,0.0,66.7128,C,,
Raw,1730960153000,16149000000,18,430.7810596079991,-1414995354851000064,0.0,430.7810596079991,-3845.140378471012,0.0,0,21,0.0,47,368170922817786,797,18.086999893188477,-919.8712517923778,0.14999,16,-16389.034188922218,0.02250000089406967,1575420030,,,,0,0.0,1,6.0,18.086999893188477,0.0,0.0,0.0,66.7128,C,,
Raw,1730960153000,16149000000,18,430.7810596079991,-1414995354851000064,0.0,430.7810596079991,-3845.140378471012,0.0,0,41,0.0,47,368156924403718,235,29.399999618530273,-1244.9600830078125,0.14999,16,-18802.48260237288,0.0008999999845400453,1561097980,,,,0,11.26586137896404,5,6.0,29.399999618530273,0.0,0.0,-13.201363880711678,66.7128,I,,
Raw,1730960153000,16149000000,18,430.7810596079991,-1414995354851000064,0.0,430.7810596079991,-3845.140378471012,0.0,0,9,0.0,47,368156873942169,396,21.0,-1010.0076904296875,0.14999,20,-16022.87633284542,0.004900000058114529,1561097980,,,,0,0.7808180847697392,5,6.0,21.0,0.0,0.0,-13.201363880711678,66.7128,I,,
Raw,1730960153000,16149000000,18,430.7810596079991,-1414995354851000064,0.0,430.7810596079991,-3845.140378471012,0.0,0,9,0.0,32995,33352935748663,396,0.0,-1356.0162777211174,0.14999,16,-18322.48207270815,0.004900000058114529,1600875010,,,,0,1.370292828971824,3,6.0,21.0,0.0,0.0,-19.908678033106526,66.7128,C,,
Raw,1730960153000,16149000000,18,430.7810596079991,-1414995354851000064,0.0,430.7810596079991,-3845.140378471012,0.0,0,16,0.0,17,458342,316,0.0,-600.4342266850739,0.14999,16,-16555.857880532072,0.002025000052526593,1601437440,,,,0,5.882066041448298,3,6.0,25.0,0.0,0.0,-19.908678033106526,66.7128,C,,
Raw,1730960153000,16149000000,18,430.7810596079991,-1414995354851000064,0.0,430.7810596079991,-3845.140378471012,0.0,0,5,0.0,17,85008,797,21.399999618530273,-1060.9997742186263,0.14999,16,-17718.876582103385,0.02250000089406967,1602562560,,,,0,0.0,3,6.0,21.399999618530273,0.0,0.0,-19.908678033106526,66.7128,C,,
Raw,1730960153000,16149000000,18,430.7810596079991,-1414995354851000064,0.0,430.7810596079991,-3845.140378471012,0.0,0,39,0.0,16905,368156871074335,316,24.399999618530273,-1044.95751953125,0.14999,16,-18368.305063127653,0.002025000052526593,1561097980,,,,0,5.280450803368443,5,6.0,24.399999618530273,0.0,0.0,-13.201363880711678,66.7128,I,,
Raw,1730960153000,16149000000,18,430.7810596079991,-1414995354851000064,0.0,430.7810596079991,-3845.140378471012,0.0,0,23,0.0,16905,368156926813926,235,26.899999618530273,-968.3584594726562,0.14999,16,-18384.457703987133,0.0008999999845400453,1561097980,,,,0,8.42751679159897,5,6.0,26.899999618530273,0.0,0.0,-13.201363880711678,66.7128,I,,
Raw,1730960153000,16149000000,18,430.7810596079991,-1414995354851000064,0.0,430.7810596079991,-3845.140378471012,0.0,0,13,0.0,16905,368156878903930,797,17.299999237060547,-1026.8538818359375,0.14999,16,-18317.000290493128,0.02250000089406967,1561097980,,,,0,0.0,5,6.0,17.299999237060547,0.0,0.0,-13.201363880711678,66.7128,I,,
Raw,1730960153000,16149000000,18,430.7810596079991,-1414995354851000064,0.0,430.7810596079991,-3845.140378471012,0.0,0,27,0.0,16905,368156914247134,396,21.100000381469727,-947.1944580078125,0.14999,16,-18157.19715911336,0.004900000058114529,1561097980,,,,0,0.8590698720307388,5,6.0,21.100000381469727,0.0,0.0,-13.201363880711678,66.7128,I,,
Raw,1730960153000,16149000000,18,430.7810596079991,-1414995354851000064,0.0,430.7810596079991,-3845.140378471012,0.0,0,15,0.0,16431,368170913055209,487,17.799999237060547,-693.5630612060199,0.14999,24,-17470.793563842883,0.009999999776482582,1575420030,,,,0,0.0,6,6.0,17.799999237060547,0.0,0.0,39.0719806793456,66.7128,C,,
Raw,1730960154000,17149000000,18,314.21344836328194,-1414995354851000064,0.0,314.21344836328194,-3867.7215021147963,0.0,0,26,0.0,16431,368171931437625,235,27.507999420166016,-1038.4470674865347,0.14999,17,-17411.018104302624,0.0008999999845400453,1575420030,,,,0,8.413811675484089,1,6.0,27.507999420166016,0.0,0.0,0.0,66.7128,C,,
Raw,1730960154000,17149000000,18,314.21344836328194,-1414995354851000064,0.0,314.21344836328194,-3867.7215021147963,0.0,0,31,0.0,16431,368171928035001,74,32.301998138427734,-712.3957700100373,0.14999,17,-11898.743899845595,0.0006249999860301614,1575420030,,,,0,14.287722390784394,1,6.0,32.301998138427734,0.0,0.0,0.0,66.7128,C,,
Raw,1730960154000,17149000000,18,314.21344836328194,-1414995354851000064,0.0,314.21344836328194,-3867.7215021147963,0.0,0,3,0.0,47,368171926405277,487,18.197999954223633,-1713.8422398245102,0.14999,16,-25872.786030546104,0.009999999776482582,1575420030,,,,0,0.0,1,6.0,18.197999954223633,0.0,0.0,0.0,66.7128,C,,
Raw,1730960154000,17149000000,18,314.21344836328194,-1414995354851000064,0.0,314.21344836328194,-3867.7215021147963,0.0,0,21,0.0,47,368171922820869,487,18.086999893188477,-926.4482768584713,0.14999,16,-17313.438156440618,0.009999999776482582,1575420030,,,,0,0.0,1,6.0,18.086999893188477,0.0,0.0,0.0,66.7128,C,,
Raw,1730960154000,17149000000,18,314.21344836328194,-1414995354851000064,0.0,314.21344836328194,-3867.7215021147963,0.0,0,37,0.0,47,368157923030778,235,23.700000762939453,-1517.322998046875,0.14999,16,-21411.742949874668,0.0008999999845400453,1561097980,,,,0,4.445570628494297,5,6.0,23.700000762939453,0.0,0.0,-13.943215682922325,66.7128,I,,
Raw,1730960154000,17149000000,18,314.21344836328194,-1414995354851000064,0.0,314.21344836328194,-3867.7215021147963,0.0,0,41,0.0,47,368157924407875,74,29.399999618530273,-1248.89111328125,0.14999,16,-20049.255891194745,0.0006249999860301614,1561097980,,,,0,11.26586137896404,5,6.0,29.399999618530273,0.0,0.0,-13.943215682922325,66.7128,I,,
Raw,1730960154000,17149000000,18,314.21344836328194,-1414995354851000064,0.0,314.21344836328194,-3867.7215021147963,0.0,0,2,0.0,16431,368171917452810,797,17.100000381469727,-1020.4236178344888,0.14999,24,-19097.826374664237,0.02250000089406967,1575420030,,,,0,0.0,6,6.0,17.100000381469727,0.0,0.0,23.787074893839144,66.7128,C,,
Raw,1730960154000,17149000000,18,314.21344836328194,-1414995354851000064,0.0,314.21344836328194,-3867.7215021147963,0.0,0,13,0.0,16431,368171915822404,487,20.399999618530273,-960.1571099083517,0.14999,24,-19297.060444101488,0.009999999776482582,1575420030,,,,0,0.0,6,6.0,20.399999618530273,0.0,0.0,23.787074893839144,66.7128,C,,
Raw,1730960154000,17149000000,18,314.21344836328194,-1414995354851000064,0.0,314.21344836328194,-3867.7215021147963,0.0,0,9,0.0,47,368157873945542,316,21.1200008392334,-1016.9932250976562,0.14999,16,-17037.57387764304,0.002025000052526593,1561097980,,,,0,4.0770230576895825,5,6.0,21.1200008392334,0.0,0.0,-13.943215682922325,66.7128,I,,
Raw,1730960154000,17149000000,18,314.21344836328194,-1414995354851000064,0.0,314.21344836328194,-3867.7215021147963,0.0,0,9,0.0,32995,33353935753206,487,0.0,-1362.502530968923,0.14999,16,-19682.76145809277,0.009999999776482582,1600875010,,,,0,0.0,3,6.0,19.0,0.0,0.0,-22.026477746481305,66.7128,C,,
Raw,1730960154000,17149000000,18,314.21344836328194,-1414995354851000064,0.0,314.21344836328194,-3867.7215021147963,0.0,0,16,0.0,17,460361,316,0.0,-605.3833821209713,0.14999,16,-17159.610225878783,0.002025000052526593,1601437440,,,,0,5.481987247255795,3,6.0,25.0,0.0,0.0,-22.026477746481305,66.7128,C,,
Raw,1730960154000,17149000000,18,314.21344836328194,-1414995354851000064,0.0,314.21344836328194,-3867.7215021147963,0.0,0,5,0.0,17,88562,797,20.0,-1068.159246858283,0.14999,16,-18784.688922339854,0.02250000089406967,1602562560,,,,0,0.0,3,6.0,20.0,0.0,0.0,-22.026477746481305,66.7128,C,,
Raw,1730960154000,17149000000,18,314.21344836328194,-1414995354851000064,0.0,314.21344836328194,-3867.7215021147963,0.0,0,16,0.0,16431,368171930460569,487,18.305999755859375,-1559.4969744878708,0.14999,16,-20113.573142788504,0.009999999776482582,1575420030,,,,0,0.0,1,6.0,18.305999755859375,0.0,0.0,0.0,66.7128,C,,
Raw,1730960154000,17149000000,18,314.21344836328194,-1414995354851000064,0.0,314.21344836328194,-3867.7215021147963,0.0,0,39,0.0,16905,368157871077853,396,22.200000762939453,-1051.4139404296875,0.14999,16,-19417.626941714265,0.004900000058114529,1561097980,,,,0,2.357890089803682,5,6.0,22.200000762939453,0.0,0.0,-13.943215682922325,66.7128,I,,
Raw,1730960154000,17149000000,18,314.21344836328194,-1414995354851000064,0.0,314.21344836328194,-3867.7215021147963,0.0,0,23,0.0,16905,368157926817150,316,25.399999618530273,-973.6956176757812,0.14999,16,-19356.885228528936,0.002025000052526593,1561097980,,,,0,6.622730538134834,5,6.0,25.399999618530273,0.0,0.0,-13.943215682922325,66.7128,I,,
Raw,1730960154000,17149000000,18,314.21344836328194,-1414995354851000064,0.0,314.21344836328194,-3867.7215021147963,0.0,0,8,0.0,16431,368171915801050,396,21.600000381469727,-1228.810334992383,0.14999,24,-19595.759108030994,0.004900000058114529,1575420030,,,,0,1.6260987935496067,6,6.0,21.600000381469727,0.0,0.0,23.787074893839144,66.7128,C,,
Raw,1730960154000,17149000000,18,314.21344836328194,-1414995354851000064,0.0,314.21344836328194,-3867.7215021147963,0.0,0,13,0.0,16905,368157878907351,487,19.600000381469727,-1033.6505126953125,0.14999,16,-19348.553496691344,0.009999999776482582,1561097980,,,,0,0.0,5,6.0,19.600000381469727,0.0,0.0,-13.943215682922325,66.7128,I,,
Raw,1730960154000,17149000000,18,314.21344836328194,-1414995354851000064,0.0,314.21344836328194,-3867.7215021147963,0.0,0,38,0.0,16905,368157873021433,797,13.899999618530273,-961.8359985351562,0.14999,16,-19406.030740741004,0.02250000089406967,1561097980,,,,0,0.0,5,6.0,13.899999618530273,0.0,0.0,-13.943215682922325,66.7128,I,,
Raw,1730960154000,17149000000,18,314.21344836328194,-1414995354851000064,0.0,314.21344836328194,-3867.7215021147963,0.0,0,27,0.0,16905,368157914250312,396,20.299999237060547,-953.7986450195312,0.14999,16,-19109.0488871531,0.004900000058114529,1561097980,,,,0,0.0,5,6.0,20.299999237060547,0.0,0.0,-13.943215682922325,66.7128,I,,
Raw,1730960154000,17149000000,18,314.21344836328194,-1414995354851000064,0.0,314.21344836328194,-3867.7215021147963,0.0,0,15,0.0,16431,368171913057537,487,18.799999237060547,-700.3703806412691,0.14999,24,-18168.857330926156,0.009999999776482582,1575420030,,,,0,0.0,6,6.0,18.799999237060547,0.0,0.0,23.787074893839144,66.7128,C,,
Raw,1730960155000,18149000000,18,266.24159636202336,-1414995354851000064,0.0,266.24159636202336,-3872.1166871749656,0.0,0,26,0.0,16431,368172931441088,396,24.118000030517578,-1038.9571808965266,0.14999,20,-18449.93270466694,0.004900000058114529,1575420030,,,,0,3.7617821439115477,1,6.0,24.118000030517578,0.0,0.0,0.0,66.7128,C,,
Raw,1730960155000,18149000000,18,266.24159636202336,-1414995354851000064,0.0,266.24159636202336,-3872.1166871749656,0.0,0,31,0.0,16431,368172928037375,74,30.670000076293945,-713.7748416368308,0.14999,21,-12611.85890862514,0.0006249999860301614,1575420030,,,,0,12.354803912262495,1,6.0,30.670000076293945,0.0,0.0,0.0,66.7128,C,,
Raw,1730960155000,18149000000,18,266.24159636202336,-1414995354851000064,0.0,266.24159636202336,-3872.1166871749656,0.0,0,3,0.0,47,368172926411006,487,23.39699935913086,-1715.70856732052,0.14999,16,-27587.562422869858,0.009999999776482582,1575420030,,,,0,2.7061280784472483,1,6.0,23.39699935913086,0.0,0.0,0.0,66.7128,C,,
Raw,1730960155000,18149000000,18,266.24159636202336,-1414995354851000064,0.0,266.24159636202336,-3872.1166871749656,0.0,0,21,0.0,47,368172922823896,487,22.26300048828125,-927.8005884375277,0.14999,16,-18240.61562868792,0.009999999776482582,1575420030,,,,0,0.9986860861612655,1,6.0,22.26300048828125,0.0,0.0,0.0,66.7128,C,,
Raw,1730960155000,18149000000,18,266.24159636202336,-1414995354851000064,0.0,266.24159636202336,-3872.1166871749656,0.0,0,37,0.0,47,368158923035844,316,26.600000381469727,-1521.003173828125,0.14999,16,-22931.296903991424,0.002025000052526593,1561097980,,,,0,7.993131797734244,5,6.0,26.600000381469727,0.0,0.0,-10.939547479872456,66.7128,I,,
Raw,1730960155000,18149000000,18,266.24159636202336,-1414995354851000064,0.0,266.24159636202336,-3872.1166871749656,0.0,0,41,0.0,47,368158924412035,316,29.100000381469727,-1253.9197998046875,0.14999,16,-21298.489244677294,0.002025000052526593,1561097980,,,,0,10.979093447089136,5,6.0,29.100000381469727,0.0,0.0,-10.939547479872456,66.7128,I,,
Raw,1730960155000,18149000000,18,266.24159636202336,-1414995354851000064,0.0,266.24159636202336,-3872.1166871749656,0.0,0,2,0.0,16431,368172917456213,487,17.799999237060547,-1022.2717336313441,0.14999,24,-20119.399291019792,0.009999999776482582,1575420030,,,,0,0.0,6,6.0,17.799999237060547,0.0,0.0,-22.418091021741294,66.7128,C,,
Raw,1730960155000,18149000000,18,266.24159636202336,-1414995354851000064,0.0,266.24159636202336,-3872.1166871749656,0.0,0,13,0.0,16431,368172915825609,396,22.899999618530273,-961.3755283318892,0.14999,25,-20257.73771265858,0.004900000058114529,1575420030,,,,0,3.374603188186243,6,6.0,22.899999618530273,0.0,0.0,-22.418091021741294,66.7128,C,,
Raw,1730960155000,18149000000,18,266.24159636202336,-1414995354851000064,0.0,266.24159636202336,-3872.1166871749656,0.0,0,9,0.0,47,368158873948955,396,21.159000396728516,-1018.1846313476562,0.14999,16,-18055.336287249746,0.004900000058114529,1561097980,,,,0,1.955383034583883,5,6.0,21.159000396728516,0.0,0.0,-10.939547479872456,66.7128,I,,
Raw,1730960155000,18149000000,18,266.24159636202336,-1414995354851000064,0.0,266.24159636202336,-3872.1166871749656,0.0,0,9,0.0,32995,33354935757787,797,0.0,-1363.901370782625,0.14999,16,-21045.995842863664,0.02250000089406967,1600875010,,,,0,0.0,3,6.0,17.0,0.0,0.0,-24.18118193932844,66.7128,C,,
Raw,1730960155000,18149000000,18,266.24159636202336,-1414995354851000064,0.0,266.24159636202336,-3872.1166871749656,0.0,0,16,0.0,17,462388,235,0.0,-606.520945644164,0.14999,16,-17765.66100255635,0.0008999999845400453,1601437440,,,,0,8.643757052144245,3,6.0,27.0,0.0,0.0,-24.18118193932844,66.7128,C,,
Raw,1730960155000,18149000000,18,266.24159636202336,-1414995354851000064,0.0,266.24159636202336,-3872.1166871749656,0.0,0,5,0.0,17,92160,487,17.100000381469727,-1069.3839752220558,0.14999,16,-19853.6146906279,0.009999999776482582,1602562560,,,,0,0.0,3,6.0,17.100000381469727,0.0,0.0,-24.18118193932844,66.7128,C,,
Raw,1730960155000,18149000000,18,266.24159636202336,-1414995354851000064,0.0,266.24159636202336,-3872.1166871749656,0.0,0,16,0.0,16431,368172930465845,396,21.187000274658203,-1559.4891694739474,0.14999,16,-21673.526540785377,0.004900000058114529,1575420030,,,,0,0.0,1,6.0,21.187000274658203,0.0,0.0,0.0,66.7128,C,,
Raw,1730960155000,18149000000,18,266.24159636202336,-1414995354851000064,0.0,266.24159636202336,-3872.1166871749656,0.0,0,39,0.0,16905,368158871081362,487,23.600000381469727,-1052.56640625,0.14999,16,-20469.801549690943,0.009999999776482582,1561097980,,,,0,4.341857281193922,5,6.0,23.600000381469727,0.0,0.0,-10.939547479872456,66.7128,I,,
Raw,1730960155000,18149000000,18,266.24159636202336,-1414995354851000064,0.0,266.24159636202336,-3872.1166871749656,0.0,0,23,0.0,16905,368158926820401,487,26.299999237060547,-976.1292114257812,0.14999,17,-20331.87010922218,0.009999999776482582,1561097980,,,,0,7.679149793539929,5,6.0,26.299999237060547,0.0,0.0,-10.939547479872456,66.7128,I,,
Raw,1730960155000,18149000000,18,266.24159636202336,-1414995354851000064,0.0,266.24159636202336,-3872.1166871749656,0.0,0,8,0.0,16431,368172915805219,316,25.700000762939453,-1230.6108773710387,0.14999,25,-20825.464672080794,0.002025000052526593,1575420030,,,,0,7.003005039401207,6,6.0,25.700000762939453,0.0,0.0,-22.418091021741294,66.7128,C,,
Raw,1730960155000,18149000000,18,266.24159636202336,-1414995354851000064,0.0,266.24159636202336,-3872.1166871749656,0.0,0,13,0.0,16905,368158878910788,487,19.399999618530273,-1033.656494140625,0.14999,16,-20382.59439139469,0.009999999776482582,1561097980,,,,0,0.0,5,6.0,19.399999618530273,0.0,0.0,-10.939547479872456,66.7128,I,,
Raw,1730960155000,18149000000,18,266.24159636202336,-1414995354851000064,0.0,266.24159636202336,-3872.1166871749656,0.0,0,38,0.0,16905,368158873024643,797,13.899999618530273,-962.9877319335938,0.14999,16,-20368.46062369091,0.02250000089406967,1561097980,,,,0,0.0,5,6.0,13.899999618530273,0.0,0.0,-10.939547479872456,66.7128,I,,
Raw,1730960155000,18149000000,18,266.24159636202336,-1414995354851000064,0.0,266.24159636202336,-3872.1166871749656,0.0,0,27,0.0,16905,368158914253495,487,19.899999618530273,-954.504150390625,0.14999,16,-20063.3684451222,0.009999999776482582,1561097980,,,,0,0.0,5,6.0,19.899999618530273,0.0,0.0,-10.939547479872456,66.7128,I,,
Raw,1730960155000,18149000000,18,266.24159636202336,-1414995354851000064,0.0,266.24159636202336,-3872.1166871749656,0.0,0,15,0.0,16431,368172913059876,487,19.399999618530273,-701.3634757461855,0.14999,24,-18869.96881192541,0.009999999776482582,1575420030,,,,0,0.0,6,6.0,19.399999618530273,0.0,0.0,-22.418091021741294,66.7128,C,,
Fix,FLP,12.9403071000,77.5450459000,812.5,0.11841647,11.722,328.43768,1730960152473,1.5,45.0,2273703614000000,1.0,0,,,
Raw,1730960156000,19149000000,18,216.2698409167686,-1414995354851000064,0.0,216.2698409167686,-3866.4537271742133,0.0,0,26,0.0,16431,368173931444555,74,29.847000122070312,-1037.3227738142398,0.14999,25,-19488.210793021306,0.0006249999860301614,1575420030,,,,0,11.367979027110719,1,6.0,29.847000122070312,0.0,0.0,0.0,66.7128,C,,
Raw,1730960156000,19149000000,18,216.2698409167686,-1414995354851000064,0.0,216.2698409167686,-3866.4537271742133,0.0,0,31,0.0,16431,368173928039748,235,29.891000747680664,-711.7586392901259,0.14999,17,-13324.71971460538,0.0008999999845400453,1575420030,,,,0,11.407326272826271,1,6.0,29.891000747680664,0.0,0.0,0.0,66.7128,C,,
Raw,1730960156000,19149000000,18,216.2698409167686,-1414995354851000064,0.0,216.2698409167686,-3866.4537271742133,0.0,0,3,0.0,47,368173926416731,487,23.285999298095703,-1714.0719302342552,0.14999,16,-29302.230558605184,0.009999999776482582,1575420030,,,,0,0.0,1,6.0,23.285999298095703,0.0,0.0,0.0,66.7128,C,,
Raw,1730960156000,19149000000,18,216.2698409167686,-1414995354851000064,0.0,216.2698409167686,-3866.4537271742133,0.0,0,21,0.0,47,368173922827014,487,22.28499984741211,-926.5539232969342,0.14999,16,-19167.340050307237,0.009999999776482582,1575420030,,,,0,1.6864177140007175,1,6.0,22.28499984741211,0.0,0.0,0.0,66.7128,C,,
Raw,1730960156000,19149000000,18,216.2698409167686,-1414995354851000064,0.0,216.2698409167686,-3866.4537271742133,0.0,0,6,0.0,16905,368159874338714,396,22.399999618530273,-1025.2237548828125,0.14999,16,-21872.948913631033,0.004900000058114529,1561097980,,,,0,2.750557278326409,5,6.0,22.399999618530273,0.0,0.0,-10.881233522043274,66.7128,I,,
Raw,1730960156000,19149000000,18,216.2698409167686,-1414995354851000064,0.0,216.2698409167686,-3866.4537271742133,0.0,0,37,0.0,47,368159923040895,316,24.299999237060547,-1516.26953125,0.14999,16,-24449.753895465637,0.002025000052526593,1561097980,,,,0,5.218255449119975,5,6.0,24.299999237060547,0.0,0.0,-10.881233522043274,66.7128,I,,
Raw,1730960156000,19149000000,18,216.2698409167686,-1414995354851000064,0.0,216.2698409167686,-3866.4537271742133,0.0,0,41,0.0,47,368159924416167,74,29.155000686645508,-1247.82177734375,0.14999,17,-22548.821032276846,0.0006249999860301614,1561097980,,,,0,12.251522200262352,5,6.0,29.155000686645508,0.0,0.0,-10.881233522043274,66.7128,I,,
Raw,1730960156000,19149000000,18,216.2698409167686,-1414995354851000064,0.0,216.2698409167686,-3866.4537271742133,0.0,0,2,0.0,16431,368173917459620,487,18.100000381469727,-1021.0469968632019,0.14999,24,-21140.80842136494,0.009999999776482582,1575420030,,,,0,0.0,6,6.0,18.100000381469727,0.0,0.0,-27.041559296641527,66.7128,C,,
Raw,1730960156000,19149000000,18,216.2698409167686,-1414995354851000064,0.0,216.2698409167686,-3866.4537271742133,0.0,0,13,0.0,16431,368173915828810,396,21.399999618530273,-959.5428367292159,0.14999,28,-21218.1591407572,0.004900000058114529,1575420030,,,,0,1.2551147354750132,6,6.0,21.399999618530273,0.0,0.0,-27.041559296641527,66.7128,C,,
Raw,1730960156000,19149000000,18,216.2698409167686,-1414995354851000064,0.0,216.2698409167686,-3866.4537271742133,0.0,0,9,0.0,47,368159873952348,316,29.799999237060547,-1016.7918090820312,0.14999,17,-19072.481126738367,0.002025000052526593,1561097980,,,,0,11.715847572270183,5,6.0,29.799999237060547,0.0,0.0,-10.881233522043274,66.7128,I,,
Raw,1730960156000,19149000000,18,216.2698409167686,-1414995354851000064,0.0,216.2698409167686,-3866.4537271742133,0.0,0,10,0.0,16905,368159871199813,487,18.0,-1357.417724609375,0.14999,16,-22376.00772361609,0.009999999776482582,1561097980,,,,0,0.0,5,6.0,18.0,0.0,0.0,-10.881233522043274,66.7128,I,,
Raw,1730960156000,19149000000,18,216.2698409167686,-1414995354851000064,0.0,216.2698409167686,-3866.4537271742133,0.0,0,9,0.0,32995,33355935762335,487,0.0,-1362.387134456641,0.14999,16,-22409.240354775786,0.009999999776482582,1600875010,,,,0,0.0,3,6.0,18.0,0.0,0.0,-31.37126557891395,66.7128,C,,
Raw,1730960156000,19149000000,18,216.2698409167686,-1414995354851000064,0.0,216.2698409167686,-3866.4537271742133,0.0,0,16,0.0,17,464408,74,0.0,-604.6567399974181,0.14999,16,-18371.476991310094,0.0006249999860301614,1601437440,,,,0,3.1424683995940246,3,6.0,30.0,0.0,0.0,-31.37126557891395,66.7128,C,,
Raw,1730960156000,19149000000,18,216.2698409167686,-1414995354851000064,0.0,216.2698409167686,-3866.4537271742133,0.0,0,5,0.0,17,95769,396,17.100000381469727,-1067.365566611205,0.14999,16,-20921.80128504119,0.004900000058114529,1602562560,,,,0,0.3278083237633877,3,6.0,17.100000381469727,0.0,0.0,-31.37126557891395,66.7128,C,,
Raw,1730960156000,19149000000,18,216.2698409167686,-1414995354851000064,0.0,216.2698409167686,-3866.4537271742133,0.0,0,16,0.0,16431,368173930471045,396,23.0939998626709,-1558.838287062838,0.14999,16,-23232.55691191223,0.004900000058114529,1575420030,,,,0,2.267630447366454,1,6.0,23.0939998626709,0.0,0.0,0.0,66.7128,C,,
Raw,1730960156000,19149000000,18,216.2698409167686,-1414995354851000064,0.0,216.2698409167686,-3866.4537271742133,0.0,0,16,0.0,16905,368159871753019,396,23.399999618530273,-1034.3201904296875,0.14999,16,-21472.813931315442,0.004900000058114529,1561097980,,,,0,4.018296855614267,5,6.0,23.399999618530273,0.0,0.0,-10.881233522043274,66.7128,I,,
Raw,1730960156000,19149000000,18,216.2698409167686,-1414995354851000064,0.0,216.2698409167686,-3866.4537271742133,0.0,0,39,0.0,16905,368159871084869,487,23.600000381469727,-1050.6912841796875,0.14999,16,-21521.28999824997,0.009999999776482582,1561097980,,,,0,4.341857281193922,5,6.0,23.600000381469727,0.0,0.0,-10.881233522043274,66.7128,I,,
Raw,1730960156000,19149000000,18,216.2698409167686,-1414995354851000064,0.0,216.2698409167686,-3866.4537271742133,0.0,0,23,0.0,16905,368159926823649,316,26.899999618530273,-972.8577270507812,0.14999,17,-21305.832995813926,0.002025000052526593,1561097980,,,,0,8.423042164809809,5,6.0,26.899999618530273,0.0,0.0,-10.881233522043274,66.7128,I,,
Raw,1730960156000,19149000000,18,216.2698409167686,-1414995354851000064,0.0,216.2698409167686,-3866.4537271742133,0.0,0,8,0.0,16431,368173915809311,396,22.200000762939453,-1228.7951895486983,0.14999,25,-22054.771266002725,0.004900000058114529,1575420030,,,,0,2.4896461032247905,6,6.0,22.200000762939453,0.0,0.0,-27.041559296641527,66.7128,C,,
Raw,1730960156000,19149000000,18,216.2698409167686,-1414995354851000064,0.0,216.2698409167686,-3866.4537271742133,0.0,0,13,0.0,16905,368159878914233,396,21.700000762939453,-1032.995849609375,0.14999,16,-21415.949630690277,0.004900000058114529,1561097980,,,,0,1.7661968249227777,5,6.0,21.700000762939453,0.0,0.0,-10.881233522043274,66.7128,I,,
Raw,1730960156000,19149000000,18,216.2698409167686,-1414995354851000064,0.0,216.2698409167686,-3866.4537271742133,0.0,0,38,0.0,16905,368159873027878,487,15.699999809265137,-961.2235717773438,0.14999,16,-21330.54540368391,0.009999999776482582,1561097980,,,,0,0.0,5,6.0,15.699999809265137,0.0,0.0,-10.881233522043274,66.7128,I,,
Raw,1730960156000,19149000000,18,216.2698409167686,-1414995354851000064,0.0,216.2698409167686,-3866.4537271742133,0.0,0,27,0.0,16905,368159914256676,487,19.899999618530273,-953.3131103515625,0.14999,16,-21017.02473216935,0.009999999776482582,1561097980,,,,0,0.0,5,6.0,19.899999618530273,0.0,0.0,-10.881233522043274,66.7128,I,,
Raw,1730960156000,19149000000,18,216.2698409167686,-1414995354851000064,0.0,216.2698409167686,-3866.4537271742133,0.0,0,30,0.0,16431,368173918823463,487,21.5,-1492.124930552829,0.14999,25,-22219.2359757977,0.009999999776482582,1575420030,,,,0,1.5041895693555656,6,6.0,21.5,0.0,0.0,-27.041559296641527,66.7128,C,,
Raw,1730960156000,19149000000,18,216.2698409167686,-1414995354851000064,0.0,216.2698409167686,-3866.4537271742133,0.0,0,15,0.0,16431,368173913062205,797,17.5,-699.7817525078815,0.14999,24,-19570.73331847549,0.02250000089406967,1575420030,,,,0,0.0,6,6.0,17.5,0.0,0.0,-27.041559296641527,66.7128,C,,
Raw,1730960157000,20149000000,18,159.93080365141228,-1414995354851000064,0.0,159.93080365141228,-3851.9550955433133,0.0,0,26,0.0,16431,368174931448006,74,31.382999420166016,-1032.8346120578044,0.14999,21,-20523.032221170917,0.0006249999860301614,1575420030,,,,0,13.209018453985259,1,6.0,31.382999420166016,0.0,0.0,0.0,66.7128,C,,
Raw,1730960157000,20149000000,18,159.93080365141228,-1414995354851000064,0.0,159.93080365141228,-3851.9550955433133,0.0,0,31,0.0,16431,368174928042119,316,25.68899917602539,-707.845818560042,0.14999,20,-14034.226080511136,0.002025000052526593,1575420030,,,,0,6.002333051367092,1,6.0,25.68899917602539,0.0,0.0,0.0,66.7128,C,,
Raw,1730960157000,20149000000,18,159.93080365141228,-1414995354851000064,0.0,159.93080365141228,-3851.9550955433133,0.0,0,3,0.0,47,368174926422440,797,23.180999755859375,-1709.5401904834143,0.14999,16,-31013.70212867526,0.02250000089406967,1575420030,,,,0,0.0,1,6.0,23.180999755859375,0.0,0.0,0.0,66.7128,C,,
Raw,1730960157000,20149000000,18,159.93080365141228,-1414995354851000064,0.0,159.93080365141228,-3851.9550955433133,0.0,0,21,0.0,47,368174922830091,487,20.81999969482422,-922.4608439119532,0.14999,16,-20091.323814314183,0.009999999776482582,1575420030,,,,0,0.0,1,6.0,20.81999969482422,0.0,0.0,0.0,66.7128,C,,
Raw,1730960157000,20149000000,18,159.93080365141228,-1414995354851000064,0.0,159.93080365141228,-3851.9550955433133,0.0,0,8,0.0,16905,368160875228696,797,15.600000381469727,-980.0071411132812,0.14999,16,-22305.36511866551,0.02250000089406967,1561097980,,,,0,0.0,5,6.0,15.600000381469727,0.0,0.0,-15.899055235736412,66.7128,I,,
Raw,1730960157000,20149000000,18,159.93080365141228,-1414995354851000064,0.0,159.93080365141228,-3851.9550955433133,0.0,0,6,0.0,16905,368160874342144,396,24.700000762939453,-1020.2973022460938,0.14999,16,-22895.27417175624,0.004900000058114529,1561097980,,,,0,5.67311799189117,5,6.0,24.700000762939453,0.0,0.0,-15.899055235736412,66.7128,I,,
Raw,1730960157000,20149000000,18,159.93080365141228,-1414995354851000064,0.0,159.93080365141228,-3851.9550955433133,0.0,0,37,0.0,47,368160923045937,316,24.299999237060547,-1508.2449951171875,0.14999,16,-25961.58390980727,0.002025000052526593,1561097980,,,,0,5.218255449119975,5,6.0,24.299999237060547,0.0,0.0,-15.899055235736412,66.7128,I,,
Raw,1730960157000,20149000000,18,159.93080365141228,-1414995354851000064,0.0,159.93080365141228,-3851.9550955433133,0.0,0,41,0.0,47,368160924420326,74,29.267000198364258,-1243.2041015625,0.14999,17,-23793.863631509834,0.0006249999860301614,1561097980,,,,0,13.59639300481586,5,6.0,29.267000198364258,0.0,0.0,-15.899055235736412,66.7128,I,,
Raw,1730960157000,20149000000,18,159.93080365141228,-1414995354851000064,0.0,159.93080365141228,-3851.9550955433133,0.0,0,2,0.0,16431,368174917463016,487,17.299999237060547,-1016.6615082065919,0.14999,24,-22159.05850121593,0.009999999776482582,1575420030,,,,0,0.0,6,6.0,17.299999237060547,0.0,0.0,-30.135930056268013,66.7128,C,,
Raw,1730960157000,20149000000,18,159.93080365141228,-1414995354851000064,0.0,159.93080365141228,-3851.9550955433133,0.0,0,13,0.0,16431,368174915832003,797,18.100000381469727,-955.7508078812793,0.14999,24,-22175.41182597458,0.02250000089406967,1575420030,,,,0,0.0,6,6.0,18.100000381469727,0.0,0.0,-30.135930056268013,66.7128,C,,
Raw,1730960157000,20149000000,18,159.93080365141228,-1414995354851000064,0.0,159.93080365141228,-3851.9550955433133,0.0,0,9,0.0,47,368160873955731,74,29.780000686645508,-1012.844482421875,0.14999,21,-20086.527867093573,0.0006249999860301614,1561097980,,,,0,11.308621919316026,5,6.0,29.780000686645508,0.0,0.0,-15.899055235736412,66.7128,I,,
Raw,1730960157000,20149000000,18,159.93080365141228,-1414995354851000064,0.0,159.93080365141228,-3851.9550955433133,0.0,0,10,0.0,16905,368160871204346,487,18.0,-1352.2886962890625,0.14999,16,-23730.99705364684,0.009999999776482582,1561097980,,,,0,0.0,5,6.0,18.0,0.0,0.0,-15.899055235736412,66.7128,I,,
Raw,1730960157000,20149000000,18,159.93080365141228,-1414995354851000064,0.0,159.93080365141228,-3851.9550955433133,0.0,0,9,0.0,32995,33356935766892,396,0.0,-1357.1536008746552,0.14999,16,-23768.52840122438,0.004900000058114529,1600875010,,,,0,4.813512137516801,3,6.0,22.0,0.0,0.0,-51.736907196473,66.7128,C,,
Raw,1730960157000,20149000000,18,159.93080365141228,-1414995354851000064,0.0,159.93080365141228,-3851.9550955433133,0.0,0,16,0.0,17,466422,316,0.0,-600.9989408229835,0.14999,16,-18973.92711272747,0.002025000052526593,1601437440,,,,0,8.477514855328748,3,6.0,25.0,0.0,0.0,-51.736907196473,66.7128,C,,
Raw,1730960157000,20149000000,18,159.93080365141228,-1414995354851000064,0.0,159.93080365141228,-3851.9550955433133,0.0,0,5,0.0,17,99321,487,24.0,-1063.3419941398572,0.14999,16,-21986.826742755973,0.009999999776482582,1602562560,,,,0,2.3301113814287433,3,6.0,24.0,0.0,0.0,-51.736907196473,66.7128,C,,
Raw,1730960157000,20149000000,18,159.93080365141228,-1414995354851000064,0.0,159.93080365141228,-3851.9550955433133,0.0,0,16,0.0,16431,368174930476236,396,23.0939998626709,-1554.2314705114009,0.14999,16,-24788.76671985448,0.004900000058114529,1575420030,,,,0,2.267630447366454,1,6.0,23.0939998626709,0.0,0.0,0.0,66.7128,C,,
Raw,1730960157000,20149000000,18,159.93080365141228,-1414995354851000064,0.0,159.93080365141228,-3851.9550955433133,0.0,0,16,0.0,16905,368160871756463,487,20.899999618530273,-1029.3670654296875,0.14999,16,-22504.110342803768,0.009999999776482582,1561097980,,,,0,0.5765265235741214,5,6.0,20.899999618530273,0.0,0.0,-15.899055235736412,66.7128,I,,
Raw,1730960157000,20149000000,18,159.93080365141228,-1414995354851000064,0.0,159.93080365141228,-3851.9550955433133,0.0,0,39,0.0,16905,368160871088362,487,20.299999237060547,-1046.297607421875,0.14999,16,-22569.38329245046,0.009999999776482582,1561097980,,,,0,0.0,5,6.0,20.299999237060547,0.0,0.0,-15.899055235736412,66.7128,I,,
Raw,1730960157000,20149000000,18,159.93080365141228,-1414995354851000064,0.0,159.93080365141228,-3851.9550955433133,0.0,0,23,0.0,16905,368160926826888,58,33.0,-968.36328125,0.14999,17,-22276.194740376675,0.00039999998989515007,1561097980,,,,0,15.289090432046901,5,6.0,33.0,0.0,0.0,-15.899055235736412,66.7128,I,,
Raw,1730960157000,20149000000,18,159.93080365141228,-1414995354851000064,0.0,159.93080365141228,-3851.9550955433133,0.0,0,8,0.0,16431,368174915813400,396,22.0,-1224.3466103628746,0.14999,29,-23280.91948017388,0.004900000058114529,1575420030,,,,0,2.097313428915861,6,6.0,22.0,0.0,0.0,-30.135930056268013,66.7128,C,,
Raw,1730960157000,20149000000,18,159.93080365141228,-1414995354851000064,0.0,159.93080365141228,-3851.9550955433133,0.0,0,13,0.0,16905,368160878917672,797,19.200000762939453,-1028.8487548828125,0.14999,16,-22446.391669225304,0.02250000089406967,1561097980,,,,0,0.0,5,6.0,19.200000762939453,0.0,0.0,-15.899055235736412,66.7128,I,,
Raw,1730960157000,20149000000,18,159.93080365141228,-1414995354851000064,0.0,159.93080365141228,-3851.9550955433133,0.0,0,38,0.0,16905,368160873031130,396,22.299999237060547,-956.218994140625,0.14999,16,-22288.815250615015,0.004900000058114529,1561097980,,,,0,2.4987747321659985,5,6.0,22.299999237060547,0.0,0.0,-15.899055235736412,66.7128,I,,
Raw,1730960157000,20149000000,18,159.93080365141228,-1414995354851000064,0.0,159.93080365141228,-3851.9550955433133,0.0,0,27,0.0,16905,368160914259846,797,18.100000381469727,-948.5258178710938,0.14999,16,-21967.45017794311,0.02250000089406967,1561097980,,,,0,0.0,5,6.0,18.100000381469727,0.0,0.0,-15.899055235736412,66.7128,I,,
Raw,1730960157000,20149000000,18,159.93080365141228,-1414995354851000064,0.0,159.93080365141228,-3851.9550955433133,0.0,0,30,0.0,16431,368174918828428,487,20.100000381469727,-1487.7681531974372,0.14999,28,-23708.806150929162,0.009999999776482582,1575420030,,,,0,0.0,6,6.0,20.100000381469727,0.0,0.0,-30.135930056268013,66.7128,C,,
Raw,1730960157000,20149000000,18,159.93080365141228,-1414995354851000064,0.0,159.93080365141228,-3851.9550955433133,0.0,0,15,0.0,16431,368174913064530,487,17.389999389648438,-694.9570459844172,0.14999,24,-20267.626860279655,0.009999999776482582,1575420030,,,,0,0.0,6,6.0,17.389999389648438,0.0,0.0,-30.135930056268013,66.7128,C,,
Raw,1730960158000,21149000000,18,152.48359687558158,-1414995354851000064,0.0,152.48359687558158,-3841.585858607909,0.0,0,26,0.0,16431,368175931451447,235,29.527000427246094,-1029.8114699981525,0.14999,17,-21554.24523342514,0.0008999999845400453,1575420030,,,,0,10.964380774828005,1,6.0,29.527000427246094,0.0,0.0,0.0,66.7128,C,,
Raw,1730960158000,21149000000,18,152.48359687558158,-1414995354851000064,0.0,152.48359687558158,-3841.585858607909,0.0,0,31,0.0,16431,368175928044474,316,24.88800048828125,-703.9060054901397,0.14999,16,-14740.00319218094,0.002025000052526593,1575420030,,,,0,4.871181958344911,1,6.0,24.88800048828125,0.0,0.0,0.0,66.7128,C,,
Raw,1730960158000,21149000000,18,152.48359687558158,-1414995354851000064,0.0,152.48359687558158,-3841.585858607909,0.0,0,3,0.0,47,368175926428135,487,17.86400032043457,-1706.9379616746298,0.14999,16,-32721.4440525165,0.009999999776482582,1575420030,,,,0,0.0,1,6.0,17.86400032043457,0.0,0.0,0.0,66.7128,C,,
Raw,1730960158000,21149000000,18,152.48359687558158,-1414995354851000064,0.0,152.48359687558158,-3841.585858607909,0.0,0,21,0.0,47,368175922833171,396,23.81399917602539,-919.9920436745252,0.14999,16,-21012.341467451755,0.004900000058114529,1575420030,,,,0,3.3249693980533586,1,6.0,23.81399917602539,0.0,0.0,0.0,66.7128,C,,
Raw,1730960158000,21149000000,18,152.48359687558158,-1414995354851000064,0.0,152.48359687558158,-3841.585858607909,0.0,0,8,0.0,16905,368161875231967,797,16.0,-975.0663452148438,0.14999,16,-23283.779547059246,0.02250000089406967,1561097980,,,,0,0.0,5,6.0,16.0,0.0,0.0,-19.491637689485017,66.7128,I,,
Raw,1730960158000,21149000000,18,152.48359687558158,-1414995354851000064,0.0,152.48359687558158,-3841.585858607909,0.0,0,6,0.0,16905,368161874345534,487,22.899999618530273,-1017.5341796875,0.14999,16,-23914.025001109265,0.009999999776482582,1561097980,,,,0,3.4075355106250376,5,6.0,22.899999618530273,0.0,0.0,-19.491637689485017,66.7128,I,,
Raw,1730960158000,21149000000,18,152.48359687558158,-1414995354851000064,0.0,152.48359687558158,-3841.585858607909,0.0,0,37,0.0,47,368161923050949,316,24.200000762939453,-1503.3876953125,0.14999,16,-27466.304469628994,0.002025000052526593,1561097980,,,,0,2.6255782927863796,5,6.0,24.200000762939453,0.0,0.0,-19.491637689485017,66.7128,I,,
Raw,1730960158000,21149000000,18,152.48359687558158,-1414995354851000064,0.0,152.48359687558158,-3841.585858607909,0.0,0,41,0.0,47,368161924424470,74,29.35300064086914,-1240.079345703125,0.14999,17,-25035.51010719085,0.0006249999860301614,1561097980,,,,0,13.08296987248977,5,6.0,29.35300064086914,0.0,0.0,-19.491637689485017,66.7128,I,,
Raw,1730960158000,21149000000,18,152.48359687558158,-1414995354851000064,0.0,152.48359687558158,-3841.585858607909,0.0,0,2,0.0,16431,368175917466396,487,17.28499984741211,-1011.7323631634862,0.14999,24,-23172.819345540345,0.009999999776482582,1575420030,,,,0,0.0,6,6.0,17.28499984741211,0.0,0.0,-31.524382742425406,66.7128,C,,
Raw,1730960158000,21149000000,18,152.48359687558158,-1414995354851000064,0.0,152.48359687558158,-3841.585858607909,0.0,0,13,0.0,16431,368175915835183,487,17.799999237060547,-952.1007559532823,0.14999,24,-23128.61508878069,0.009999999776482582,1575420030,,,,0,0.0,6,6.0,17.799999237060547,0.0,0.0,-31.524382742425406,66.7128,C,,
Raw,1730960158000,21149000000,18,152.48359687558158,-1414995354851000064,0.0,152.48359687558158,-3841.585858607909,0.0,0,9,0.0,47,368161873959104,396,25.5,-1008.8676147460938,0.14999,17,-21097.3980007165,0.004900000058114529,1561097980,,,,0,6.676450181205773,5,6.0,25.5,0.0,0.0,-19.491637689485017,66.7128,I,,
Raw,1730960158000,21149000000,18,152.48359687558158,-1414995354851000064,0.0,152.48359687558158,-3841.585858607909,0.0,0,10,0.0,16905,368161871208863,487,19.299999237060547,-1347.162109375,0.14999,16,-25081.324072997355,0.009999999776482582,1561097980,,,,0,0.0,5,6.0,19.299999237060547,0.0,0.0,-19.491637689485017,66.7128,I,,
Raw,1730960158000,21149000000,18,152.48359687558158,-1414995354851000064,0.0,152.48359687558158,-3841.585858607909,0.0,0,9,0.0,32995,33357935771401,396,0.0,-1353.937403151598,0.14999,16,-25124.53322258984,0.004900000058114529,1600875010,,,,0,3.299097858754434,3,6.0,23.0,0.0,0.0,-55.37384727890287,66.7128,C,,
Raw,1730960158000,21149000000,18,152.48359687558158,-1414995354851000064,0.0,152.48359687558158,-3841.585858607909,0.0,0,16,0.0,17,468422,396,0.0,-597.1893141666667,0.14999,16,-19573.127363353127,0.004900000058114529,1601437440,,,,0,1.6206650181843645,3,6.0,21.0,0.0,0.0,-55.37384727890287,66.7128,C,,
Raw,1730960158000,21149000000,18,152.48359687558158,-1414995354851000064,0.0,152.48359687558158,-3841.585858607909,0.0,0,5,0.0,17,102869,396,22.799999237060547,-1059.5292415569036,0.14999,16,-23047.745600541526,0.004900000058114529,1602562560,,,,0,0.0,3,6.0,22.799999237060547,0.0,0.0,-55.37384727890287,66.7128,C,,
Raw,1730960158000,21149000000,18,152.48359687558158,-1414995354851000064,0.0,152.48359687558158,-3841.585858607909,0.0,0,2,0.0,16431,368175922884063,316,26.235000610351562,-1011.31879034238,0.14999,17,-23943.554014425878,0.002025000052526593,1575420030,,,,0,6.73827172074861,1,6.0,26.235000610351562,0.0,0.0,0.0,66.7128,C,,
Raw,1730960158000,21149000000,18,152.48359687558158,-1414995354851000064,0.0,152.48359687558158,-3841.585858607909,0.0,0,16,0.0,16431,368175930481391,487,20.95800018310547,-1551.3550441301416,0.14999,16,-26341.38370160363,0.009999999776482582,1575420030,,,,0,0.0,1,6.0,20.95800018310547,0.0,0.0,0.0,66.7128,C,,
Raw,1730960158000,21149000000,18,152.48359687558158,-1414995354851000064,0.0,152.48359687558158,-3841.585858607909,0.0,0,16,0.0,16905,368161871759896,487,21.399999618530273,-1026.8394775390625,0.14999,16,-23532.26467516766,0.009999999776482582,1561097980,,,,0,1.2656367108841573,5,6.0,21.399999618530273,0.0,0.0,-19.491637689485017,66.7128,I,,
Raw,1730960158000,21149000000,18,152.48359687558158,-1414995354851000064,0.0,152.48359687558158,-3841.585858607909,0.0,0,39,0.0,16905,368161871091849,487,21.799999237060547,-1043.182373046875,0.14999,16,-23613.94267206922,0.009999999776482582,1561097980,,,,0,1.8354074671129073,5,6.0,21.799999237060547,0.0,0.0,-19.491637689485017,66.7128,I,,
Raw,1730960158000,21149000000,18,152.48359687558158,-1414995354851000064,0.0,152.48359687558158,-3841.585858607909,0.0,0,23,0.0,16905,368161926830114,316,26.899999618530273,-965.6218872070312,0.14999,21,-23243.152815890535,0.002025000052526593,1561097980,,,,0,8.45058563814978,5,6.0,26.899999618530273,0.0,0.0,-19.491637689485017,66.7128,I,,
Raw,1730960158000,21149000000,18,152.48359687558158,-1414995354851000064,0.0,152.48359687558158,-3841.585858607909,0.0,0,8,0.0,16431,368175915817480,487,19.700000762939453,-1221.2141051914627,0.14999,28,-24504.04632990054,0.009999999776482582,1575420030,,,,0,0.0,6,6.0,19.700000762939453,0.0,0.0,-31.524382742425406,66.7128,C,,
Raw,1730960158000,21149000000,18,152.48359687558158,-1414995354851000064,0.0,152.48359687558158,-3841.585858607909,0.0,0,13,0.0,16905,368161878921103,797,19.125,-1024.975830078125,0.14999,16,-23473.328867516633,0.02250000089406967,1561097980,,,,0,0.0,5,6.0,19.125,0.0,0.0,-19.491637689485017,66.7128,I,,
Raw,1730960158000,21149000000,18,152.48359687558158,-1414995354851000064,0.0,152.48359687558158,-3841.585858607909,0.0,0,60,0.0,16905,368161880150615,74,29.5,-1140.052978515625,0.14999,17,-24354.950403526927,0.0006249999860301614,1561097980,,,,0,11.441182388645553,5,6.0,29.5,0.0,0.0,-19.491637689485017,66.7128,I,,
Raw,1730960158000,21149000000,18,152.48359687558158,-1414995354851000064,0.0,152.48359687558158,-3841.585858607909,0.0,0,38,0.0,16905,368161873034355,487,25.700000762939453,-953.04296875,0.14999,17,-23243.368104301662,0.009999999776482582,1561097980,,,,0,6.948513708624104,5,6.0,25.700000762939453,0.0,0.0,-19.491637689485017,66.7128,I,,
Raw,1730960158000,21149000000,18,152.48359687558158,-1414995354851000064,0.0,152.48359687558158,-3841.585858607909,0.0,0,27,0.0,16905,368161914263006,797,18.100000381469727,-946.015625,0.14999,16,-22914.75030585161,0.02250000089406967,1561097980,,,,0,0.0,5,6.0,18.100000381469727,0.0,0.0,-19.491637689485017,66.7128,I,,
Raw,1730960158000,21149000000,18,152.48359687558158,-1414995354851000064,0.0,152.48359687558158,-3841.585858607909,0.0,0,30,0.0,16431,368175918833376,487,17.5,-1485.0602779501899,0.14999,24,-25195.02429964605,0.009999999776482582,1575420030,,,,0,0.0,6,6.0,17.5,0.0,0.0,-31.524382742425406,66.7128,C,,
Raw,1730960158000,21149000000,18,152.48359687558158,-1414995354851000064,0.0,152.48359687558158,-3841.585858607909,0.0,0,15,0.0,16431,368175913066847,487,17.459999084472656,-692.0996675538042,0.14999,24,-20960.808720743804,0.009999999776482582,1575420030,,,,0,0.0,6,6.0,17.459999084472656,0.0,0.0,-31.524382742425406,66.7128,C,,
Raw,1730960159000,22149000000,18,143.77749560823364,-1414995354851000064,0.0,143.77749560823364,-3836.0725498430043,0.0,0,26,0.0,16431,368176931454885,235,28.152999877929688,-1027.0452429801444,0.14999,21,-22582.558683268162,0.0008999999845400453,1575420030,,,,0,9.258021806353728,1,6.0,28.152999877929688,0.0,0.0,0.0,66.7128,C,,
Raw,1730960159000,22149000000,18,143.77749560823364,-1414995354851000064,0.0,143.77749560823364,-3836.0725498430043,0.0,0,31,0.0,16431,368176928046819,316,26.72599983215332,-701.9712447470517,0.14999,16,-15442.84574373388,0.002025000052526593,1575420030,,,,0,7.38556476234434,1,6.0,26.72599983215332,0.0,0.0,0.0,66.7128,C,,
Raw,1730960159000,22149000000,18,143.77749560823364,-1414995354851000064,0.0,143.77749560823364,-3836.0725498430043,0.0,0,3,0.0,47,368176926433856,487,20.47800064086914,-1705.2156552688728,0.14999,16,-34427.54646782196,0.009999999776482582,1575420030,,,,0,0.0,1,6.0,20.47800064086914,0.0,0.0,0.0,66.7128,C,,
Raw,1730960159000,22149000000,18,143.77749560823364,-1414995354851000064,0.0,143.77749560823364,-3836.0725498430043,0.0,0,21,0.0,47,368176922836279,316,27.566999435424805,-917.8612748734452,0.14999,16,-21931.554826954893,0.002025000052526593,1575420030,,,,0,8.496535059216862,1,6.0,27.566999435424805,0.0,0.0,0.0,66.7128,C,,
Raw,1730960159000,22149000000,18,143.77749560823364,-1414995354851000064,0.0,143.77749560823364,-3836.0725498430043,0.0,0,8,0.0,16905,368162875235218,797,16.0,-974.0775756835938,0.14999,16,-24258.352048969242,0.02250000089406967,1561097980,,,,0,0.0,5,6.0,16.0,0.0,0.0,-13.831670083776046,66.7128,I,,
Raw,1730960159000,22149000000,18,143.77749560823364,-1414995354851000064,0.0,143.77749560823364,-3836.0725498430043,0.0,0,6,0.0,16905,368162874348924,487,20.399999618530273,-1013.3536376953125,0.14999,16,-24929.453681760697,0.009999999776482582,1561097980,,,,0,0.0,5,6.0,20.399999618530273,0.0,0.0,-13.831670083776046,66.7128,I,,
Raw,1730960159000,22149000000,18,143.77749560823364,-1414995354851000064,0.0,143.77749560823364,-3836.0725498430043,0.0,0,37,0.0,47,368162923055957,235,24.104999542236328,-1500.8360595703125,0.14999,16,-28968.21242302807,0.0008999999845400453,1561097980,,,,0,2.6255782927863796,5,6.0,24.104999542236328,0.0,0.0,-13.831670083776046,66.7128,I,,
Raw,1730960159000,22149000000,18,143.77749560823364,-1414995354851000064,0.0,143.77749560823364,-3836.0725498430043,0.0,0,41,0.0,47,368162924428602,235,29.334999084472656,-1237.726806640625,0.14999,21,-26274.34582253196,0.0008999999845400453,1561097980,,,,0,10.808776428638545,5,6.0,29.334999084472656,0.0,0.0,-13.831670083776046,66.7128,I,,
Raw,1730960159000,22149000000,18,143.77749560823364,-1414995354851000064,0.0,143.77749560823364,-3836.0725498430043,0.0,0,3,0.0,16431,368176910594945,1797,13.199999809265137,-1077.006530856125,0.14999,24,-25016.043207175604,0.02250000089406967,1575420030,,,,0,0.0,6,6.0,13.199999809265137,0.0,0.0,-21.34283469332131,66.7128,C,,
Raw,1730960159000,22149000000,18,143.77749560823364,-1414995354851000064,0.0,143.77749560823364,-3836.0725498430043,0.0,0,2,0.0,16431,368176917469765,487,18.5,-1010.7584089260484,0.14999,24,-24183.69694597225,0.009999999776482582,1575420030,,,,0,0.0,6,6.0,18.5,0.0,0.0,-21.34283469332131,66.7128,C,,
Raw,1730960159000,22149000000,18,143.77749560823364,-1414995354851000064,0.0,143.77749560823364,-3836.0725498430043,0.0,0,13,0.0,16431,368176915838357,487,21.799999237060547,-950.718896821516,0.14999,25,-24080.633662234766,0.009999999776482582,1575420030,,,,0,1.8058132659519504,6,6.0,21.799999237060547,0.0,0.0,-21.34283469332131,66.7128,C,,
Raw,1730960159000,22149000000,18,143.77749560823364,-1414995354851000064,0.0,143.77749560823364,-3836.0725498430043,0.0,0,9,0.0,47,368162873962463,487,21.799999237060547,-1005.8934936523438,0.14999,20,-22104.85742348118,0.009999999776482582,1561097980,,,,0,1.921318059242822,5,6.0,21.799999237060547,0.0,0.0,-13.831670083776046,66.7128,I,,
Raw,1730960159000,22149000000,18,143.77749560823364,-1414995354851000064,0.0,143.77749560823364,-3836.0725498430043,0.0,0,10,0.0,16905,368162871213354,487,19.299999237060547,-1347.3331298828125,0.14999,16,-26427.687221843047,0.009999999776482582,1561097980,,,,0,0.0,5,6.0,19.299999237060547,0.0,0.0,-13.831670083776046,66.7128,I,,
Raw,1730960159000,22149000000,18,143.77749560823364,-1414995354851000064,0.0,143.77749560823364,-3836.0725498430043,0.0,0,9,0.0,32995,33358935775917,396,0.0,-1351.400508669225,0.14999,17,-26477.704063146575,0.004900000058114529,1600875010,,,,0,4.938942326383499,3,6.0,23.0,0.0,0.0,-50.888437457560826,66.7128,C,,
Raw,1730960159000,22149000000,18,143.77749560823364,-1414995354851000064,0.0,143.77749560823364,-3836.0725498430043,0.0,0,16,0.0,17,470408,316,0.0,-595.0206765943287,0.14999,16,-20169.17168955504,0.002025000052526593,1601437440,,,,0,4.026541649435093,3,6.0,24.0,0.0,0.0,-50.888437457560826,66.7128,C,,
Raw,1730960159000,22149000000,18,143.77749560823364,-1414995354851000064,0.0,143.77749560823364,-3836.0725498430043,0.0,0,5,0.0,17,106416,487,24.100000381469727,-1057.1755124043304,0.14999,16,-24105.901555134096,0.009999999776482582,1602562560,,,,0,0.9484929985627627,3,6.0,24.100000381469727,0.0,0.0,-50.888437457560826,66.7128,C,,
