# 
# Header Description:
# 
# Version: v3.1.0.3 Platform: 12 Manufacturer: Xiaomi Model: 22120RN86I GNSS Hardware Model Name: MTK_MNLD_default,MNL_VER_default
# 
# Raw,utcTimeMillis,TimeNanos,LeapSecond,TimeUncertaintyNanos,FullBiasNanos,BiasNanos,BiasUncertaintyNanos,DriftNanosPerSecond,DriftUncertaintyNanosPerSecond,HardwareClockDiscontinuityCount,Svid,TimeOffsetNanos,State,ReceivedSvTimeNanos,ReceivedSvTimeUncertaintyNanos,Cn0DbHz,PseudorangeRateMetersPerSecond,PseudorangeRateUncertaintyMetersPerSecond,AccumulatedDeltaRangeState,AccumulatedDeltaRangeMeters,AccumulatedDeltaRangeUncertaintyMeters,CarrierFrequencyHz,CarrierCycles,CarrierPhase,CarrierPhaseUncertainty,MultipathIndicator,SnrInDb,ConstellationType,AgcDb,BasebandCn0DbHz,FullInterSignalBiasNanos,FullInterSignalBiasUncertaintyNanos,SatelliteInterSignalBiasNanos,SatelliteInterSignalBiasUncertaintyNanos,CodeType,ChipsetElapsedRealtimeNanos,IsFullTracking
# 
# UncalAccel,utcTimeMillis,elapsedRealtimeNanos,UncalAccelXMps2,UncalAccelYMps2,UncalAccelZMps2,BiasXMps2,BiasYMps2,BiasZMps2
# 
# Accel,utcTimeMillis,elapsedRealtimeNanos,AccelXMps2,AccelYMps2,AccelZMps2
# 
# UncalGyro,utcTimeMillis,elapsedRealtimeNanos,UncalGyroXRadPerSec,UncalGyroYRadPerSec,UncalGyroZRadPerSec,DriftXRadPerSec,DriftYRadPerSec,DriftZRadPerSec
# 
# Gyro,utcTimeMillis,elapsedRealtimeNanos,GyroXRadPerSec,GyroYRadPerSec,GyroZRadPerSec
# 
# UncalMag,utcTimeMillis,elapsedRealtimeNanos,UncalMagXMicroT,UncalMagYMicroT,UncalMagZMicroT,BiasXMicroT,BiasYMicroT,BiasZMicroT
# 
# Mag,utcTimeMillis,elapsedRealtimeNanos,MagXMicroT,MagYMicroT,MagZMicroT
# 
# Pressure,utcTimeMillis,elapsedRealtimeNanos,PressureHpa
# 
# OrientationDeg,utcTimeMillis,elapsedRealtimeNanos,yawDeg,rollDeg,pitchDeg
# 
# Fix,Provider,LatitudeDegrees,LongitudeDegrees,AltitudeMeters,SpeedMps,AccuracyMeters,BearingDegrees,UnixTimeMillis,SpeedAccuracyMps,BearingAccuracyDegrees,elapsedRealtimeNanos,VerticalAccuracyMeters,MockLocation,NumberOfUsedSignals,VerticalSpeedAccuracyMps,SolutionType
# 
# Nav,Svid,Type,Status,MessageId,Sub-messageId,Data(Bytes)
# 
# Status,UnixTimeMillis,SignalCount,SignalIndex,ConstellationType,Svid,CarrierFrequencyHz,Cn0DbHz,AzimuthDegrees,ElevationDegrees,UsedInFix,HasAlmanacData,HasEphemerisData,BasebandCn0DbHz
# 
# Agc,utcTimeMillis,TimeNanos,LeapSecond,TimeUncertaintyNanos,FullBiasNanos,BiasNanos,BiasUncertaintyNanos,DriftNanosPerSecond,DriftUncertaintyNanosPerSecond,HardwareClockDiscontinuityCount,AgcDb,CarrierFrequencyHz,ConstellationType
# 
Raw,1730961457999,1442911000000,18,67.14156973343617,-1414995233088999936,0.0,67.14156973343617,-4238.965777026706,0.0,0,2,0.0,16431,369475922056238,74,29.788000106811523,-1073.7383671093785,0.14999,16,0.0,0.0,1575420030,,,,0,11.29554612842199,1,6.0,29.788000106811523,0.0,0.0,0.0,66.7128,C,,
Raw,1730961457999,1442911000000,18,67.14156973343617,-1414995233088999936,0.0,67.14156973343617,-4238.965777026706,0.0,0,3,0.0,47,369475928570890,396,20.42799949645996,-1737.8534359914352,0.14999,16,0.0,0.0,1575420030,,,,0,0.0,1,6.0,20.42799949645996,0.0,0.0,0.0,66.7128,C,,
Raw,1730961457999,1442911000000,18,67.14156973343617,-1414995233088999936,0.0,67.14156973343617,-4238.965777026706,0.0,0,21,0.0,16431,369475921695923,797,19.24799919128418,-1023.2500549599056,0.14999,16,0.0,0.0,1575420030,,,,0,0.0,1,6.0,19.24799919128418,0.0,0.0,0.0,66.7128,C,,
Raw,1730961457999,1442911000000,18,67.14156973343617,-1414995233088999936,0.0,67.14156973343617,-4238.965777026706,0.0,0,13,0.0,16431,369475914732536,487,16.799999237060547,-1005.0645583521174,0.14999,16,0.0,0.0,1575420030,,,,0,0.0,6,6.0,16.799999237060547,0.0,0.0,-3.884962771432245,66.7128,C,,
Raw,1730961457999,1442911000000,18,67.14156973343617,-1414995233088999936,0.0,67.14156973343617,-4238.965777026706,0.0,0,23,0.0,16905,369461925710021,487,21.43199920654297,-982.4060668945312,0.14999,16,0.0,0.0,1561097980,,,,0,0.5161452721257105,5,6.0,21.43199920654297,0.0,0.0,175.4834247691731,66.7128,I,,
Raw,1730961457999,1442911000000,18,67.14156973343617,-1414995233088999936,0.0,67.14156973343617,-4238.965777026706,0.0,0,2,0.0,16431,369475916553667,797,14.732999801635742,-1028.7597443719783,0.14999,16,0.0,0.0,1575420030,,,,0,0.0,6,6.0,14.732999801635742,0.0,0.0,-3.884962771432245,66.7128,C,,
Raw,1730961457999,1442911000000,18,67.14156973343617,-1414995233088999936,0.0,67.14156973343617,-4238.965777026706,0.0,0,31,0.0,16431,369475925960468,396,22.839000701904297,-801.0765240410369,0.14999,16,0.0,0.0,1575420030,,,,0,3.765826889910302,1,6.0,22.839000701904297,0.0,0.0,0.0,66.7128,C,,
Raw,1730961457999,1442911000000,18,67.14156973343617,-1414995233088999936,0.0,67.14156973343617,-4238.965777026706,0.0,0,37,0.0,16905,369461924270439,316,25.100000381469727,-1517.2967529296875,0.14999,16,0.0,0.0,1561097980,,,,0,6.152540014344236,5,6.0,25.100000381469727,0.0,0.0,175.4834247691731,66.7128,I,,
Raw,1730961457999,1442911000000,18,67.14156973343617,-1414995233088999936,0.0,67.14156973343617,-4238.965777026706,0.0,0,32,0.0,16905,369461921563150,797,14.100000381469727,-1698.76708984375,0.14999,16,0.0,0.0,1561097980,,,,0,0.0,5,6.0,14.100000381469727,0.0,0.0,175.4834247691731,66.7128,I,,
Raw,1730961457999,1442911000000,18,67.14156973343617,-1414995233088999936,0.0,67.14156973343617,-4238.965777026706,0.0,0,16,0.0,32995,34657928714895,487,20.0,-602.4801499922543,0.14999,16,0.0,0.0,1601437440,,,,0,0.0,3,6.0,20.0,0.0,0.0,103.76353004907403,66.7128,C,,
Raw,1730961457999,1442911000000,18,67.14156973343617,-1414995233088999936,0.0,67.14156973343617,-4238.965777026706,0.0,0,5,0.0,32995,34657926387264,797,23.684999465942383,-1068.3602930343468,0.14999,16,0.0,0.0,1602562560,,,,0,0.0,3,6.0,23.684999465942383,0.0,0.0,103.76353004907403,66.7128,C,,
Raw,1730961457999,1442911000000,18,67.14156973343617,-1414995233088999936,0.0,67.14156973343617,-4238.965777026706,0.0,0,9,0.0,32995,34657936125378,396,22.0,-1271.0339701372911,0.14999,16,0.0,0.0,1600875010,,,,0,4.769489839986796,3,6.0,22.0,0.0,0.0,103.76353004907403,66.7128,C,,
Raw,1730961457999,1442911000000,18,67.14156973343617,-1414995233088999936,0.0,67.14156973343617,-4238.965777026706,0.0,0,10,0.0,32995,34657929342417,797,17.0,-1860.0456212123422,0.14999,16,0.0,0.0,1598062460,,,,0,0.0,3,6.0,17.0,0.0,0.0,103.76353004907403,66.7128,C,,
Raw,1730961457999,1442911000000,18,67.14156973343617,-1414995233088999936,0.0,67.14156973343617,-4238.965777026706,0.0,0,13,0.0,16905,369461878185142,797,17.562999725341797,-1096.30810546875,0.14999,16,0.0,0.0,1561097980,,,,0,0.0,5,6.0,17.562999725341797,0.0,0.0,175.4834247691731,66.7128,I,,
Raw,1730961457999,1442911000000,18,67.14156973343617,-1414995233088999936,0.0,67.14156973343617,-4238.965777026706,0.0,0,9,0.0,16905,369461873284367,487,18.96500015258789,-1141.0958251953125,0.14999,16,0.0,0.0,1561097980,,,,0,0.0,5,6.0,18.96500015258789,0.0,0.0,175.4834247691731,66.7128,I,,
Raw,1730961458999,1443911000000,18,65.92350167317213,-1414995233088999936,0.0,65.92350167317213,-4235.225717037307,0.0,0,2,0.0,16431,369476922059813,74,30.767000198364258,-1073.1627473325298,0.14999,16,0.0,0.0,1575420030,,,,0,12.466753208439856,1,6.0,30.767000198364258,0.0,0.0,0.0,66.7128,C,,
Raw,1730961458999,1443911000000,18,65.92350167317213,-1414995233088999936,0.0,65.92350167317213,-4235.225717037307,0.0,0,3,0.0,47,369476928576672,487,23.160999298095703,-1736.8107232980058,0.14999,16,0.0,0.0,1575420030,,,,0,2.358450361340873,1,6.0,23.160999298095703,0.0,0.0,0.0,66.7128,C,,
Raw,1730961458999,1443911000000,18,65.92350167317213,-1414995233088999936,0.0,65.92350167317213,-4235.225717037307,0.0,0,21,0.0,16431,369476921699327,797,19.24799919128418,-1017.0849302119348,0.14999,16,0.0,0.0,1575420030,,,,0,0.0,1,6.0,19.24799919128418,0.0,0.0,0.0,66.7128,C,,
Raw,1730961458999,1443911000000,18,65.92350167317213,-1414995233088999936,0.0,65.92350167317213,-4235.225717037307,0.0,0,13,0.0,16431,369476914735882,487,16.799999237060547,-1005.211459864175,0.14999,16,0.0,0.0,1575420030,,,,0,0.0,6,6.0,16.799999237060547,0.0,0.0,-4.3623522327275195,66.7128,C,,
Raw,1730961458999,1443911000000,18,65.92350167317213,-1414995233088999936,0.0,65.92350167317213,-4235.225717037307,0.0,0,23,0.0,16905,369462925713299,316,21.489999771118164,-982.3294677734375,0.14999,16,0.0,0.0,1561097980,,,,0,2.973060214174833,5,6.0,21.489999771118164,0.0,0.0,175.80814507537266,66.7128,I,,
Raw,1730961458999,1443911000000,18,65.92350167317213,-1414995233088999936,0.0,65.92350167317213,-4235.225717037307,0.0,0,2,0.0,16431,369476916557092,797,14.621000289916992,-1025.016125193733,0.14999,16,0.0,0.0,1575420030,,,,0,0.0,6,6.0,14.621000289916992,0.0,0.0,-4.3623522327275195,66.7128,C,,
Raw,1730961458999,1443911000000,18,65.92350167317213,-1414995233088999936,0.0,65.92350167317213,-4235.225717037307,0.0,0,33,0.0,16905,369462914592147,797,15.399999618530273,-897.2335205078125,0.14999,16,0.0,0.0,1561097980,,,,0,0.0,5,6.0,15.399999618530273,0.0,0.0,175.80814507537266,66.7128,I,,
Raw,1730961458999,1443911000000,18,65.92350167317213,-1414995233088999936,0.0,65.92350167317213,-4235.225717037307,0.0,0,31,0.0,16431,369476925963134,487,20.266000747680664,-799.4657178341852,0.14999,16,0.0,0.0,1575420030,,,,0,0.0,1,6.0,20.266000747680664,0.0,0.0,0.0,66.7128,C,,
Raw,1730961458999,1443911000000,18,65.92350167317213,-1414995233088999936,0.0,65.92350167317213,-4235.225717037307,0.0,0,37,0.0,16905,369462924275497,316,25.079999923706055,-1516.6265869140625,0.14999,16,0.0,0.0,1561097980,,,,0,5.6586354714236995,5,6.0,25.079999923706055,0.0,0.0,175.80814507537266,66.7128,I,,
Raw,1730961458999,1443911000000,18,65.92350167317213,-1414995233088999936,0.0,65.92350167317213,-4235.225717037307,0.0,0,32,0.0,16905,369462921568816,797,14.100000381469727,-1700.4954833984375,0.14999,16,0.0,0.0,1561097980,,,,0,0.0,5,6.0,14.100000381469727,0.0,0.0,175.80814507537266,66.7128,I,,
Raw,1730961458999,1443911000000,18,65.92350167317213,-1414995233088999936,0.0,65.92350167317213,-4235.225717037307,0.0,0,16,0.0,32995,34658928716905,396,21.0,-602.4540989192041,0.14999,16,0.0,0.0,1601437440,,,,0,0.10528479984714437,3,6.0,21.0,0.0,0.0,108.87512430805148,66.7128,C,,
Raw,1730961458999,1443911000000,18,65.92350167317213,-1414995233088999936,0.0,65.92350167317213,-4235.225717037307,0.0,0,5,0.0,32995,34658926390830,797,23.690000534057617,-1064.4916384705884,0.14999,16,0.0,0.0,1602562560,,,,0,0.0,3,6.0,23.690000534057617,0.0,0.0,108.87512430805148,66.7128,C,,
Raw,1730961458999,1443911000000,18,65.92350167317213,-1414995233088999936,0.0,65.92350167317213,-4235.225717037307,0.0,0,9,0.0,32995,34658936129620,316,24.0,-1269.8311763793206,0.14999,16,0.0,0.0,1600875010,,,,0,4.521304680350396,3,6.0,24.0,0.0,0.0,108.87512430805148,66.7128,C,,
Raw,1730961458999,1443911000000,18,65.92350167317213,-1414995233088999936,0.0,65.92350167317213,-4235.225717037307,0.0,0,10,0.0,32995,34658929348621,797,16.0,-1856.1234787172052,0.14999,16,0.0,0.0,1598062460,,,,0,0.0,3,6.0,16.0,0.0,0.0,108.87512430805148,66.7128,C,,
Raw,1730961458999,1443911000000,18,65.92350167317213,-1414995233088999936,0.0,65.92350167317213,-4235.225717037307,0.0,0,13,0.0,16905,369462878188801,797,17.45400047302246,-1096.9061279296875,0.14999,16,0.0,0.0,1561097980,,,,0,0.0,5,6.0,17.45400047302246,0.0,0.0,175.80814507537266,66.7128,I,,
Raw,1730961458999,1443911000000,18,65.92350167317213,-1414995233088999936,0.0,65.92350167317213,-4235.225717037307,0.0,0,9,0.0,16905,369462873288176,797,18.900999069213867,-1140.9869384765625,0.14999,16,0.0,0.0,1561097980,,,,0,0.0,5,6.0,18.900999069213867,0.0,0.0,175.80814507537266,66.7128,I,,
Raw,1730961459999,1444911000000,18,71.28425322523913,-1414995233088999936,0.0,71.28425322523913,-4252.25886710099,0.0,0,2,0.0,16431,369477922063410,74,31.520000457763672,-1078.5894620132503,0.14999,16,0.0,0.0,1575420030,,,,0,13.37217786356398,1,6.0,31.520000457763672,0.0,0.0,0.0,66.7128,C,,
Raw,1730961459999,1444911000000,18,71.28425322523913,-1414995233088999936,0.0,71.28425322523913,-4252.25886710099,0.0,0,3,0.0,47,369477928582472,797,18.24799919128418,-1741.8514614568492,0.14999,16,0.0,0.0,1575420030,,,,0,0.0,1,6.0,18.24799919128418,0.0,0.0,0.0,66.7128,C,,
Raw,1730961459999,1444911000000,18,71.28425322523913,-1414995233088999936,0.0,71.28425322523913,-4252.25886710099,0.0,0,21,0.0,16431,369477921702727,797,13.5,-1023.612244772683,0.14999,16,0.0,0.0,1575420030,,,,0,0.0,1,6.0,13.5,0.0,0.0,0.0,66.7128,C,,
Raw,1730961459999,1444911000000,18,71.28425322523913,-1414995233088999936,0.0,71.28425322523913,-4252.25886710099,0.0,0,13,0.0,16431,369477914739230,396,19.399999618530273,-1009.0272754212114,0.14999,16,0.0,0.0,1575420030,,,,0,0.0,6,6.0,19.399999618530273,0.0,0.0,-4.352385928036274,66.7128,C,,
Raw,1730961459999,1444911000000,18,71.28425322523913,-1414995233088999936,0.0,71.28425322523913,-4252.25886710099,0.0,0,23,0.0,16905,369463925716582,316,24.5,-987.5894165039062,0.14999,16,0.0,0.0,1561097980,,,,0,5.471834946340833,5,6.0,24.5,0.0,0.0,175.8784873698619,66.7128,I,,
Raw,1730961459999,1444911000000,18,71.28425322523913,-1414995233088999936,0.0,71.28425322523913,-4252.25886710099,0.0,0,2,0.0,16431,369477916560434,1797,14.508999824523926,-1029.864804259962,0.14999,16,0.0,0.0,1575420030,,,,0,0.0,6,6.0,14.508999824523926,0.0,0.0,-4.352385928036274,66.7128,C,,
Raw,1730961459999,1444911000000,18,71.28425322523913,-1414995233088999936,0.0,71.28425322523913,-4252.25886710099,0.0,0,33,0.0,16905,369463914595143,1797,15.399999618530273,-900.3565063476562,0.14999,16,0.0,0.0,1561097980,,,,0,0.0,5,6.0,15.399999618530273,0.0,0.0,175.8784873698619,66.7128,I,,
Raw,1730961459999,1444911000000,18,71.28425322523913,-1414995233088999936,0.0,71.28425322523913,-4252.25886710099,0.0,0,31,0.0,16431,369477925965808,396,24.006999969482422,-806.5250741773765,0.14999,16,0.0,0.0,1575420030,,,,0,3.6202499128990246,1,6.0,24.006999969482422,0.0,0.0,0.0,66.7128,C,,
Raw,1730961459999,1444911000000,18,71.28425322523913,-1414995233088999936,0.0,71.28425322523913,-4252.25886710099,0.0,0,37,0.0,16905,369463924280564,396,19.700000762939453,-1521.8990478515625,0.14999,16,0.0,0.0,1561097980,,,,0,0.0,5,6.0,19.700000762939453,0.0,0.0,175.8784873698619,66.7128,I,,
Raw,1730961459999,1444911000000,18,71.28425322523913,-1414995233088999936,0.0,71.28425322523913,-4252.25886710099,0.0,0,32,0.0,16905,369463921574493,487,17.5,-1705.685791015625,0.14999,16,0.0,0.0,1561097980,,,,0,0.0,5,6.0,17.5,0.0,0.0,175.8784873698619,66.7128,I,,
Raw,1730961459999,1444911000000,18,71.28425322523913,-1414995233088999936,0.0,71.28425322523913,-4252.25886710099,0.0,0,16,0.0,32995,34659928718920,487,18.0,-606.6974987936254,0.14999,16,0.0,0.0,1601437440,,,,0,0.10528479984714437,3,6.0,18.0,0.0,0.0,108.88506008074219,66.7128,C,,
Raw,1730961459999,1444911000000,18,71.28425322523913,-1414995233088999936,0.0,71.28425322523913,-4252.25886710099,0.0,0,5,0.0,32995,34659926394390,1797,23.655000686645508,-1070.5906176508624,0.14999,16,0.0,0.0,1602562560,,,,0,0.0,3,6.0,23.655000686645508,0.0,0.0,108.88506008074219,66.7128,C,,
Raw,1730961459999,1444911000000,18,71.28425322523913,-1414995233088999936,0.0,71.28425322523913,-4252.25886710099,0.0,0,9,0.0,32995,34659936133870,396,22.0,-1274.8284305732423,0.14999,16,0.0,0.0,1600875010,,,,0,3.5218251811136247,3,6.0,22.0,0.0,0.0,108.88506008074219,66.7128,C,,
Raw,1730961459999,1444911000000,18,71.28425322523913,-1414995233088999936,0.0,71.28425322523913,-4252.25886710099,0.0,0,10,0.0,32995,34659929354820,797,16.0,-1862.2295560380942,0.14999,16,0.0,0.0,1598062460,,,,0,0.0,3,6.0,16.0,0.0,0.0,108.88506008074219,66.7128,C,,
Raw,1730961459999,1444911000000,18,71.28425322523913,-1414995233088999936,0.0,71.28425322523913,-4252.25886710099,0.0,0,13,0.0,16905,369463878192472,797,17.35099983215332,-1103.945068359375,0.14999,16,0.0,0.0,1561097980,,,,0,0.0,5,6.0,17.35099983215332,0.0,0.0,175.8784873698619,66.7128,I,,
Raw,1730961459999,1444911000000,18,71.28425322523913,-1414995233088999936,0.0,71.28425322523913,-4252.25886710099,0.0,0,9,0.0,16905,369463873291985,1797,18.84000015258789,-1143.21826171875,0.14999,16,0.0,0.0,1561097980,,,,0,0.0,5,6.0,18.84000015258789,0.0,0.0,175.8784873698619,66.7128,I,,
Fix,FLP,12.9393468000,77.5426363000,802.7999877929688,2.280253,37.29,205.26337,1730961460961,1.5,45.0,217367903000000,4.67298,0,,,
Raw,1730961460999,1445911000000,18,54.34260759905441,-1414995233088999936,0.0,54.34260759905441,-4258.296863568791,0.0,0,2,0.0,16431,369478922067003,74,31.30699920654297,-1080.2654029196294,0.14999,16,0.0,0.0,1575420030,,,,0,13.113602053946842,1,6.0,31.30699920654297,0.0,0.0,0.0,66.7128,C,,
Raw,1730961460999,1445911000000,18,54.34260759905441,-1414995233088999936,0.0,54.34260759905441,-4258.296863568791,0.0,0,3,0.0,47,369478928588293,797,18.24799919128418,-1747.147349237521,0.14999,16,0.0,0.0,1575420030,,,,0,0.0,1,6.0,18.24799919128418,0.0,0.0,0.0,66.7128,C,,
Raw,1730961460999,1445911000000,18,54.34260759905441,-1414995233088999936,0.0,54.34260759905441,-4258.296863568791,0.0,0,21,0.0,16431,369478921706157,797,13.5,-1030.295102110904,0.14999,16,0.0,0.0,1575420030,,,,0,0.0,1,6.0,13.5,0.0,0.0,0.0,66.7128,C,,
Raw,1730961460999,1445911000000,18,54.34260759905441,-1414995233088999936,0.0,54.34260759905441,-4258.296863568791,0.0,0,13,0.0,16431,369478914742598,487,19.375,-1009.5296767341122,0.14999,16,0.0,0.0,1575420030,,,,0,0.0,6,6.0,19.375,0.0,0.0,-4.060020851443359,66.7128,C,,
Raw,1730961460999,1445911000000,18,54.34260759905441,-1414995233088999936,0.0,54.34260759905441,-4258.296863568791,0.0,0,23,0.0,16905,369464925719881,316,24.604999542236328,-989.541015625,0.14999,16,0.0,0.0,1561097980,,,,0,8.028707107237176,5,6.0,24.604999542236328,0.0,0.0,175.02603664873917,66.7128,I,,
Raw,1730961460999,1445911000000,18,54.34260759905441,-1414995233088999936,0.0,54.34260759905441,-4258.296863568791,0.0,0,2,0.0,16431,369478916563876,1797,14.402999877929688,-1033.1526663751818,0.14999,16,0.0,0.0,1575420030,,,,0,0.0,6,6.0,14.402999877929688,0.0,0.0,-4.060020851443359,66.7128,C,,
Raw,1730961460999,1445911000000,18,54.34260759905441,-1414995233088999936,0.0,54.34260759905441,-4258.296863568791,0.0,0,33,0.0,16905,369464914598153,797,15.399999618530273,-902.5733032226562,0.14999,16,0.0,0.0,1561097980,,,,0,0.0,5,6.0,15.399999618530273,0.0,0.0,175.02603664873917,66.7128,I,,
Raw,1730961460999,1445911000000,18,54.34260759905441,-1414995233088999936,0.0,54.34260759905441,-4258.296863568791,0.0,0,31,0.0,16431,369478925968499,396,23.93899917602539,-808.2343722265946,0.14999,16,0.0,0.0,1575420030,,,,0,1.5898092498987406,1,6.0,23.93899917602539,0.0,0.0,0.0,66.7128,C,,
Raw,1730961460999,1445911000000,18,54.34260759905441,-1414995233088999936,0.0,54.34260759905441,-4258.296863568791,0.0,0,37,0.0,16905,369464924285644,396,22.399999618530273,-1523.1005859375,0.14999,16,0.0,0.0,1561097980,,,,0,2.6617417948175373,5,6.0,22.399999618530273,0.0,0.0,175.02603664873917,66.7128,I,,
Raw,1730961460999,1445911000000,18,54.34260759905441,-1414995233088999936,0.0,54.34260759905441,-4258.296863568791,0.0,0,32,0.0,16905,369464921580194,797,17.5,-1710.3560791015625,0.14999,16,0.0,0.0,1561097980,,,,0,0.0,5,6.0,17.5,0.0,0.0,175.02603664873917,66.7128,I,,
Raw,1730961460999,1445911000000,18,54.34260759905441,-1414995233088999936,0.0,54.34260759905441,-4258.296863568791,0.0,0,16,0.0,32995,34660928720950,797,17.0,-608.9775161291623,0.14999,16,0.0,0.0,1601437440,,,,0,0.0,3,6.0,17.0,0.0,0.0,100.57908017687569,66.7128,C,,
Raw,1730961460999,1445911000000,18,54.34260759905441,-1414995233088999936,0.0,54.34260759905441,-4258.296863568791,0.0,0,5,0.0,32995,34660926397980,1797,21.799999237060547,-1071.803197381552,0.14999,16,0.0,0.0,1602562560,,,,0,0.0,3,6.0,21.799999237060547,0.0,0.0,100.57908017687569,66.7128,C,,
Raw,1730961460999,1445911000000,18,54.34260759905441,-1414995233088999936,0.0,54.34260759905441,-4258.296863568791,0.0,0,9,0.0,32995,34660936138127,396,21.0,-1276.9503730962363,0.14999,16,0.0,0.0,1600875010,,,,0,1.8736208575571585,3,6.0,21.0,0.0,0.0,100.57908017687569,66.7128,C,,
Raw,1730961460999,1445911000000,18,54.34260759905441,-1414995233088999936,0.0,54.34260759905441,-4258.296863568791,0.0,0,10,0.0,32995,34660929361041,797,15.0,-1867.663653412598,0.14999,16,0.0,0.0,1598062460,,,,0,0.0,3,6.0,15.0,0.0,0.0,100.57908017687569,66.7128,C,,
Raw,1730961460999,1445911000000,18,54.34260759905441,-1414995233088999936,0.0,54.34260759905441,-4258.296863568791,0.0,0,13,0.0,16905,369464878196151,797,14.199999809265137,-1102.964599609375,0.14999,16,0.0,0.0,1561097980,,,,0,0.0,5,6.0,14.199999809265137,0.0,0.0,175.02603664873917,66.7128,I,,
Raw,1730961460999,1445911000000,18,54.34260759905441,-1414995233088999936,0.0,54.34260759905441,-4258.296863568791,0.0,0,9,0.0,16905,369464873295805,1797,18.783000946044922,-1148.030029296875,0.14999,16,0.0,0.0,1561097980,,,,0,0.0,5,6.0,18.783000946044922,0.0,0.0,175.02603664873917,66.7128,I,,
Raw,1730961461999,1446911000000,18,54.347595587538514,-1414995233088999936,0.0,54.347595587538514,-4257.126457796491,0.0,0,2,0.0,16431,369479922070608,74,30.363000869750977,-1079.6486209860182,0.14999,16,0.0,0.0,1575420030,,,,0,11.994676471423995,1,6.0,30.363000869750977,0.0,0.0,0.0,66.7128,C,,
Raw,1730961461999,1446911000000,18,54.347595587538514,-1414995233088999936,0.0,54.347595587538514,-4257.126457796491,0.0,0,3,0.0,47,369479928594127,797,18.24799919128418,-1745.3124276308695,0.14999,16,0.0,0.0,1575420030,,,,0,0.0,1,6.0,18.24799919128418,0.0,0.0,0.0,66.7128,C,,
Raw,1730961461999,1446911000000,18,54.347595587538514,-1414995233088999936,0.0,54.347595587538514,-4257.126457796491,0.0,0,21,0.0,16431,369479921709608,797,16.1560001373291,-1027.919218705897,0.14999,16,0.0,0.0,1575420030,,,,0,0.0,1,6.0,16.1560001373291,0.0,0.0,0.0,66.7128,C,,
Raw,1730961461999,1446911000000,18,54.347595587538514,-1414995233088999936,0.0,54.347595587538514,-4257.126457796491,0.0,0,13,0.0,16431,369479914745979,487,16.5,-1011.2879419540162,0.14999,16,0.0,0.0,1575420030,,,,0,0.0,6,6.0,16.5,0.0,0.0,-5.0384531865958495,66.7128,C,,
Raw,1730961461999,1446911000000,18,54.347595587538514,-1414995233088999936,0.0,54.347595587538514,-4257.126457796491,0.0,0,23,0.0,16905,369465925723183,316,24.61400032043457,-989.1016235351562,0.14999,16,0.0,0.0,1561097980,,,,0,5.820915495147606,5,6.0,24.61400032043457,0.0,0.0,174.46416593211922,66.7128,I,,
Raw,1730961461999,1446911000000,18,54.347595587538514,-1414995233088999936,0.0,54.347595587538514,-4257.126457796491,0.0,0,2,0.0,16431,369479916567324,1837,14.302000045776367,-1033.608330521375,0.14999,16,0.0,0.0,1575420030,,,,0,0.0,6,6.0,14.302000045776367,0.0,0.0,-5.0384531865958495,66.7128,C,,
Raw,1730961461999,1446911000000,18,54.347595587538514,-1414995233088999936,0.0,54.347595587538514,-4257.126457796491,0.0,0,33,0.0,16905,369465914601164,1797,15.354999542236328,-901.8897094726562,0.14999,16,0.0,0.0,1561097980,,,,0,0.0,5,6.0,15.354999542236328,0.0,0.0,174.46416593211922,66.7128,I,,
Raw,1730961461999,1446911000000,18,54.347595587538514,-1414995233088999936,0.0,54.347595587538514,-4257.126457796491,0.0,0,31,0.0,16431,369479925971195,396,23.941999435424805,-806.1102005206163,0.14999,16,0.0,0.0,1575420030,,,,0,3.6202499128990246,1,6.0,23.941999435424805,0.0,0.0,0.0,66.7128,C,,
Raw,1730961461999,1446911000000,18,54.347595587538514,-1414995233088999936,0.0,54.347595587538514,-4257.126457796491,0.0,0,37,0.0,16905,369465924290728,396,22.399999618530273,-1522.537841796875,0.14999,16,0.0,0.0,1561097980,,,,0,2.7260820122574927,5,6.0,22.399999618530273,0.0,0.0,174.46416593211922,66.7128,I,,
Raw,1730961461999,1446911000000,18,54.347595587538514,-1414995233088999936,0.0,54.347595587538514,-4257.126457796491,0.0,0,32,0.0,16905,369465921585894,797,17.5,-1707.89453125,0.14999,16,0.0,0.0,1561097980,,,,0,0.0,5,6.0,17.5,0.0,0.0,174.46416593211922,66.7128,I,,
Raw,1730961461999,1446911000000,18,54.347595587538514,-1414995233088999936,0.0,54.347595587538514,-4257.126457796491,0.0,0,16,0.0,32995,34661928722981,487,18.0,-608.4433320207221,0.14999,16,0.0,0.0,1601437440,,,,0,0.0,3,6.0,18.0,0.0,0.0,95.2989251969615,66.7128,C,,
Raw,1730961461999,1446911000000,18,54.347595587538514,-1414995233088999936,0.0,54.347595587538514,-4257.126457796491,0.0,0,5,0.0,32995,34661926401563,797,22.200000762939453,-1074.2924797032658,0.14999,16,0.0,0.0,1602562560,,,,0,0.0,3,6.0,22.200000762939453,0.0,0.0,95.2989251969615,66.7128,C,,
Raw,1730961461999,1446911000000,18,54.347595587538514,-1414995233088999936,0.0,54.347595587538514,-4257.126457796491,0.0,0,9,0.0,32995,34661936142384,396,22.0,-1275.8626100929814,0.14999,16,0.0,0.0,1600875010,,,,0,2.4722529111381393,3,6.0,22.0,0.0,0.0,95.2989251969615,66.7128,C,,
Raw,1730961461999,1446911000000,18,54.347595587538514,-1414995233088999936,0.0,54.347595587538514,-4257.126457796491,0.0,0,10,0.0,32995,34661929367271,1797,12.0,-1866.7780615203335,0.14999,16,0.0,0.0,1598062460,,,,0,0.0,3,6.0,12.0,0.0,0.0,95.2989251969615,66.7128,C,,
Raw,1730961461999,1446911000000,18,54.347595587538514,-1414995233088999936,0.0,54.347595587538514,-4257.126457796491,0.0,0,13,0.0,16905,369465878199825,1797,14.199999809265137,-1098.27734375,0.14999,16,0.0,0.0,1561097980,,,,0,0.0,5,6.0,14.199999809265137,0.0,0.0,174.46416593211922,66.7128,I,,
Raw,1730961461999,1446911000000,18,54.347595587538514,-1414995233088999936,0.0,54.347595587538514,-4257.126457796491,0.0,0,9,0.0,16905,369465873299640,797,14.899999618530273,-1149.0977783203125,0.14999,16,0.0,0.0,1561097980,,,,0,0.0,5,6.0,14.899999618530273,0.0,0.0,174.46416593211922,66.7128,I,,
Raw,1730961462999,1447911000000,18,55.54739768487162,-1414995233088999936,0.0,55.54739768487162,-4254.953137131436,0.0,0,2,0.0,16431,369480922074213,235,28.361000061035156,-1079.0223615355003,0.14999,16,0.0,0.0,1575420030,,,,0,9.505226366710772,1,6.0,28.361000061035156,0.0,0.0,0.0,66.7128,C,,
Raw,1730961462999,1447911000000,18,55.54739768487162,-1414995233088999936,0.0,55.54739768487162,-4254.953137131436,0.0,0,3,0.0,47,369480928599895,797,18.131999969482422,-1740.3913663521844,0.14999,16,0.0,0.0,1575420030,,,,0,0.0,1,6.0,18.131999969482422,0.0,0.0,0.0,66.7128,C,,
Raw,1730961462999,1447911000000,18,55.54739768487162,-1414995233088999936,0.0,55.54739768487162,-4254.953137131436,0.0,0,21,0.0,16431,369480921713037,797,16.1560001373291,-1026.0613466416378,0.14999,16,0.0,0.0,1575420030,,,,0,0.0,1,6.0,16.1560001373291,0.0,0.0,0.0,66.7128,C,,
Raw,1730961462999,1447911000000,18,55.54739768487162,-1414995233088999936,0.0,55.54739768487162,-4254.953137131436,0.0,0,13,0.0,16431,369480914749338,487,16.485000610351562,-1008.6536568380462,0.14999,16,0.0,0.0,1575420030,,,,0,0.0,6,6.0,16.485000610351562,0.0,0.0,-3.9138232418693426,66.7128,C,,
Raw,1730961462999,1447911000000,18,55.54739768487162,-1414995233088999936,0.0,55.54739768487162,-4254.953137131436,0.0,0,23,0.0,16905,369466925726480,316,24.618000030517578,-988.4541015625,0.14999,16,0.0,0.0,1561097980,,,,0,5.750550505206682,5,6.0,24.618000030517578,0.0,0.0,174.1508856970323,66.7128,I,,
Raw,1730961462999,1447911000000,18,55.54739768487162,-1414995233088999936,0.0,55.54739768487162,-4254.953137131436,0.0,0,2,0.0,16431,369480916570772,1797,14.206000328063965,-1033.6839648229657,0.14999,16,0.0,0.0,1575420030,,,,0,0.0,6,6.0,14.206000328063965,0.0,0.0,-3.9138232418693426,66.7128,C,,
Raw,1730961462999,1447911000000,18,55.54739768487162,-1414995233088999936,0.0,55.54739768487162,-4254.953137131436,0.0,0,33,0.0,16905,369466914604177,797,15.312000274658203,-903.634033203125,0.14999,16,0.0,0.0,1561097980,,,,0,0.0,5,6.0,15.312000274658203,0.0,0.0,174.1508856970323,66.7128,I,,
Raw,1730961462999,1447911000000,18,55.54739768487162,-1414995233088999936,0.0,55.54739768487162,-4254.953137131436,0.0,0,31,0.0,16431,369480925973880,396,23.833999633789062,-805.2693031872057,0.14999,16,0.0,0.0,1575420030,,,,0,0.25602370329451,1,6.0,23.833999633789062,0.0,0.0,0.0,66.7128,C,,
Raw,1730961462999,1447911000000,18,55.54739768487162,-1414995233088999936,0.0,55.54739768487162,-4254.953137131436,0.0,0,37,0.0,16905,369466924295808,396,22.415000915527344,-1521.8809814453125,0.14999,16,0.0,0.0,1561097980,,,,0,3.0980391997148637,5,6.0,22.415000915527344,0.0,0.0,174.1508856970323,66.7128,I,,
Raw,1730961462999,1447911000000,18,55.54739768487162,-1414995233088999936,0.0,55.54739768487162,-4254.953137131436,0.0,0,32,0.0,16905,369466921591592,797,17.395000457763672,-1710.582763671875,0.14999,16,0.0,0.0,1561097980,,,,0,0.0,5,6.0,17.395000457763672,0.0,0.0,174.1508856970323,66.7128,I,,
Raw,1730961462999,1447911000000,18,55.54739768487162,-1414995233088999936,0.0,55.54739768487162,-4254.953137131436,0.0,0,16,0.0,32995,34662928725010,487,18.0,-607.3324137178597,0.14999,16,0.0,0.0,1601437440,,,,0,0.0,3,6.0,18.0,0.0,0.0,90.98934583692144,66.7128,C,,
Raw,1730961462999,1447911000000,18,55.54739768487162,-1414995233088999936,0.0,55.54739768487162,-4254.953137131436,0.0,0,5,0.0,32995,34662926405146,487,21.200000762939453,-1074.5184625472375,0.14999,16,0.0,0.0,1602562560,,,,0,0.0,3,6.0,21.200000762939453,0.0,0.0,90.98934583692144,66.7128,C,,
Raw,1730961462999,1447911000000,18,55.54739768487162,-1414995233088999936,0.0,55.54739768487162,-4254.953137131436,0.0,0,9,0.0,32995,34662936146637,396,22.0,-1274.3158213435645,0.14999,16,0.0,0.0,1600875010,,,,0,1.0587215037559699,3,6.0,22.0,0.0,0.0,90.98934583692144,66.7128,C,,
Raw,1730961462999,1447911000000,18,55.54739768487162,-1414995233088999936,0.0,55.54739768487162,-4254.953137131436,0.0,0,10,0.0,32995,34662929373496,1797,12.0,-1866.3006406532998,0.14999,16,0.0,0.0,1598062460,,,,0,0.0,3,6.0,12.0,0.0,0.0,90.98934583692144,66.7128,C,,
Raw,1730961462999,1447911000000,18,55.54739768487162,-1414995233088999936,0.0,55.54739768487162,-4254.953137131436,0.0,0,13,0.0,16905,369466878203488,797,12.899999618530273,-1101.8140869140625,0.14999,16,0.0,0.0,1561097980,,,,0,0.0,5,6.0,12.899999618530273,0.0,0.0,174.1508856970323,66.7128,I,,
Raw,1730961462999,1447911000000,18,55.54739768487162,-1414995233088999936,0.0,55.54739768487162,-4254.953137131436,0.0,0,9,0.0,16905,369466873303468,797,14.899999618530273,-1147.5118408203125,0.14999,16,0.0,0.0,1561097980,,,,0,0.0,5,6.0,14.899999618530273,0.0,0.0,174.1508856970323,66.7128,I,,
Raw,1730961463999,1448911000000,18,57.188496793983255,-1414995233088999936,0.0,57.188496793983255,-4249.793887941224,0.0,0,2,0.0,16431,369481922077805,235,27.989999771118164,-1076.0739246091146,0.14999,16,0.0,0.0,1575420030,,,,0,9.045953419892607,1,6.0,27.989999771118164,0.0,0.0,0.0,66.7128,C,,
Raw,1730961463999,1448911000000,18,57.188496793983255,-1414995233088999936,0.0,57.188496793983255,-4249.793887941224,0.0,0,3,0.0,47,369481928605699,797,18.02199935913086,-1739.8771646015662,0.14999,16,0.0,0.0,1575420030,,,,0,0.0,1,6.0,18.02199935913086,0.0,0.0,0.0,66.7128,C,,
Raw,1730961463999,1448911000000,18,57.188496793983255,-1414995233088999936,0.0,57.188496793983255,-4249.793887941224,0.0,0,21,0.0,16431,369481921716449,797,16.1560001373291,-1024.1291411114414,0.14999,16,0.0,0.0,1575420030,,,,0,0.0,1,6.0,16.1560001373291,0.0,0.0,0.0,66.7128,C,,
Raw,1730961463999,1448911000000,18,57.188496793983255,-1414995233088999936,0.0,57.188496793983255,-4249.793887941224,0.0,0,13,0.0,16431,369481914752702,396,19.0,-1007.2725410409394,0.14999,16,0.0,0.0,1575420030,,,,0,0.0,6,6.0,19.0,0.0,0.0,1.817208407378255,66.7128,C,,
Raw,1730961463999,1448911000000,18,57.188496793983255,-1414995233088999936,0.0,57.188496793983255,-4249.793887941224,0.0,0,23,0.0,16905,369467925729771,396,24.566999435424805,-985.7382202148438,0.14999,16,0.0,0.0,1561097980,,,,0,4.257878139268599,5,6.0,24.566999435424805,0.0,0.0,175.55670271538403,66.7128,I,,
Raw,1730961463999,1448911000000,18,57.188496793983255,-1414995233088999936,0.0,57.188496793983255,-4249.793887941224,0.0,0,2,0.0,16431,369481916574232,1797,11.5,-1032.640508794877,0.14999,16,0.0,0.0,1575420030,,,,0,0.0,6,6.0,11.5,0.0,0.0,1.817208407378255,66.7128,C,,
Raw,1730961463999,1448911000000,18,57.188496793983255,-1414995233088999936,0.0,57.188496793983255,-4249.793887941224,0.0,0,33,0.0,16905,369467914607196,797,15.270999908447266,-900.2933349609375,0.14999,16,0.0,0.0,1561097980,,,,0,0.0,5,6.0,15.270999908447266,0.0,0.0,175.55670271538403,66.7128,I,,
Raw,1730961463999,1448911000000,18,57.188496793983255,-1414995233088999936,0.0,57.188496793983255,-4249.793887941224,0.0,0,31,0.0,16431,369481925976564,396,23.87299919128418,-802.7826629179527,0.14999,16,0.0,0.0,1575420030,,,,0,4.503533859305677,1,6.0,23.87299919128418,0.0,0.0,0.0,66.7128,C,,
Raw,1730961463999,1448911000000,18,57.188496793983255,-1414995233088999936,0.0,57.188496793983255,-4249.793887941224,0.0,0,37,0.0,16905,369467924300880,797,22.429000854492188,-1521.0814208984375,0.14999,16,0.0,0.0,1561097980,,,,0,3.0980391997148637,5,6.0,22.429000854492188,0.0,0.0,175.55670271538403,66.7128,I,,
Raw,1730961463999,1448911000000,18,57.188496793983255,-1414995233088999936,0.0,57.188496793983255,-4249.793887941224,0.0,0,32,0.0,16905,369467921597290,797,17.295000076293945,-1707.418212890625,0.14999,16,0.0,0.0,1561097980,,,,0,0.0,5,6.0,17.295000076293945,0.0,0.0,175.55670271538403,66.7128,I,,
Raw,1730961463999,1448911000000,18,57.188496793983255,-1414995233088999936,0.0,57.188496793983255,-4249.793887941224,0.0,0,16,0.0,32995,34663928727033,797,16.0,-606.374328376892,0.14999,16,0.0,0.0,1601437440,,,,0,0.0,3,6.0,16.0,0.0,0.0,95.97407668723181,66.7128,C,,
Raw,1730961463999,1448911000000,18,57.188496793983255,-1414995233088999936,0.0,57.188496793983255,-4249.793887941224,0.0,0,5,0.0,32995,34663926408735,797,24.700000762939453,-1072.5694746968632,0.14999,16,0.0,0.0,1602562560,,,,0,0.0,3,6.0,24.700000762939453,0.0,0.0,95.97407668723181,66.7128,C,,
Raw,1730961463999,1448911000000,18,57.188496793983255,-1414995233088999936,0.0,57.188496793983255,-4249.793887941224,0.0,0,9,0.0,32995,34663936150887,316,25.0,-1272.8182269868637,0.14999,16,0.0,0.0,1600875010,,,,0,5.751665438734696,3,6.0,25.0,0.0,0.0,95.97407668723181,66.7128,C,,
Raw,1730961463999,1448911000000,18,57.188496793983255,-1414995233088999936,0.0,57.188496793983255,-4249.793887941224,0.0,0,13,0.0,16905,369467878207163,797,12.899999618530273,-1100.45849609375,0.14999,16,0.0,0.0,1561097980,,,,0,0.0,5,6.0,12.899999618530273,0.0,0.0,175.55670271538403,66.7128,I,,
Raw,1730961463999,1448911000000,18,57.188496793983255,-1414995233088999936,0.0,57.188496793983255,-4249.793887941224,0.0,0,9,0.0,16905,369467873307292,797,14.5,-1146.636962890625,0.14999,16,0.0,0.0,1561097980,,,,0,0.0,5,6.0,14.5,0.0,0.0,175.55670271538403,66.7128,I,,
Raw,1730961464999,1449911000000,18,59.15648729124951,-1414995233088999936,0.0,59.15648729124951,-4262.163371703178,0.0,0,2,0.0,16431,369482922081406,74,30.684999465942383,-1082.1326595839632,0.14999,16,0.0,0.0,1575420030,,,,0,12.377939657164184,1,6.0,30.684999465942383,0.0,0.0,0.0,66.7128,C,,
Raw,1730961464999,1449911000000,18,59.15648729124951,-1414995233088999936,0.0,59.15648729124951,-4262.163371703178,0.0,0,3,0.0,47,369482928611514,797,17.91699981689453,-1744.2693432701105,0.14999,16,0.0,0.0,1575420030,,,,0,0.0,1,6.0,17.91699981689453,0.0,0.0,0.0,66.7128,C,,
Raw,1730961464999,1449911000000,18,59.15648729124951,-1414995233088999936,0.0,59.15648729124951,-4262.163371703178,0.0,0,21,0.0,16431,369482921719868,797,16.138999938964844,-1031.1735378446128,0.14999,16,0.0,0.0,1575420030,,,,0,0.0,1,6.0,16.138999938964844,0.0,0.0,0.0,66.7128,C,,
Raw,1730961464999,1449911000000,18,59.15648729124951,-1414995233088999936,0.0,59.15648729124951,-4262.163371703178,0.0,0,13,0.0,16431,369482914756078,396,19.040000915527344,-1012.1871910581874,0.14999,16,0.0,0.0,1575420030,,,,0,0.0,6,6.0,19.040000915527344,0.0,0.0,8.975219480139183,66.7128,C,,
Raw,1730961464999,1449911000000,18,59.15648729124951,-1414995233088999936,0.0,59.15648729124951,-4262.163371703178,0.0,0,23,0.0,16905,369468925733067,316,24.55299949645996,-991.2752075195312,0.14999,16,0.0,0.0,1561097980,,,,0,5.183878532327983,5,6.0,24.55299949645996,0.0,0.0,175.91466076747253,66.7128,I,,
Raw,1730961464999,1449911000000,18,59.15648729124951,-1414995233088999936,0.0,59.15648729124951,-4262.163371703178,0.0,0,2,0.0,16431,369482916577680,1797,11.5,-1035.539421049582,0.14999,16,0.0,0.0,1575420030,,,,0,0.0,6,6.0,11.5,0.0,0.0,8.975219480139183,66.7128,C,,
Raw,1730961464999,1449911000000,18,59.15648729124951,-1414995233088999936,0.0,59.15648729124951,-4262.163371703178,0.0,0,33,0.0,16905,369468914610202,797,15.232000350952148,-904.1437377929688,0.14999,16,0.0,0.0,1561097980,,,,0,0.0,5,6.0,15.232000350952148,0.0,0.0,175.91466076747253,66.7128,I,,
Raw,1730961464999,1449911000000,18,59.15648729124951,-1414995233088999936,0.0,59.15648729124951,-4262.163371703178,0.0,0,31,0.0,16431,369482925979249,396,23.854999542236328,-810.3165455243185,0.14999,16,0.0,0.0,1575420030,,,,0,2.906637905002864,1,6.0,23.854999542236328,0.0,0.0,0.0,66.7128,C,,
Raw,1730961464999,1449911000000,18,59.15648729124951,-1414995233088999936,0.0,59.15648729124951,-4262.163371703178,0.0,0,37,0.0,16905,369468924305957,487,16.5,-1526.049072265625,0.14999,16,0.0,0.0,1561097980,,,,0,0.0,5,6.0,16.5,0.0,0.0,175.91466076747253,66.7128,I,,
Raw,1730961464999,1449911000000,18,59.15648729124951,-1414995233088999936,0.0,59.15648729124951,-4262.163371703178,0.0,0,32,0.0,16905,369468921602992,797,17.200000762939453,-1710.882080078125,0.14999,16,0.0,0.0,1561097980,,,,0,0.0,5,6.0,17.200000762939453,0.0,0.0,175.91466076747253,66.7128,I,,
Raw,1730961464999,1449911000000,18,59.15648729124951,-1414995233088999936,0.0,59.15648729124951,-4262.163371703178,0.0,0,30,0.0,16431,369482920050444,797,14.899999618530273,-1525.8636828227488,0.14999,16,0.0,0.0,1575420030,,,,0,0.0,6,6.0,14.899999618530273,0.0,0.0,8.975219480139183,66.7128,C,,
Raw,1730961464999,1449911000000,18,59.15648729124951,-1414995233088999936,0.0,59.15648729124951,-4262.163371703178,0.0,0,16,0.0,32995,34664928729062,797,15.0,-610.395928501291,0.14999,16,0.0,0.0,1601437440,,,,0,0.0,3,6.0,15.0,0.0,0.0,97.98488753839254,66.7128,C,,
Raw,1730961464999,1449911000000,18,59.15648729124951,-1414995233088999936,0.0,59.15648729124951,-4262.163371703178,0.0,0,5,0.0,32995,34664926412315,797,21.0,-1075.6206084629061,0.14999,16,0.0,0.0,1602562560,,,,0,0.0,3,6.0,21.0,0.0,0.0,97.98488753839254,66.7128,C,,
Raw,1730961464999,1449911000000,18,59.15648729124951,-1414995233088999936,0.0,59.15648729124951,-4262.163371703178,0.0,0,9,0.0,32995,34664936155138,487,20.0,-1276.6453312856397,0.14999,16,0.0,0.0,1600875010,,,,0,0.7115230852239225,3,6.0,20.0,0.0,0.0,97.98488753839254,66.7128,C,,
Raw,1730961464999,1449911000000,18,59.15648729124951,-1414995233088999936,0.0,59.15648729124951,-4262.163371703178,0.0,0,13,0.0,16905,369468878210835,1797,12.899999618530273,-1103.8392333984375,0.14999,16,0.0,0.0,1561097980,,,,0,0.0,5,6.0,12.899999618530273,0.0,0.0,175.91466076747253,66.7128,I,,
Raw,1730961464999,1449911000000,18,59.15648729124951,-1414995233088999936,0.0,59.15648729124951,-4262.163371703178,0.0,0,9,0.0,16905,369468873311126,797,14.5,-1151.7674560546875,0.14999,16,0.0,0.0,1561097980,,,,0,0.0,5,6.0,14.5,0.0,0.0,175.91466076747253,66.7128,I,,
Fix,FLP,12.9392863000,77.5425997000,802.7999877929688,1.6986295,43.038,209.16147,1730961465942,1.5,45.0,217372884000000,4.349226,0,,,
Raw,1730961465999,1450911000000,18,61.42934949791595,-1414995233088999936,0.0,61.42934949791595,-4264.005813962959,0.0,0,2,0.0,16431,369483922085020,74,31.26799964904785,-1081.0183080127374,0.14999,16,0.0,0.0,1575420030,,,,0,13.064250275506875,1,6.0,31.26799964904785,0.0,0.0,0.0,66.7128,C,,
Raw,1730961465999,1450911000000,18,61.42934949791595,-1414995233088999936,0.0,61.42934949791595,-4264.005813962959,0.0,0,3,0.0,47,369483928617335,797,17.913999557495117,-1740.693160223888,0.14999,16,0.0,0.0,1575420030,,,,0,0.0,1,6.0,17.913999557495117,0.0,0.0,0.0,66.7128,C,,
Raw,1730961465999,1450911000000,18,61.42934949791595,-1414995233088999936,0.0,61.42934949791595,-4264.005813962959,0.0,0,21,0.0,16431,369483921723313,1797,16.12299919128418,-1032.258341863129,0.14999,16,0.0,0.0,1575420030,,,,0,0.0,1,6.0,16.12299919128418,0.0,0.0,0.0,66.7128,C,,
Raw,1730961465999,1450911000000,18,61.42934949791595,-1414995233088999936,0.0,61.42934949791595,-4264.005813962959,0.0,0,13,0.0,16431,369483914759451,487,18.99799919128418,-1011.854362964455,0.14999,16,0.0,0.0,1575420030,,,,0,0.0,6,6.0,18.99799919128418,0.0,0.0,15.035952728742084,66.7128,C,,
Raw,1730961465999,1450911000000,18,61.42934949791595,-1414995233088999936,0.0,61.42934949791595,-4264.005813962959,0.0,0,23,0.0,16905,369469925736370,396,24.459999084472656,-989.901123046875,0.14999,16,0.0,0.0,1561097980,,,,0,3.1598607392577005,5,6.0,24.459999084472656,0.0,0.0,174.8233572754546,66.7128,I,,
Raw,1730961465999,1450911000000,18,61.42934949791595,-1414995233088999936,0.0,61.42934949791595,-4264.005813962959,0.0,0,2,0.0,16431,369483916581137,1797,11.5,-1036.7130535598926,0.14999,16,0.0,0.0,1575420030,,,,0,0.0,6,6.0,11.5,0.0,0.0,15.035952728742084,66.7128,C,,
Raw,1730961465999,1450911000000,18,61.42934949791595,-1414995233088999936,0.0,61.42934949791595,-4264.005813962959,0.0,0,33,0.0,16905,369469914613219,797,15.194999694824219,-904.5306396484375,0.14999,16,0.0,0.0,1561097980,,,,0,0.0,5,6.0,15.194999694824219,0.0,0.0,174.8233572754546,66.7128,I,,
Raw,1730961465999,1450911000000,18,61.42934949791595,-1414995233088999936,0.0,61.42934949791595,-4264.005813962959,0.0,0,31,0.0,16431,369483925981950,316,23.924999237060547,-808.4552355372595,0.14999,16,0.0,0.0,1575420030,,,,0,5.42531159120558,1,6.0,23.924999237060547,0.0,0.0,0.0,66.7128,C,,
Raw,1730961465999,1450911000000,18,61.42934949791595,-1414995233088999936,0.0,61.42934949791595,-4264.005813962959,0.0,0,37,0.0,16905,369469924311044,487,20.0,-1524.7342529296875,0.14999,16,0.0,0.0,1561097980,,,,0,0.0,5,6.0,20.0,0.0,0.0,174.8233572754546,66.7128,I,,
Raw,1730961465999,1450911000000,18,61.42934949791595,-1414995233088999936,0.0,61.42934949791595,-4264.005813962959,0.0,0,32,0.0,16905,369469921608694,797,14.100000381469727,-1707.357666015625,0.14999,16,0.0,0.0,1561097980,,,,0,0.0,5,6.0,14.100000381469727,0.0,0.0,174.8233572754546,66.7128,I,,
Raw,1730961465999,1450911000000,18,61.42934949791595,-1414995233088999936,0.0,61.42934949791595,-4264.005813962959,0.0,0,30,0.0,16431,369483920055537,797,14.899999618530273,-1526.2080326037014,0.14999,16,0.0,0.0,1575420030,,,,0,0.0,6,6.0,14.899999618530273,0.0,0.0,15.035952728742084,66.7128,C,,
Raw,1730961465999,1450911000000,18,61.42934949791595,-1414995233088999936,0.0,61.42934949791595,-4264.005813962959,0.0,0,16,0.0,32995,34665928731117,797,17.0,-609.5693325237714,0.14999,16,0.0,0.0,1601437440,,,,0,0.0,3,6.0,17.0,0.0,0.0,103.69367786774322,66.7128,C,,
Raw,1730961465999,1450911000000,18,61.42934949791595,-1414995233088999936,0.0,61.42934949791595,-4264.005813962959,0.0,0,5,0.0,32995,34665926415909,797,21.899999618530273,-1075.4616714586575,0.14999,16,0.0,0.0,1602562560,,,,0,0.0,3,6.0,21.899999618530273,0.0,0.0,103.69367786774322,66.7128,C,,
Raw,1730961465999,1450911000000,18,61.42934949791595,-1414995233088999936,0.0,61.42934949791595,-4264.005813962959,0.0,0,9,0.0,32995,34665936159401,396,23.0,-1277.7260534557365,0.14999,16,0.0,0.0,1600875010,,,,0,2.0643897383012733,3,6.0,23.0,0.0,0.0,103.69367786774322,66.7128,C,,
Raw,1730961465999,1450911000000,18,61.42934949791595,-1414995233088999936,0.0,61.42934949791595,-4264.005813962959,0.0,0,13,0.0,16905,369469878214519,1797,12.699999809265137,-1107.3990478515625,0.14999,16,0.0,0.0,1561097980,,,,0,0.0,5,6.0,12.699999809265137,0.0,0.0,174.8233572754546,66.7128,I,,
Raw,1730961465999,1450911000000,18,61.42934949791595,-1414995233088999936,0.0,61.42934949791595,-4264.005813962959,0.0,0,9,0.0,16905,369469873314975,487,17.899999618530273,-1150.9251708984375,0.14999,16,0.0,0.0,1561097980,,,,0,0.0,5,6.0,17.899999618530273,0.0,0.0,174.8233572754546,66.7128,I,,
Raw,1730961466999,1451911000000,18,61.38096473717411,-1414995233088999936,0.0,61.38096473717411,-4258.420474150261,0.0,0,2,0.0,16431,369484922088625,74,31.059999465942383,-1078.9339047110354,0.14999,16,0.0,0.0,1575420030,,,,0,12.830160159632607,1,6.0,31.059999465942383,0.0,0.0,0.0,66.7128,C,,
Raw,1730961466999,1451911000000,18,61.38096473717411,-1414995233088999936,0.0,61.38096473717411,-4258.420474150261,0.0,0,3,0.0,47,369484928623142,797,17.910999298095703,-1742.2117929329781,0.14999,16,0.0,0.0,1575420030,,,,0,0.0,1,6.0,17.910999298095703,0.0,0.0,0.0,66.7128,C,,
Raw,1730961466999,1451911000000,18,61.38096473717411,-1414995233088999936,0.0,61.38096473717411,-4258.420474150261,0.0,0,13,0.0,16431,369484914762819,487,18.902999877929688,-1011.7168460524719,0.14999,16,0.0,0.0,1575420030,,,,0,0.0,6,6.0,18.902999877929688,0.0,0.0,20.394121304239842,66.7128,C,,
Raw,1730961466999,1451911000000,18,61.38096473717411,-1414995233088999936,0.0,61.38096473717411,-4258.420474150261,0.0,0,23,0.0,16905,369470925739667,396,21.799999237060547,-987.5341796875,0.14999,16,0.0,0.0,1561097980,,,,0,1.831185892479104,5,6.0,21.799999237060547,0.0,0.0,174.62173219770983,66.7128,I,,
Raw,1730961466999,1451911000000,18,61.38096473717411,-1414995233088999936,0.0,61.38096473717411,-4258.420474150261,0.0,0,2,0.0,16431,369484916584592,1797,11.5,-1035.3166994022688,0.14999,16,0.0,0.0,1575420030,,,,0,0.0,6,6.0,11.5,0.0,0.0,20.394121304239842,66.7128,C,,
Raw,1730961466999,1451911000000,18,61.38096473717411,-1414995233088999936,0.0,61.38096473717411,-4258.420474150261,0.0,0,33,0.0,16905,369470914616240,1797,12.300000190734863,-901.255859375,0.14999,16,0.0,0.0,1561097980,,,,0,0.0,5,6.0,12.300000190734863,0.0,0.0,174.62173219770983,66.7128,I,,
Raw,1730961466999,1451911000000,18,61.38096473717411,-1414995233088999936,0.0,61.38096473717411,-4258.420474150261,0.0,0,31,0.0,16431,369484925984640,396,23.944000244140625,-806.6942757292152,0.14999,16,0.0,0.0,1575420030,,,,0,4.049859487970896,1,6.0,23.944000244140625,0.0,0.0,0.0,66.7128,C,,
Raw,1730961466999,1451911000000,18,61.38096473717411,-1414995233088999936,0.0,61.38096473717411,-4258.420474150261,0.0,0,37,0.0,16905,369470924316121,487,20.0,-1520.6402587890625,0.14999,16,0.0,0.0,1561097980,,,,0,0.0,5,6.0,20.0,0.0,0.0,174.62173219770983,66.7128,I,,
Raw,1730961466999,1451911000000,18,61.38096473717411,-1414995233088999936,0.0,61.38096473717411,-4258.420474150261,0.0,0,32,0.0,16905,369470921614384,1797,14.100000381469727,-1704.5252685546875,0.14999,16,0.0,0.0,1561097980,,,,0,0.0,5,6.0,14.100000381469727,0.0,0.0,174.62173219770983,66.7128,I,,
Raw,1730961466999,1451911000000,18,61.38096473717411,-1414995233088999936,0.0,61.38096473717411,-4258.420474150261,0.0,0,30,0.0,16431,369484920060621,797,15.399999618530273,-1522.0438718419184,0.14999,16,0.0,0.0,1575420030,,,,0,0.0,6,6.0,15.399999618530273,0.0,0.0,20.394121304239842,66.7128,C,,
Raw,1730961466999,1451911000000,18,61.38096473717411,-1414995233088999936,0.0,61.38096473717411,-4258.420474150261,0.0,0,16,0.0,32995,34666928733145,487,18.0,-606.7630835126203,0.14999,16,0.0,0.0,1601437440,,,,0,0.0,3,6.0,18.0,0.0,0.0,107.87557003363193,66.7128,C,,
Raw,1730961466999,1451911000000,18,61.38096473717411,-1414995233088999936,0.0,61.38096473717411,-4258.420474150261,0.0,0,5,0.0,32995,34666926419507,1797,21.93000030517578,-1073.750906428444,0.14999,16,0.0,0.0,1602562560,,,,0,0.0,3,6.0,21.93000030517578,0.0,0.0,107.87557003363193,66.7128,C,,
Raw,1730961466999,1451911000000,18,61.38096473717411,-1414995233088999936,0.0,61.38096473717411,-4258.420474150261,0.0,0,9,0.0,32995,34666936163657,396,23.0,-1274.9129205711415,0.14999,16,0.0,0.0,1600875010,,,,0,2.78529182199406,3,6.0,23.0,0.0,0.0,107.87557003363193,66.7128,C,,
Raw,1730961466999,1451911000000,18,61.38096473717411,-1414995233088999936,0.0,61.38096473717411,-4258.420474150261,0.0,0,13,0.0,16905,369470878218205,1797,12.699999809265137,-1104.3724365234375,0.14999,16,0.0,0.0,1561097980,,,,0,0.0,5,6.0,12.699999809265137,0.0,0.0,174.62173219770983,66.7128,I,,
Raw,1730961466999,1451911000000,18,61.38096473717411,-1414995233088999936,0.0,61.38096473717411,-4258.420474150261,0.0,0,9,0.0,16905,369470873318810,797,17.899999618530273,-1148.5045166015625,0.14999,16,0.0,0.0,1561097980,,,,0,0.0,5,6.0,17.899999618530273,0.0,0.0,174.62173219770983,66.7128,I,,
Raw,1730961467999,1452911000000,18,61.193756113265,-1414995233088999936,0.0,61.193756113265,-4245.6072431674165,0.0,0,2,0.0,16431,369485922092216,316,26.299999237060547,-1076.0819154567027,0.14999,16,0.0,0.0,1575420030,,,,0,6.81803015403347,1,6.0,26.299999237060547,0.0,0.0,0.0,66.7128,C,,
Raw,1730961467999,1452911000000,18,61.193756113265,-1414995233088999936,0.0,61.193756113265,-4245.6072431674165,0.0,0,3,0.0,47,369485928628948,396,21.143999099731445,-1738.7205358715887,0.14999,16,0.0,0.0,1575420030,,,,0,0.0,1,6.0,21.143999099731445,0.0,0.0,0.0,66.7128,C,,
Raw,1730961467999,1452911000000,18,61.193756113265,-1414995233088999936,0.0,61.193756113265,-4245.6072431674165,0.0,0,13,0.0,16431,369485914766186,487,16.399999618530273,-1006.564793528388,0.14999,16,0.0,0.0,1575420030,,,,0,0.0,6,6.0,16.399999618530273,0.0,0.0,22.54686262277944,66.7128,C,,
Raw,1730961467999,1452911000000,18,61.193756113265,-1414995233088999936,0.0,61.193756113265,-4245.6072431674165,0.0,0,23,0.0,16905,369471925742956,396,21.795000076293945,-985.1672973632812,0.14999,16,0.0,0.0,1561097980,,,,0,1.7591034071025997,5,6.0,21.795000076293945,0.0,0.0,174.90717311860948,66.7128,I,,
Raw,1730961467999,1452911000000,18,61.193756113265,-1414995233088999936,0.0,61.193756113265,-4245.6072431674165,0.0,0,2,0.0,16431,369485916588051,1797,11.545000076293945,-1032.4098892168079,0.14999,16,0.0,0.0,1575420030,,,,0,0.0,6,6.0,11.545000076293945,0.0,0.0,22.54686262277944,66.7128,C,,
Raw,1730961467999,1452911000000,18,61.193756113265,-1414995233088999936,0.0,61.193756113265,-4245.6072431674165,0.0,0,33,0.0,16905,369471914619240,1797,12.300000190734863,-897.9522705078125,0.14999,16,0.0,0.0,1561097980,,,,0,0.0,5,6.0,12.300000190734863,0.0,0.0,174.90717311860948,66.7128,I,,
Raw,1730961467999,1452911000000,18,61.193756113265,-1414995233088999936,0.0,61.193756113265,-4245.6072431674165,0.0,0,31,0.0,16431,369485925987324,396,23.875999450683594,-801.3470978570471,0.14999,16,0.0,0.0,1575420030,,,,0,1.4652782330861145,1,6.0,23.875999450683594,0.0,0.0,0.0,66.7128,C,,
Raw,1730961467999,1452911000000,18,61.193756113265,-1414995233088999936,0.0,61.193756113265,-4245.6072431674165,0.0,0,37,0.0,16905,369471924321191,396,20.030000686645508,-1518.307861328125,0.14999,16,0.0,0.0,1561097980,,,,0,0.08818237810110033,5,6.0,20.030000686645508,0.0,0.0,174.90717311860948,66.7128,I,,
Raw,1730961467999,1452911000000,18,61.193756113265,-1414995233088999936,0.0,61.193756113265,-4245.6072431674165,0.0,0,32,0.0,16905,369471921620069,797,17.0,-1704.663818359375,0.14999,16,0.0,0.0,1561097980,,,,0,0.0,5,6.0,17.0,0.0,0.0,174.90717311860948,66.7128,I,,
Raw,1730961467999,1452911000000,18,61.193756113265,-1414995233088999936,0.0,61.193756113265,-4245.6072431674165,0.0,0,30,0.0,16431,369485920065683,1797,15.399999618530273,-1512.8267078994124,0.14999,16,0.0,0.0,1575420030,,,,0,0.0,6,6.0,15.399999618530273,0.0,0.0,22.54686262277944,66.7128,C,,
Raw,1730961467999,1452911000000,18,61.193756113265,-1414995233088999936,0.0,61.193756113265,-4245.6072431674165,0.0,0,16,0.0,32995,34667928735170,487,19.0,-603.1303299312233,0.14999,16,0.0,0.0,1601437440,,,,0,0.0,3,6.0,19.0,0.0,0.0,109.8899355968729,66.7128,C,,
Raw,1730961467999,1452911000000,18,61.193756113265,-1414995233088999936,0.0,61.193756113265,-4245.6072431674165,0.0,0,5,0.0,32995,34667926423085,797,21.917999267578125,-1071.6833552266244,0.14999,16,0.0,0.0,1602562560,,,,0,0.0,3,6.0,21.917999267578125,0.0,0.0,109.8899355968729,66.7128,C,,
Raw,1730961467999,1452911000000,18,61.193756113265,-1414995233088999936,0.0,61.193756113265,-4245.6072431674165,0.0,0,9,0.0,32995,34667936167906,487,20.0,-1271.7961174668246,0.14999,16,0.0,0.0,1600875010,,,,0,1.723722952325666,3,6.0,20.0,0.0,0.0,109.8899355968729,66.7128,C,,
Raw,1730961467999,1452911000000,18,61.193756113265,-1414995233088999936,0.0,61.193756113265,-4245.6072431674165,0.0,0,16,0.0,16905,369471871221631,797,15.800000190734863,-1171.9326171875,0.14999,16,0.0,0.0,1561097980,,,,0,0.0,5,6.0,15.800000190734863,0.0,0.0,174.90717311860948,66.7128,I,,
Raw,1730961467999,1452911000000,18,61.193756113265,-1414995233088999936,0.0,61.193756113265,-4245.6072431674165,0.0,0,13,0.0,16905,369471878221876,1797,12.399999618530273,-1097.3646240234375,0.14999,16,0.0,0.0,1561097980,,,,0,0.0,5,6.0,12.399999618530273,0.0,0.0,174.90717311860948,66.7128,I,,
Raw,1730961467999,1452911000000,18,61.193756113265,-1414995233088999936,0.0,61.193756113265,-4245.6072431674165,0.0,0,9,0.0,16905,369471873322631,797,17.920000076293945,-1146.11279296875,0.14999,16,0.0,0.0,1561097980,,,,0,0.0,5,6.0,17.920000076293945,0.0,0.0,174.90717311860948,66.7128,I,,
Raw,1730961468999,1453911000000,18,61.36149631273361,-1414995233088999936,0.0,61.36149631273361,-4242.147887761229,0.0,0,2,0.0,16431,369486922095801,487,26.392000198364258,-1074.4577292259823,0.14999,16,0.0,0.0,1575420030,,,,0,6.952437317787633,1,6.0,26.392000198364258,0.0,0.0,0.0,66.7128,C,,
Raw,1730961468999,1453911000000,18,61.36149631273361,-1414995233088999936,0.0,61.36149631273361,-4242.147887761229,0.0,0,3,0.0,47,369486928634768,487,21.211999893188477,-1738.4349095287264,0.14999,16,0.0,0.0,1575420030,,,,0,1.3389357926122645,1,6.0,21.211999893188477,0.0,0.0,0.0,66.7128,C,,
Raw,1730961468999,1453911000000,18,61.36149631273361,-1414995233088999936,0.0,61.36149631273361,-4242.147887761229,0.0,0,23,0.0,16905,369472925746240,316,21.899999618530273,-984.0113525390625,0.14999,16,0.0,0.0,1561097980,,,,0,4.681664120667359,5,6.0,21.899999618530273,0.0,0.0,175.03626167789588,66.7128,I,,
Raw,1730961468999,1453911000000,18,61.36149631273361,-1414995233088999936,0.0,61.36149631273361,-4242.147887761229,0.0,0,2,0.0,16431,369486916591491,797,11.586999893188477,-1031.2184166746722,0.14999,16,0.0,0.0,1575420030,,,,0,0.0,6,6.0,11.586999893188477,0.0,0.0,24.241208508595957,66.7128,C,,
Raw,1730961468999,1453911000000,18,61.36149631273361,-1414995233088999936,0.0,61.36149631273361,-4242.147887761229,0.0,0,33,0.0,16905,369472914622245,1797,12.699999809265137,-897.7313232421875,0.14999,16,0.0,0.0,1561097980,,,,0,0.0,5,6.0,12.699999809265137,0.0,0.0,175.03626167789588,66.7128,I,,
Raw,1730961468999,1453911000000,18,61.36149631273361,-1414995233088999936,0.0,61.36149631273361,-4242.147887761229,0.0,0,31,0.0,16431,369486925989995,487,21.2810001373291,-801.7267560343196,0.14999,16,0.0,0.0,1575420030,,,,0,0.0,1,6.0,21.2810001373291,0.0,0.0,0.0,66.7128,C,,
Raw,1730961468999,1453911000000,18,61.36149631273361,-1414995233088999936,0.0,61.36149631273361,-4242.147887761229,0.0,0,37,0.0,16905,369472924326255,316,24.5,-1517.9051513671875,0.14999,16,0.0,0.0,1561097980,,,,0,5.471834946340833,5,6.0,24.5,0.0,0.0,175.03626167789588,66.7128,I,,
Raw,1730961468999,1453911000000,18,61.36149631273361,-1414995233088999936,0.0,61.36149631273361,-4242.147887761229,0.0,0,32,0.0,16905,369472921625752,797,17.0,-1703.261474609375,0.14999,16,0.0,0.0,1561097980,,,,0,0.0,5,6.0,17.0,0.0,0.0,175.03626167789588,66.7128,I,,
Raw,1730961468999,1453911000000,18,61.36149631273361,-1414995233088999936,0.0,61.36149631273361,-4242.147887761229,0.0,0,16,0.0,32995,34668928737182,797,17.0,-606.0967701898148,0.14999,16,0.0,0.0,1601437440,,,,0,0.0,3,6.0,17.0,0.0,0.0,111.98861438318377,66.7128,C,,
Raw,1730961468999,1453911000000,18,61.36149631273361,-1414995233088999936,0.0,61.36149631273361,-4242.147887761229,0.0,0,5,0.0,32995,34668926426661,797,21.91699981689453,-1069.83703702727,0.14999,16,0.0,0.0,1602562560,,,,0,0.0,3,6.0,21.91699981689453,0.0,0.0,111.98861438318377,66.7128,C,,
Raw,1730961468999,1453911000000,18,61.36149631273361,-1414995233088999936,0.0,61.36149631273361,-4242.147887761229,0.0,0,9,0.0,32995,34668936172146,396,22.0,-1269.5210139627907,0.14999,16,0.0,0.0,1600875010,,,,0,2.0643897383012733,3,6.0,22.0,0.0,0.0,111.98861438318377,66.7128,C,,
Raw,1730961468999,1453911000000,18,61.36149631273361,-1414995233088999936,0.0,61.36149631273361,-4242.147887761229,0.0,0,16,0.0,16905,369472871225535,797,15.800000190734863,-1170.83740234375,0.14999,16,0.0,0.0,1561097980,,,,0,0.0,5,6.0,15.800000190734863,0.0,0.0,175.03626167789588,66.7128,I,,
Raw,1730961468999,1453911000000,18,61.36149631273361,-1414995233088999936,0.0,61.36149631273361,-4242.147887761229,0.0,0,13,0.0,16905,369472878225535,797,12.399999618530273,-1096.345703125,0.14999,16,0.0,0.0,1561097980,,,,0,0.0,5,6.0,12.399999618530273,0.0,0.0,175.03626167789588,66.7128,I,,
Raw,1730961468999,1453911000000,18,61.36149631273361,-1414995233088999936,0.0,61.36149631273361,-4242.147887761229,0.0,0,9,0.0,16905,369472873326446,797,17.93899917602539,-1142.795654296875,0.14999,16,0.0,0.0,1561097980,,,,0,0.0,5,6.0,17.93899917602539,0.0,0.0,175.03626167789588,66.7128,I,,
Raw,1730961468999,1453911000000,18,61.36149631273361,-1414995233088999936,0.0,61.36149631273361,-4242.147887761229,0.0,0,26,0.0,16431,369486930530623,487,19.05699920654297,-991.3697322552397,0.14999,16,0.0,0.0,1575420030,,,,0,0.0,1,6.0,19.05699920654297,0.0,0.0,0.0,66.7128,C,,
Raw,1730961469999,1454911000000,18,61.99795473618288,-1414995233088999936,0.0,61.99795473618288,-4255.835843400626,0.0,0,2,0.0,16431,369487922099392,487,20.15999984741211,-1079.9217964733361,0.14999,16,0.0,0.0,1575420030,,,,0,0.0,1,6.0,20.15999984741211,0.0,0.0,0.0,66.7128,C,,
Raw,1730961469999,1454911000000,18,61.99795473618288,-1414995233088999936,0.0,61.99795473618288,-4255.835843400626,0.0,0,3,0.0,47,369487928640573,396,21.222000122070312,-1742.4450141823552,0.14999,16,0.0,0.0,1575420030,,,,0,0.0,1,6.0,21.222000122070312,0.0,0.0,0.0,66.7128,C,,
Raw,1730961469999,1454911000000,18,61.99795473618288,-1414995233088999936,0.0,61.99795473618288,-4255.835843400626,0.0,0,21,0.0,16431,369487921736971,487,18.389999389648438,-1027.7872768038592,0.14999,16,0.0,0.0,1575420030,,,,0,0.0,1,6.0,18.389999389648438,0.0,0.0,0.0,66.7128,C,,
Raw,1730961469999,1454911000000,18,61.99795473618288,-1414995233088999936,0.0,61.99795473618288,-4255.835843400626,0.0,0,23,0.0,16905,369473925749528,396,21.9950008392334,-988.7792358398438,0.14999,16,0.0,0.0,1561097980,,,,0,4.525157370428229,5,6.0,21.9950008392334,0.0,0.0,176.6530302857775,66.7128,I,,
Raw,1730961469999,1454911000000,18,61.99795473618288,-1414995233088999936,0.0,61.99795473618288,-4255.835843400626,0.0,0,2,0.0,16431,369487916594935,797,11.626999855041504,-1034.3117109428024,0.14999,16,0.0,0.0,1575420030,,,,0,0.0,6,6.0,11.626999855041504,0.0,0.0,26.560811462755407,66.7128,C,,
Raw,1730961469999,1454911000000,18,61.99795473618288,-1414995233088999936,0.0,61.99795473618288,-4255.835843400626,0.0,0,33,0.0,16905,369473914625248,1797,12.699999809265137,-904.3006591796875,0.14999,16,0.0,0.0,1561097980,,,,0,0.0,5,6.0,12.699999809265137,0.0,0.0,176.6530302857775,66.7128,I,,
Raw,1730961469999,1454911000000,18,61.99795473618288,-1414995233088999936,0.0,61.99795473618288,-4255.835843400626,0.0,0,31,0.0,16431,369487925992676,487,18.527000427246094,-808.6579800656023,0.14999,16,0.0,0.0,1575420030,,,,0,0.0,1,6.0,18.527000427246094,0.0,0.0,0.0,66.7128,C,,
Raw,1730961469999,1454911000000,18,61.99795473618288,-1414995233088999936,0.0,61.99795473618288,-4255.835843400626,0.0,0,37,0.0,16905,369473924331326,396,24.485000610351562,-1522.7232666015625,0.14999,16,0.0,0.0,1561097980,,,,0,5.036239459875992,5,6.0,24.485000610351562,0.0,0.0,176.6530302857775,66.7128,I,,
Raw,1730961469999,1454911000000,18,61.99795473618288,-1414995233088999936,0.0,61.99795473618288,-4255.835843400626,0.0,0,32,0.0,16905,369473921631437,797,17.0,-1705.891845703125,0.14999,16,0.0,0.0,1561097980,,,,0,0.0,5,6.0,17.0,0.0,0.0,176.6530302857775,66.7128,I,,
Raw,1730961469999,1454911000000,18,61.99795473618288,-1414995233088999936,0.0,61.99795473618288,-4255.835843400626,0.0,0,16,0.0,32995,34669928739207,487,18.0,-609.0548923864851,0.14999,16,0.0,0.0,1601437440,,,,0,0.0,3,6.0,18.0,0.0,0.0,114.57671100908331,66.7128,C,,
Raw,1730961469999,1454911000000,18,61.99795473618288,-1414995233088999936,0.0,61.99795473618288,-4255.835843400626,0.0,0,5,0.0,32995,34669926430226,797,21.961000442504883,-1073.1194515374266,0.14999,16,0.0,0.0,1602562560,,,,0,0.0,3,6.0,21.961000442504883,0.0,0.0,114.57671100908331,66.7128,C,,
