# 
# Header Description:
# 
# Version: v3.1.0.3 Platform: 13 Manufacturer: OPPO Model: CPH2371 GNSS Hardware Model Name: MTK_MNLD_6_0_0_20040301,MNL_VER_22051902ALPS05_6.7o_00
# 
# Raw,utcTimeMillis,TimeNanos,LeapSecond,TimeUncertaintyNanos,FullBiasNanos,BiasNanos,BiasUncertaintyNanos,DriftNanosPerSecond,DriftUncertaintyNanosPerSecond,HardwareClockDiscontinuityCount,Svid,TimeOffsetNanos,State,ReceivedSvTimeNanos,ReceivedSvTimeUncertaintyNanos,Cn0DbHz,PseudorangeRateMetersPerSecond,PseudorangeRateUncertaintyMetersPerSecond,AccumulatedDeltaRangeState,AccumulatedDeltaRangeMeters,AccumulatedDeltaRangeUncertaintyMeters,CarrierFrequencyHz,CarrierCycles,CarrierPhase,CarrierPhaseUncertainty,MultipathIndicator,SnrInDb,ConstellationType,AgcDb,BasebandCn0DbHz,FullInterSignalBiasNanos,FullInterSignalBiasUncertaintyNanos,SatelliteInterSignalBiasNanos,SatelliteInterSignalBiasUncertaintyNanos,CodeType,ChipsetElapsedRealtimeNanos,IsFullTracking
# 
# UncalAccel,utcTimeMillis,elapsedRealtimeNanos,UncalAccelXMps2,UncalAccelYMps2,UncalAccelZMps2,BiasXMps2,BiasYMps2,BiasZMps2
# 
# Accel,utcTimeMillis,elapsedRealtimeNanos,AccelXMps2,AccelYMps2,AccelZMps2
# 
# UncalGyro,utcTimeMillis,elapsedRealtimeNanos,UncalGyroXRadPerSec,UncalGyroYRadPerSec,UncalGyroZRadPerSec,DriftXRadPerSec,DriftYRadPerSec,DriftZRadPerSec
# 
# Gyro,utcTimeMillis,elapsedRealtimeNanos,GyroXRadPerSec,GyroYRadPerSec,GyroZRadPerSec
# 
# UncalMag,utcTimeMillis,elapsedRealtimeNanos,UncalMagXMicroT,UncalMagYMicroT,UncalMagZMicroT,BiasXMicroT,BiasYMicroT,BiasZMicroT
# 
# Mag,utcTimeMillis,elapsedRealtimeNanos,MagXMicroT,MagYMicroT,MagZMicroT
# 
# Pressure,utcTimeMillis,elapsedRealtimeNanos,PressureHpa
# 
# OrientationDeg,utcTimeMillis,elapsedRealtimeNanos,yawDeg,rollDeg,pitchDeg
# 
# Fix,Provider,LatitudeDegrees,LongitudeDegrees,AltitudeMeters,SpeedMps,AccuracyMeters,BearingDegrees,UnixTimeMillis,SpeedAccuracyMps,BearingAccuracyDegrees,elapsedRealtimeNanos,VerticalAccuracyMeters,MockLocation,NumberOfUsedSignals,VerticalSpeedAccuracyMps,SolutionType
# 
# Nav,Svid,Type,Status,MessageId,Sub-messageId,Data(Bytes)
# 
# Status,UnixTimeMillis,SignalCount,SignalIndex,ConstellationType,Svid,CarrierFrequencyHz,Cn0DbHz,AzimuthDegrees,ElevationDegrees,UsedInFix,HasAlmanacData,HasEphemerisData,BasebandCn0DbHz
# 
# Agc,utcTimeMillis,TimeNanos,LeapSecond,TimeUncertaintyNanos,FullBiasNanos,BiasNanos,BiasUncertaintyNanos,DriftNanosPerSecond,DriftUncertaintyNanosPerSecond,HardwareClockDiscontinuityCount,AgcDb,CarrierFrequencyHz,ConstellationType
# 
Fix,FLP,12.9394097000,77.5426664000,802.7999877929688,2.5375273,22.934,177.51099,1730961457254,1.5,45.0,2275008395000000,1.3098274,0,,,
Raw,1730961464968,8012000000,18,704357.4354195395,-1414996674956000000,0.0,253.93666140339494,-4527.39725318182,0.0,0,2,0.0,47,369482889782179,797,24.14900016784668,-1161.4491623267345,0.14999,16,-9099.568706803375,0.02250000089406967,1575420030,,,,0,3.8089881820509683,1,6.0,24.14900016784668,0.0,0.0,0.0,66.7128,C,,
Raw,1730961464968,8012000000,18,704357.4354195395,-1414996674956000000,0.0,253.93666140339494,-4527.39725318182,0.0,0,21,0.0,47,369482889420779,396,23.381000518798828,-1109.9633879812216,0.14999,16,-10296.235668634856,0.004900000058114529,1575420030,,,,0,2.644759506995987,1,6.0,23.381000518798828,0.0,0.0,0.0,66.7128,C,,
Raw,1730961464968,8012000000,18,704357.4354195395,-1414996674956000000,0.0,253.93666140339494,-4527.39725318182,0.0,0,31,0.0,47,369482893680017,396,22.572999954223633,-887.1211346194183,0.14999,16,-9056.399235769884,0.004900000058114529,1575420030,,,,0,1.4226558589593938,1,6.0,22.572999954223633,0.0,0.0,0.0,66.7128,C,,
Raw,1730961464968,8012000000,18,704357.4354195395,-1414996674956000000,0.0,253.93666140339494,-4527.39725318182,0.0,0,23,0.0,47,369468893433965,235,29.0,-1069.9364013671875,0.14999,17,-9179.537913771901,0.0008999999845400453,1561097980,,,,0,10.881360887005513,5,6.0,29.0,0.0,0.0,39.709923250498726,66.7128,I,,
Raw,1730961464968,8012000000,18,704357.4354195395,-1414996674956000000,0.0,253.93666140339494,-4527.39725318182,0.0,0,9,0.0,17,855991,316,0.0,-1356.5873167220695,0.14999,16,-10536.10425006293,0.002025000052526593,1600875010,,,,0,5.087559488865527,3,6.0,24.0,0.0,0.0,-17.24447808326047,66.7128,C,,
Raw,1730961465468,8512000000,18,704354.3603755368,-1414996674956000000,0.0,205.44056163288877,-4518.58177347062,0.0,0,2,0.0,47,369483389784105,1797,12.100000381469727,-1158.8736006488548,0.14999,16,-9672.996292294938,0.02250000089406967,1575420030,,,,0,0.0,1,6.0,12.100000381469727,0.0,0.0,0.0,66.7128,C,,
Raw,1730961465468,8512000000,18,704354.3603755368,-1414996674956000000,0.0,205.44056163288877,-4518.58177347062,0.0,0,21,0.0,47,369483389422560,316,25.520000457763672,-1106.4318979313937,0.14999,16,-10843.672839415745,0.002025000052526593,1575420030,,,,0,5.775910784939391,1,6.0,25.520000457763672,0.0,0.0,0.0,66.7128,C,,
Raw,1730961465468,8512000000,18,704354.3603755368,-1414996674956000000,0.0,205.44056163288877,-4518.58177347062,0.0,0,31,0.0,47,369483393681522,487,22.584999084472656,-884.813359252576,0.14999,16,-9492.715177657463,0.009999999776482582,1575420030,,,,0,1.4652782330861145,1,6.0,22.584999084472656,0.0,0.0,0.0,66.7128,C,,
Raw,1730961465468,8512000000,18,704354.3603755368,-1414996674956000000,0.0,205.44056163288877,-4518.58177347062,0.0,0,23,0.0,47,369469393435747,235,29.200000762939453,-1066.5638427734375,0.14999,20,-9706.719998098562,0.0008999999845400453,1561097980,,,,0,11.106331755712723,5,6.0,29.200000762939453,0.0,0.0,39.709923250498726,66.7128,I,,
Raw,1730961465468,8512000000,18,704354.3603755368,-1414996674956000000,0.0,205.44056163288877,-4518.58177347062,0.0,0,9,0.0,17,858253,396,0.0,-1354.2627445071444,0.14999,16,-11206.977454458574,0.004900000058114529,1600875010,,,,0,2.1291066182857357,3,6.0,23.0,0.0,0.0,-17.24447808326047,66.7128,C,,
Raw,1730961467001,10045000000,18,704353.1095101798,-1414996674956000000,0.0,186.18515738425214,-4473.656284538915,0.0,0,2,0.0,47,369484922789948,396,22.8439998626709,-1145.843873238447,0.14999,16,-11453.411397681959,0.004900000058114529,1575420030,,,,0,1.8935426315152892,1,6.0,22.8439998626709,0.0,0.0,0.0,66.7128,C,,
Raw,1730961467001,10045000000,18,704353.1095101798,-1414996674956000000,0.0,186.18515738425214,-4473.656284538915,0.0,0,21,0.0,47,369484922428129,235,27.54400062561035,-1092.3450557185315,0.14999,16,-12542.098253827751,0.0008999999845400453,1575420030,,,,0,8.477514855328748,1,6.0,27.54400062561035,0.0,0.0,0.0,66.7128,C,,
Raw,1730961467001,10045000000,18,704353.1095101798,-1414996674956000000,0.0,186.18515738425214,-4473.656284538915,0.0,0,31,0.0,47,369484926685995,316,26.34600067138672,-871.1443640351114,0.14999,16,-10853.034450588326,0.002025000052526593,1575420030,,,,0,6.885493713675994,1,6.0,26.34600067138672,0.0,0.0,0.0,66.7128,C,,
Raw,1730961467001,10045000000,18,704353.1095101798,-1414996674956000000,0.0,186.18515738425214,-4473.656284538915,0.0,0,23,0.0,47,369470926441163,74,29.239999771118164,-1053.525634765625,0.14999,16,-11345.11554111703,0.0006249999860301614,1561097980,,,,0,11.974470512664258,5,6.0,29.239999771118164,0.0,0.0,85.12561579051716,66.7128,I,,
Raw,1730961467001,10045000000,18,704353.1095101798,-1414996674956000000,0.0,186.18515738425214,-4473.656284538915,0.0,0,9,0.0,17,865069,487,0.0,-1339.5854419933178,0.14999,16,-13284.111034419826,0.009999999776482582,1600875010,,,,0,0.0,3,6.0,18.0,0.0,0.0,97.67022011831315,66.7128,C,,
Raw,1730961467001,10045000000,18,704353.1095101798,-1414996674956000000,0.0,186.18515738425214,-4473.656284538915,0.0,0,7,0.0,17,268535,487,0.0,-1913.193866711074,0.14999,16,-13798.70850248361,0.009999999776482582,1604812540,,,,0,1.306646202868603,3,6.0,20.0,0.0,0.0,97.67022011831315,66.7128,C,,
Raw,1730961468001,11045000000,18,704347.7933324126,-1414996674956000000,0.0,154.37608042472368,-4448.400034639312,0.0,0,2,0.0,47,369485922793764,396,22.94099998474121,-1137.803222228057,0.14999,16,-12587.181700689647,0.004900000058114529,1575420030,,,,0,4.764783316090514,1,6.0,22.94099998474121,0.0,0.0,0.0,66.7128,C,,
Raw,1730961468001,11045000000,18,704347.7933324126,-1414996674956000000,0.0,154.37608042472368,-4448.400034639312,0.0,0,21,0.0,47,369485922431760,396,24.690000534057617,-1085.3903237286463,0.14999,16,-13623.18712288303,0.004900000058114529,1575420030,,,,0,4.5914929870594445,1,6.0,24.690000534057617,0.0,0.0,0.0,66.7128,C,,
Raw,1730961468001,11045000000,18,704347.7933324126,-1414996674956000000,0.0,154.37608042472368,-4448.400034639312,0.0,0,31,0.0,47,369485926688881,487,22.243999481201172,-863.592455563256,0.14999,16,-11712.429654802123,0.009999999776482582,1575420030,,,,0,0.9484929985627627,1,6.0,22.243999481201172,0.0,0.0,0.0,66.7128,C,,
Raw,1730961468001,11045000000,18,704347.7933324126,-1414996674956000000,0.0,154.37608042472368,-4448.400034639312,0.0,0,23,0.0,47,369471926444659,74,29.283000946044922,-1045.888671875,0.14999,17,-12386.24385010495,0.0006249999860301614,1561097980,,,,0,12.085402922661586,5,6.0,29.283000946044922,0.0,0.0,92.8553313248275,66.7128,I,,
Raw,1730961468001,11045000000,18,704347.7933324126,-1414996674956000000,0.0,154.37608042472368,-4448.400034639312,0.0,0,9,0.0,17,869524,797,0.0,-1332.7172464065245,0.14999,16,-14612.481794496456,0.02250000089406967,1600875010,,,,0,0.0,3,6.0,17.0,0.0,0.0,53.431680175914806,66.7128,C,,
Raw,1730961468001,11045000000,18,704347.7933324126,-1414996674956000000,0.0,154.37608042472368,-4448.400034639312,0.0,0,7,0.0,17,274981,316,0.0,-1903.253798958899,0.14999,16,-15698.568696623408,0.002025000052526593,1604812540,,,,0,4.032907270561388,3,6.0,24.0,0.0,0.0,53.431680175914806,66.7128,C,,
Raw,1730961468001,11045000000,18,704347.7933324126,-1414996674956000000,0.0,154.37608042472368,-4448.400034639312,0.0,0,4,0.0,47,369485921141697,487,19.30900001525879,-1657.898130025769,0.14999,16,-15601.533290819325,0.009999999776482582,1575420030,,,,0,0.0,1,6.0,19.30900001525879,0.0,0.0,0.0,66.7128,C,,
Raw,1730961468001,11045000000,18,704347.7933324126,-1414996674956000000,0.0,154.37608042472368,-4448.400034639312,0.0,0,16,0.0,47,369485932591428,797,14.399999618530273,-1593.7630297817802,0.14999,16,-14955.946105457922,0.02250000089406967,1575420030,,,,0,0.0,1,6.0,14.399999618530273,0.0,0.0,0.0,66.7128,C,,
Fix,FLP,12.9394712000,77.5426567000,802.7999877929688,0.6149384,24.269,350.26315,1730961466663,1.5,45.0,2275017804000000,1.8833697,0,,,
Raw,1730961469001,12045000000,18,704345.2394823087,-1414996674956000000,0.0,152.3559069152806,-4429.54401824165,0.0,0,2,0.0,47,369486922797544,316,23.020999908447266,-1131.2366038471946,0.14999,16,-13721.224071645047,0.002025000052526593,1575420030,,,,0,4.414674878311298,1,6.0,23.020999908447266,0.0,0.0,0.0,66.7128,C,,
Raw,1730961469001,12045000000,18,704345.2394823087,-1414996674956000000,0.0,152.3559069152806,-4429.54401824165,0.0,0,21,0.0,47,369486922435372,396,22.509000778198242,-1079.5480849733387,0.14999,16,-14705.138682827652,0.004900000058114529,1575420030,,,,0,1.3389357926122645,1,6.0,22.509000778198242,0.0,0.0,0.0,66.7128,C,,
Raw,1730961469001,12045000000,18,704345.2394823087,-1414996674956000000,0.0,152.3559069152806,-4429.54401824165,0.0,0,31,0.0,47,369486926691749,487,18.867000579833984,-858.7800140616712,0.14999,16,-12572.815507998113,0.009999999776482582,1575420030,,,,0,0.0,1,6.0,18.867000579833984,0.0,0.0,0.0,66.7128,C,,
Raw,1730961469001,12045000000,18,704345.2394823087,-1414996674956000000,0.0,152.3559069152806,-4429.54401824165,0.0,0,23,0.0,47,369472926448139,74,29.30299949645996,-1039.8843994140625,0.14999,20,-13428.595360536132,0.0006249999860301614,1561097980,,,,0,11.625635227353142,5,6.0,29.30299949645996,0.0,0.0,97.3476778196274,66.7128,I,,
Raw,1730961469001,12045000000,18,704345.2394823087,-1414996674956000000,0.0,152.3559069152806,-4429.54401824165,0.0,0,13,0.0,47,369486915471258,487,19.5,-1061.5184098935206,0.14999,24,-15641.65889460658,0.009999999776482582,1575420030,,,,0,0.0,6,6.0,19.5,0.0,0.0,12.792073301928758,66.7128,C,,
Raw,1730961469001,12045000000,18,704345.2394823087,-1414996674956000000,0.0,152.3559069152806,-4429.54401824165,0.0,0,9,0.0,17,873964,487,0.0,-1326.8899054150615,0.14999,16,-15941.71732710364,0.009999999776482582,1600875010,,,,0,0.0,3,6.0,20.0,0.0,0.0,63.56357016957347,66.7128,C,,
Raw,1730961469001,12045000000,18,704345.2394823087,-1414996674956000000,0.0,152.3559069152806,-4429.54401824165,0.0,0,7,0.0,17,281229,487,0.0,-1898.7204114785545,0.14999,16,-17599.552211304614,0.009999999776482582,1604812540,,,,0,2.1389101065025975,3,6.0,19.0,0.0,0.0,63.56357016957347,66.7128,C,,
Raw,1730961469001,12045000000,18,704345.2394823087,-1414996674956000000,0.0,152.3559069152806,-4429.54401824165,0.0,0,4,0.0,47,369486921147200,797,17.945999145507812,-1652.479034525307,0.14999,16,-17256.14358012978,0.02250000089406967,1575420030,,,,0,0.0,1,6.0,17.945999145507812,0.0,0.0,0.0,66.7128,C,,
Raw,1730961469001,12045000000,18,704345.2394823087,-1414996674956000000,0.0,152.3559069152806,-4429.54401824165,0.0,0,26,0.0,47,369486931232406,396,24.006999969482422,-1048.4292157103635,0.14999,16,-15765.377206909337,0.004900000058114529,1575420030,,,,0,3.6202499128990246,1,6.0,24.006999969482422,0.0,0.0,0.0,66.7128,C,,
Raw,1730961469001,12045000000,18,704345.2394823087,-1414996674956000000,0.0,152.3559069152806,-4429.54401824165,0.0,0,16,0.0,47,369486932596727,797,18.993000030517578,-1587.6847822721231,0.14999,16,-16546.25535086899,0.02250000089406967,1575420030,,,,0,0.0,1,6.0,18.993000030517578,0.0,0.0,0.0,66.7128,C,,
Raw,1730961470001,13045000000,18,704341.0699311189,-1414996674956000000,0.0,128.26715455000837,-4428.401177750009,0.0,0,2,0.0,47,369487922801328,235,26.707000732421875,-1131.2811110099242,0.14999,17,-14852.183749446018,0.0008999999845400453,1575420030,,,,0,7.375429378465759,1,6.0,26.707000732421875,0.0,0.0,0.0,66.7128,C,,
Raw,1730961470001,13045000000,18,704341.0699311189,-1414996674956000000,0.0,128.26715455000837,-4428.401177750009,0.0,0,21,0.0,47,369487922438972,316,25.18400001525879,-1079.219809804395,0.14999,16,-15784.461425115018,0.002025000052526593,1575420030,,,,0,5.305228255011775,1,6.0,25.18400001525879,0.0,0.0,0.0,66.7128,C,,
Raw,1730961470001,13045000000,18,704341.0699311189,-1414996674956000000,0.0,128.26715455000837,-4428.401177750009,0.0,0,31,0.0,47,369487926694612,797,18.867000579833984,-858.0002560039935,0.14999,16,-13430.983915390483,0.02250000089406967,1575420030,,,,0,0.0,1,6.0,18.867000579833984,0.0,0.0,0.0,66.7128,C,,
Raw,1730961470001,13045000000,18,704341.0699311189,-1414996674956000000,0.0,128.26715455000837,-4428.401177750009,0.0,0,23,0.0,47,369473926451609,74,29.392000198364258,-1039.832275390625,0.14999,17,-14468.43453098676,0.0006249999860301614,1561097980,,,,0,13.217309560077384,5,6.0,29.392000198364258,0.0,0.0,87.0300270858453,66.7128,I,,
Raw,1730961470001,13045000000,18,704341.0699311189,-1414996674956000000,0.0,128.26715455000837,-4428.401177750009,0.0,0,13,0.0,47,369487915474826,487,19.5,-1061.1500875698034,0.14999,24,-16702.869413919474,0.009999999776482582,1575420030,,,,0,0.0,6,6.0,19.5,0.0,0.0,43.18463643479263,66.7128,C,,
Raw,1730961470001,13045000000,18,704341.0699311189,-1414996674956000000,0.0,128.26715455000837,-4428.401177750009,0.0,0,9,0.0,17,878394,487,0.0,-1326.6838010262472,0.14999,16,-17268.28222928888,0.009999999776482582,1600875010,,,,0,0.9260003930593843,3,6.0,20.0,0.0,0.0,68.59221522548907,66.7128,C,,
Raw,1730961470001,13045000000,18,704341.0699311189,-1414996674956000000,0.0,128.26715455000837,-4428.401177750009,0.0,0,7,0.0,17,287577,797,0.0,-1898.0257177350875,0.14999,16,-19497.69835948718,0.02250000089406967,1604812540,,,,0,0.0,3,6.0,17.0,0.0,0.0,68.59221522548907,66.7128,C,,
Raw,1730961470001,13045000000,18,704341.0699311189,-1414996674956000000,0.0,128.26715455000837,-4428.401177750009,0.0,0,4,0.0,47,369487921152730,797,15.82800006866455,-1652.272015822673,0.14999,16,-18908.406914994128,0.02250000089406967,1575420030,,,,0,0.0,1,6.0,15.82800006866455,0.0,0.0,0.0,66.7128,C,,
Raw,1730961470001,13045000000,18,704341.0699311189,-1414996674956000000,0.0,128.26715455000837,-4428.401177750009,0.0,0,26,0.0,47,369487931235919,316,25.41900062561035,-1048.0602429688195,0.14999,17,-16813.660985505958,0.002025000052526593,1575420030,,,,0,5.621833314435873,1,6.0,25.41900062561035,0.0,0.0,0.0,66.7128,C,,
Raw,1730961470001,13045000000,18,704341.0699311189,-1414996674956000000,0.0,128.26715455000837,-4428.401177750009,0.0,0,3,0.0,47,369487929342435,797,16.1560001373291,-1794.5860380301017,0.14999,16,-18286.043107206762,0.02250000089406967,1575420030,,,,0,0.0,1,6.0,16.1560001373291,0.0,0.0,0.0,66.7128,C,,
Raw,1730961470001,13045000000,18,704341.0699311189,-1414996674956000000,0.0,128.26715455000837,-4428.401177750009,0.0,0,16,0.0,47,369487932602020,797,18.993000030517578,-1586.7645339638248,0.14999,16,-18133.06751437859,0.02250000089406967,1575420030,,,,0,0.0,1,6.0,18.993000030517578,0.0,0.0,0.0,66.7128,C,,
Raw,1730961471001,14045000000,18,704333.1999032478,-1414996674956000000,0.0,125.35696865658417,-4425.069819373462,0.0,0,2,0.0,47,369488922805102,235,27.895999908447266,-1130.0253400197535,0.14999,21,-15982.906138969785,0.0008999999845400453,1575420030,,,,0,8.913946477298621,1,6.0,27.895999908447266,0.0,0.0,0.0,66.7128,C,,
Raw,1730961471001,14045000000,18,704333.1999032478,-1414996674956000000,0.0,125.35696865658417,-4425.069819373462,0.0,0,21,0.0,47,369488922442575,316,26.11199951171875,-1079.0834078944008,0.14999,17,-16863.687825249006,0.002025000052526593,1575420030,,,,0,6.577693764264941,1,6.0,26.11199951171875,0.0,0.0,0.0,66.7128,C,,
Raw,1730961471001,14045000000,18,704333.1999032478,-1414996674956000000,0.0,125.35696865658417,-4425.069819373462,0.0,0,31,0.0,47,369488926697470,797,18.867000579833984,-856.2406899484356,0.14999,16,-14287.964959894143,0.02250000089406967,1575420030,,,,0,0.0,1,6.0,18.867000579833984,0.0,0.0,0.0,66.7128,C,,
Raw,1730961471001,14045000000,18,704333.1999032478,-1414996674956000000,0.0,125.35696865658417,-4425.069819373462,0.0,0,23,0.0,47,369474926455074,235,26.5,-1038.8935546875,0.14999,21,-15507.716513638272,0.0008999999845400453,1561097980,,,,0,7.958800173440752,5,6.0,26.5,0.0,0.0,77.20099172244967,66.7128,I,,
Raw,1730961471001,14045000000,18,704333.1999032478,-1414996674956000000,0.0,125.35696865658417,-4425.069819373462,0.0,0,13,0.0,47,369488915478362,396,22.100000381469727,-1060.4018283183163,0.14999,24,-17763.52737233546,0.004900000058114529,1575420030,,,,0,2.244535421843244,6,6.0,22.100000381469727,0.0,0.0,43.18463643479263,66.7128,C,,
Raw,1730961471001,14045000000,18,704333.1999032478,-1414996674956000000,0.0,125.35696865658417,-4425.069819373462,0.0,0,9,0.0,17,882818,487,0.0,-1325.042189627673,0.14999,16,-18594.04051128201,0.009999999776482582,1600875010,,,,0,0.0,3,6.0,20.0,0.0,0.0,69.19563825925167,66.7128,C,,
Raw,1730961471001,14045000000,18,704333.1999032478,-1414996674956000000,0.0,125.35696865658417,-4425.069819373462,0.0,0,7,0.0,17,293907,797,0.0,-1897.5519468181276,0.14999,16,-21395.40701565358,0.02250000089406967,1604812540,,,,0,0.0,3,6.0,17.0,0.0,0.0,69.19563825925167,66.7128,C,,
Raw,1730961471001,14045000000,18,704333.1999032478,-1414996674956000000,0.0,125.35696865658417,-4425.069819373462,0.0,0,4,0.0,47,369488921158241,797,15.82800006866455,-1651.3153441160655,0.14999,16,-20560.508775909228,0.02250000089406967,1575420030,,,,0,0.0,1,6.0,15.82800006866455,0.0,0.0,0.0,66.7128,C,,
Raw,1730961471001,14045000000,18,704333.1999032478,-1414996674956000000,0.0,125.35696865658417,-4425.069819373462,0.0,0,26,0.0,47,369488931239420,316,25.1299991607666,-1046.4026066784274,0.14999,20,-17860.9913541833,0.002025000052526593,1575420030,,,,0,5.22424035229762,1,6.0,25.1299991607666,0.0,0.0,0.0,66.7128,C,,
Raw,1730961471001,14045000000,18,704333.1999032478,-1414996674956000000,0.0,125.35696865658417,-4425.069819373462,0.0,0,16,0.0,47,369488932607317,797,17.0310001373291,-1586.0362518313084,0.14999,16,-19719.559348095656,0.02250000089406967,1575420030,,,,0,0.0,1,6.0,17.0310001373291,0.0,0.0,0.0,66.7128,C,,
Raw,1730961472001,15045000000,18,704316.834414827,-1414996674956000000,0.0,127.08122211453157,-4423.393575558944,0.0,0,2,0.0,47,369489922808876,316,25.34000015258789,-1128.9462968448474,0.14999,17,-17112.7333962729,0.002025000052526593,1575420030,,,,0,5.489419342890265,1,6.0,25.34000015258789,0.0,0.0,0.0,66.7128,C,,
Raw,1730961472001,15045000000,18,704316.834414827,-1414996674956000000,0.0,127.08122211453157,-4423.393575558944,0.0,0,21,0.0,47,369489922446171,487,25.18400001525879,-1078.474152224216,0.14999,21,-17941.966470295032,0.009999999776482582,1575420030,,,,0,5.305228255011775,1,6.0,25.18400001525879,0.0,0.0,0.0,66.7128,C,,
Raw,1730961472001,15045000000,18,704316.834414827,-1414996674956000000,0.0,127.08122211453157,-4423.393575558944,0.0,0,31,0.0,47,369489926700319,487,18.788000106811523,-856.2479374613645,0.14999,16,-15144.190328728007,0.009999999776482582,1575420030,,,,0,0.0,1,6.0,18.788000106811523,0.0,0.0,0.0,66.7128,C,,
Raw,1730961472001,15045000000,18,704316.834414827,-1414996674956000000,0.0,127.08122211453157,-4423.393575558944,0.0,0,23,0.0,47,369475926458539,316,26.520000457763672,-1037.9290771484375,0.14999,17,-16545.542003905346,0.002025000052526593,1561097980,,,,0,8.42751679159897,5,6.0,26.520000457763672,0.0,0.0,70.91495558638907,66.7128,I,,
Raw,1730961472001,15045000000,18,704316.834414827,-1414996674956000000,0.0,127.08122211453157,-4423.393575558944,0.0,0,13,0.0,47,369489915481906,396,21.0,-1060.4761617842532,0.14999,24,-18824.073182544736,0.004900000058114529,1575420030,,,,0,0.7065592468348596,6,6.0,21.0,0.0,0.0,48.29666989799862,66.7128,C,,
Raw,1730961472001,15045000000,18,704316.834414827,-1414996674956000000,0.0,127.08122211453157,-4423.393575558944,0.0,0,9,0.0,17,887236,487,0.0,-1324.7181284236099,0.14999,16,-19918.5563772,0.009999999776482582,1600875010,,,,0,0.0,3,6.0,19.0,0.0,0.0,68.52314497596922,66.7128,C,,
Raw,1730961472001,15045000000,18,704316.834414827,-1414996674956000000,0.0,127.08122211453157,-4423.393575558944,0.0,0,7,0.0,17,300236,797,0.0,-1897.3255510892297,0.14999,16,-23292.97888298127,0.02250000089406967,1604812540,,,,0,0.0,3,6.0,17.0,0.0,0.0,68.52314497596922,66.7128,C,,
Raw,1730961472001,15045000000,18,704316.834414827,-1414996674956000000,0.0,127.08122211453157,-4423.393575558944,0.0,0,4,0.0,47,369489921163747,797,15.82800006866455,-1649.1810444753535,0.14999,16,-22211.102358041124,0.02250000089406967,1575420030,,,,0,0.0,1,6.0,15.82800006866455,0.0,0.0,0.0,66.7128,C,,
Raw,1730961472001,15045000000,18,704316.834414827,-1414996674956000000,0.0,127.08122211453157,-4423.393575558944,0.0,0,26,0.0,47,369489931242909,487,23.726999282836914,-1046.2359138810639,0.14999,16,-18907.266251031044,0.009999999776482582,1575420030,,,,0,3.2196768158587865,1,6.0,23.726999282836914,0.0,0.0,0.0,66.7128,C,,
Raw,1730961472001,15045000000,18,704316.834414827,-1414996674956000000,0.0,127.08122211453157,-4423.393575558944,0.0,0,37,0.0,47,369475925043966,316,25.600000381469727,-1577.4266357421875,0.14999,16,-21306.197939442533,0.002025000052526593,1561097980,,,,0,6.769129872092097,5,6.0,25.600000381469727,0.0,0.0,70.91495558638907,66.7128,I,,
Raw,1730961472001,15045000000,18,704316.834414827,-1414996674956000000,0.0,127.08122211453157,-4423.393575558944,0.0,0,3,0.0,47,369489929354461,487,22.19499969482422,-1791.9219266109244,0.14999,16,-21873.228929670433,0.009999999776482582,1575420030,,,,0,0.8412269000142272,1,6.0,22.19499969482422,0.0,0.0,0.0,66.7128,C,,
Raw,1730961472001,15045000000,18,704316.834414827,-1414996674956000000,0.0,127.08122211453157,-4423.393575558944,0.0,0,16,0.0,47,369489932612607,487,17.0310001373291,-1586.245128870591,0.14999,16,-21305.476914643627,0.009999999776482582,1575420030,,,,0,0.0,1,6.0,17.0310001373291,0.0,0.0,0.0,66.7128,C,,
Raw,1730961473001,16045000000,18,704279.5690510666,-1414996674956000000,0.0,124.02404325435135,-4420.191010673525,0.0,0,2,0.0,47,369490922812644,396,23.231000900268555,-1128.731937712452,0.14999,20,-18241.742269845912,0.004900000058114529,1575420030,,,,0,2.4896461032247905,1,6.0,23.231000900268555,0.0,0.0,0.0,66.7128,C,,
Raw,1730961473001,16045000000,18,704279.5690510666,-1414996674956000000,0.0,124.02404325435135,-4420.191010673525,0.0,0,21,0.0,47,369490922449764,797,18.01099967956543,-1077.4065378196976,0.14999,20,-19019.1310876721,0.02250000089406967,1575420030,,,,0,0.0,1,6.0,18.01099967956543,0.0,0.0,0.0,66.7128,C,,
Raw,1730961473001,16045000000,18,704279.5690510666,-1414996674956000000,0.0,124.02404325435135,-4420.191010673525,0.0,0,31,0.0,47,369490926703200,797,18.84600067138672,-853.2586171287136,0.14999,16,-15998.527954332998,0.02250000089406967,1575420030,,,,0,0.0,1,6.0,18.84600067138672,0.0,0.0,0.0,66.7128,C,,
Raw,1730961473001,16045000000,18,704279.5690510666,-1414996674956000000,0.0,124.02404325435135,-4420.191010673525,0.0,0,23,0.0,47,369476926461996,235,26.554000854492188,-1035.575439453125,0.14999,21,-17582.107353844225,0.0008999999845400453,1561097980,,,,0,8.716004588103226,5,6.0,26.554000854492188,0.0,0.0,61.09981133347755,66.7128,I,,
Raw,1730961473001,16045000000,18,704279.5690510666,-1414996674956000000,0.0,124.02404325435135,-4420.191010673525,0.0,0,13,0.0,47,369490915485444,235,28.700000762939453,-1059.2320983149675,0.14999,25,-19884.05776216495,0.0008999999845400453,1575420030,,,,0,10.497627286792008,6,6.0,28.700000762939453,0.0,0.0,49.883729936942,66.7128,C,,
Raw,1730961473001,16045000000,18,704279.5690510666,-1414996674956000000,0.0,124.02404325435135,-4420.191010673525,0.0,0,9,0.0,17,891657,487,0.0,-1323.5239299684558,0.14999,16,-21241.93480437934,0.009999999776482582,1600875010,,,,0,2.4443175654565326,3,6.0,20.0,0.0,0.0,65.09396048404824,66.7128,C,,
Raw,1730961473001,16045000000,18,704279.5690510666,-1414996674956000000,0.0,124.02404325435135,-4420.191010673525,0.0,0,7,0.0,17,306575,797,0.0,-1894.2921037241122,0.14999,16,-25188.92744056963,0.02250000089406967,1604812540,,,,0,0.0,3,6.0,16.0,0.0,0.0,65.09396048404824,66.7128,C,,
Raw,1730961473001,16045000000,18,704279.5690510666,-1414996674956000000,0.0,124.02404325435135,-4420.191010673525,0.0,0,4,0.0,47,369490921169228,1797,15.781000137329102,-1650.3361865360123,0.14999,16,-23859.98797649663,0.02250000089406967,1575420030,,,,0,0.0,1,6.0,15.781000137329102,0.0,0.0,0.0,66.7128,C,,
Raw,1730961473001,16045000000,18,704279.5690510666,-1414996674956000000,0.0,124.02404325435135,-4420.191010673525,0.0,0,26,0.0,47,369490931246393,316,26.04800033569336,-1044.3231279688437,0.14999,16,-19952.53266792416,0.002025000052526593,1575420030,,,,0,6.499820559988309,1,6.0,26.04800033569336,0.0,0.0,0.0,66.7128,C,,
Raw,1730961473001,16045000000,18,704279.5690510666,-1414996674956000000,0.0,124.02404325435135,-4420.191010673525,0.0,0,37,0.0,47,369476925049217,235,27.600000381469727,-1578.806396484375,0.14999,16,-22885.200178262672,0.0008999999845400453,1561097980,,,,0,9.265734636019813,5,6.0,27.600000381469727,0.0,0.0,61.09981133347755,66.7128,I,,
Raw,1730961473001,16045000000,18,704279.5690510666,-1414996674956000000,0.0,124.02404325435135,-4420.191010673525,0.0,0,3,0.0,47,369490929360431,396,23.02400016784668,-1791.0750826002388,0.14999,16,-23664.956099842133,0.004900000058114529,1575420030,,,,0,2.1544576458054783,1,6.0,23.02400016784668,0.0,0.0,0.0,66.7128,C,,
Raw,1730961473001,16045000000,18,704279.5690510666,-1414996674956000000,0.0,124.02404325435135,-4420.191010673525,0.0,0,16,0.0,47,369490932617866,487,22.63599967956543,-1583.9144030461407,0.14999,16,-22890.088588974646,0.009999999776482582,1575420030,,,,0,1.5653580590399647,1,6.0,22.63599967956543,0.0,0.0,0.0,66.7128,C,,
Fix,FLP,12.9393685000,77.5426578000,802.7999877929688,2.1897542,20.666,179.47818,1730961471577,1.5,45.0,2275022719000000,1.2945995,0,,,
Raw,1730961474001,17045000000,18,704251.163983585,-1414996674956000000,0.0,115.66729204779692,-4409.231573253781,0.0,0,2,0.0,47,369491922816404,396,23.719999313354492,-1124.3530461509438,0.14999,16,-19368.34404611397,0.004900000058114529,1575420030,,,,0,3.1743432597251706,1,6.0,23.719999313354492,0.0,0.0,0.0,66.7128,C,,
Raw,1730961474001,17045000000,18,704251.163983585,-1414996674956000000,0.0,115.66729204779692,-4409.231573253781,0.0,0,21,0.0,47,369491922453351,797,18.01099967956543,-1074.3376806784943,0.14999,16,-20094.344858427903,0.02250000089406967,1575420030,,,,0,0.0,1,6.0,18.01099967956543,0.0,0.0,0.0,66.7128,C,,
Raw,1730961474001,17045000000,18,704251.163983585,-1414996674956000000,0.0,115.66729204779692,-4409.231573253781,0.0,0,31,0.0,47,369491926706042,797,18.881999969482422,-849.0094374652653,0.14999,16,-16850.324630128624,0.02250000089406967,1575420030,,,,0,0.0,1,6.0,18.881999969482422,0.0,0.0,0.0,66.7128,C,,
Raw,1730961474001,17045000000,18,704251.163983585,-1414996674956000000,0.0,115.66729204779692,-4409.231573253781,0.0,0,23,0.0,47,369477926465471,74,29.799999237060547,-1032.6241455078125,0.14999,21,-18616.113297952357,0.0006249999860301614,1561097980,,,,0,11.723721764518814,5,6.0,29.799999237060547,0.0,0.0,52.341177515259815,66.7128,I,,
Raw,1730961474001,17045000000,18,704251.163983585,-1414996674956000000,0.0,115.66729204779692,-4409.231573253781,0.0,0,13,0.0,47,369491915488978,74,30.799999237060547,-1056.4984851051395,0.14999,29,-20941.865771141434,0.0006249999860301614,1575420030,,,,0,12.850786667811217,6,6.0,30.799999237060547,0.0,0.0,39.666542840569015,66.7128,C,,
Raw,1730961474001,17045000000,18,704251.163983585,-1414996674956000000,0.0,115.66729204779692,-4409.231573253781,0.0,0,2,0.0,47,369491917311395,235,26.399999618530273,-1078.9103038356004,0.14999,25,-22343.09614025051,0.0008999999845400453,1575420030,,,,0,7.841222883822051,6,6.0,26.399999618530273,0.0,0.0,39.666542840569015,66.7128,C,,
Raw,1730961474001,17045000000,18,704251.163983585,-1414996674956000000,0.0,115.66729204779692,-4409.231573253781,0.0,0,9,0.0,17,896067,487,0.0,-1321.9198087204647,0.14999,16,-22563.317252855566,0.009999999776482582,1600875010,,,,0,0.0,3,6.0,19.0,0.0,0.0,60.10229384845843,66.7128,C,,
Raw,1730961474001,17045000000,18,704251.163983585,-1414996674956000000,0.0,115.66729204779692,-4409.231573253781,0.0,0,7,0.0,17,312885,1797,0.0,-1890.7308861384458,0.14999,16,-27080.463505153133,0.02250000089406967,1604812540,,,,0,0.0,3,6.0,13.0,0.0,0.0,60.10229384845843,66.7128,C,,
Raw,1730961474001,17045000000,18,704251.163983585,-1414996674956000000,0.0,115.66729204779692,-4409.231573253781,0.0,0,4,0.0,47,369491921174719,1797,15.736000061035156,-1643.8097082267557,0.14999,16,-25506.132217727933,0.02250000089406967,1575420030,,,,0,0.0,1,6.0,15.736000061035156,0.0,0.0,0.0,66.7128,C,,
Raw,1730961474001,17045000000,18,704251.163983585,-1414996674956000000,0.0,115.66729204779692,-4409.231573253781,0.0,0,26,0.0,47,369491931249869,74,30.08099937438965,-1041.2812167090424,0.14999,17,-20994.99298811564,0.0006249999860301614,1575420030,,,,0,11.639738523309111,1,6.0,30.08099937438965,0.0,0.0,0.0,66.7128,C,,
Raw,1730961474001,17045000000,18,704251.163983585,-1414996674956000000,0.0,115.66729204779692,-4409.231573253781,0.0,0,37,0.0,47,369477925054468,316,27.600000381469727,-1572.3499755859375,0.14999,16,-24459.806059294515,0.002025000052526593,1561097980,,,,0,9.265734636019813,5,6.0,27.600000381469727,0.0,0.0,52.341177515259815,66.7128,I,,
Raw,1730961474001,17045000000,18,704251.163983585,-1414996674956000000,0.0,115.66729204779692,-4409.231573253781,0.0,0,3,0.0,47,369491929366407,487,21.003000259399414,-1787.0114578511354,0.14999,16,-25453.566462328236,0.009999999776482582,1575420030,,,,0,0.0,1,6.0,21.003000259399414,0.0,0.0,0.0,66.7128,C,,
Raw,1730961474001,17045000000,18,704251.163983585,-1414996674956000000,0.0,115.66729204779692,-4409.231573253781,0.0,0,16,0.0,47,369491932623149,487,19.631000518798828,-1581.5868363939928,0.14999,16,-24472.24379812618,0.009999999776482582,1575420030,,,,0,0.0,1,6.0,19.631000518798828,0.0,0.0,0.0,66.7128,C,,
Raw,1730961475001,18045000000,18,704221.4559313564,-1414996674956000000,0.0,119.78439301192822,-4403.4166440783065,0.0,0,2,0.0,47,369492922820156,316,25.858999252319336,-1123.2252216390168,0.14999,16,-20492.467247119603,0.002025000052526593,1575420030,,,,0,6.219040083162447,1,6.0,25.858999252319336,0.0,0.0,0.0,66.7128,C,,
Raw,1730961475001,18045000000,18,704221.4559313564,-1414996674956000000,0.0,119.78439301192822,-4403.4166440783065,0.0,0,21,0.0,47,369492922456928,487,18.01099967956543,-1070.0536572028882,0.14999,16,-21166.655351405854,0.009999999776482582,1575420030,,,,0,0.0,1,6.0,18.01099967956543,0.0,0.0,0.0,66.7128,C,,
Raw,1730961475001,18045000000,18,704221.4559313564,-1414996674956000000,0.0,119.78439301192822,-4403.4166440783065,0.0,0,31,0.0,47,369492926708849,487,18.95400047302246,-849.2973867289382,0.14999,16,-17700.29963524514,0.009999999776482582,1575420030,,,,0,0.0,1,6.0,18.95400047302246,0.0,0.0,0.0,66.7128,C,,
Raw,1730961475001,18045000000,18,704221.4559313564,-1414996674956000000,0.0,119.78439301192822,-4403.4166440783065,0.0,0,23,0.0,47,369478926468896,74,29.700000762939453,-1030.428955078125,0.14999,17,-19647.887865851582,0.0006249999860301614,1561097980,,,,0,11.656562489434021,5,6.0,29.700000762939453,0.0,0.0,46.16356131889201,66.7128,I,,
Raw,1730961475001,18045000000,18,704221.4559313564,-1414996674956000000,0.0,119.78439301192822,-4403.4166440783065,0.0,0,13,0.0,47,369492915492499,235,28.200000762939453,-1053.2419359624455,0.14999,29,-21997.115125064214,0.0008999999845400453,1575420030,,,,0,9.95809721285909,6,6.0,28.200000762939453,0.0,0.0,35.636975494104924,66.7128,C,,
Raw,1730961475001,18045000000,18,704221.4559313564,-1414996674956000000,0.0,119.78439301192822,-4403.4166440783065,0.0,0,2,0.0,47,369492917314991,487,20.0,-1076.913892774201,0.14999,25,-23421.00352799141,0.009999999776482582,1575420030,,,,0,0.0,6,6.0,20.0,0.0,0.0,35.636975494104924,66.7128,C,,
Raw,1730961475001,18045000000,18,704221.4559313564,-1414996674956000000,0.0,119.78439301192822,-4403.4166440783065,0.0,0,9,0.0,17,900471,396,0.0,-1318.3394079004029,0.14999,16,-23882.967412174537,0.004900000058114529,1600875010,,,,0,1.850904152112127,3,6.0,21.0,0.0,0.0,54.867836092327025,66.7128,C,,
Raw,1730961475001,18045000000,18,704221.4559313564,-1414996674956000000,0.0,119.78439301192822,-4403.4166440783065,0.0,0,7,0.0,17,319244,1797,0.0,-1892.1131588522717,0.14999,16,-28972.20326586175,0.02250000089406967,1604812540,,,,0,0.0,3,6.0,13.0,0.0,0.0,54.867836092327025,66.7128,C,,
Raw,1730961475001,18045000000,18,704221.4559313564,-1414996674956000000,0.0,119.78439301192822,-4403.4166440783065,0.0,0,4,0.0,47,369492921180192,797,15.694000244140625,-1640.654066764071,0.14999,16,-27146.944674909064,0.02250000089406967,1575420030,,,,0,0.0,1,6.0,15.694000244140625,0.0,0.0,0.0,66.7128,C,,
Raw,1730961475001,18045000000,18,704221.4559313564,-1414996674956000000,0.0,119.78439301192822,-4403.4166440783065,0.0,0,26,0.0,47,369492931253341,316,23.429000854492188,-1039.5021381186762,0.14999,20,-22035.597386160665,0.002025000052526593,1575420030,,,,0,2.7594159120754824,1,6.0,23.429000854492188,0.0,0.0,0.0,66.7128,C,,
Raw,1730961475001,18045000000,18,704221.4559313564,-1414996674956000000,0.0,119.78439301192822,-4403.4166440783065,0.0,0,37,0.0,47,369478925059686,74,30.899999618530273,-1566.570556640625,0.14999,16,-26028.448022167846,0.0006249999860301614,1561097980,,,,0,13.02594419517159,5,6.0,30.899999618530273,0.0,0.0,46.16356131889201,66.7128,I,,
Raw,1730961475001,18045000000,18,704221.4559313564,-1414996674956000000,0.0,119.78439301192822,-4403.4166440783065,0.0,0,3,0.0,47,369492929372372,396,21.986000061035156,-1784.673856181086,0.14999,16,-27239.81492696059,0.004900000058114529,1575420030,,,,0,0.5308712823861192,1,6.0,21.986000061035156,0.0,0.0,0.0,66.7128,C,,
Raw,1730961475001,18045000000,18,704221.4559313564,-1414996674956000000,0.0,119.78439301192822,-4403.4166440783065,0.0,0,16,0.0,47,369492932628414,396,19.70800018310547,-1579.1587337291653,0.14999,16,-26052.382565495947,0.004900000058114529,1575420030,,,,0,0.0,1,6.0,19.70800018310547,0.0,0.0,0.0,66.7128,C,,
Raw,1730961476001,19045000000,18,704197.064056895,-1414996674956000000,0.0,117.28857917203675,-4395.962642216967,0.0,0,2,0.0,47,369493922823899,235,29.163999557495117,-1120.602644043932,0.14999,17,-21614.210077795433,0.0008999999845400453,1575420030,,,,0,10.519396445149589,1,6.0,29.163999557495117,0.0,0.0,0.0,66.7128,C,,
Raw,1730961476001,19045000000,18,704197.064056895,-1414996674956000000,0.0,117.28857917203675,-4395.962642216967,0.0,0,21,0.0,47,369493922460428,316,26.07200050354004,-1068.7031110436478,0.14999,16,-22236.59480638835,0.002025000052526593,1575420030,,,,0,6.534288421242989,1,6.0,26.07200050354004,0.0,0.0,0.0,66.7128,C,,
Raw,1730961476001,19045000000,18,704197.064056895,-1414996674956000000,0.0,117.28857917203675,-4395.962642216967,0.0,0,31,0.0,47,369493926711670,487,19.03499984741211,-847.764166077158,0.14999,16,-18549.260495906565,0.009999999776482582,1575420030,,,,0,0.0,1,6.0,19.03499984741211,0.0,0.0,0.0,66.7128,C,,
Raw,1730961476001,19045000000,18,704197.064056895,-1414996674956000000,0.0,117.28857917203675,-4395.962642216967,0.0,0,23,0.0,47,369479926472332,74,29.649999618530273,-1028.6402587890625,0.14999,21,-20677.645590494947,0.0006249999860301614,1561097980,,,,0,11.497808128977132,5,6.0,29.649999618530273,0.0,0.0,46.26273851312692,66.7128,I,,
Raw,1730961476001,19045000000,18,704197.064056895,-1414996674956000000,0.0,117.28857917203675,-4395.962642216967,0.0,0,13,0.0,47,369493915496009,316,22.899999618530273,-1051.143502219048,0.14999,28,-23049.717492517502,0.002025000052526593,1575420030,,,,0,3.3249693980533586,6,6.0,22.899999618530273,0.0,0.0,27.945134552145852,66.7128,C,,
Raw,1730961476001,19045000000,18,704197.064056895,-1414996674956000000,0.0,117.28857917203675,-4395.962642216967,0.0,0,9,0.0,17,904871,487,0.0,-1317.2917867900892,0.14999,16,-25200.631690013794,0.009999999776482582,1600875010,,,,0,1.3078592312398314,3,6.0,19.0,0.0,0.0,49.72172233497872,66.7128,C,,
Raw,1730961476001,19045000000,18,704197.064056895,-1414996674956000000,0.0,117.28857917203675,-4395.962642216967,0.0,0,7,0.0,17,325552,797,0.0,-1889.2013923503087,0.14999,16,-30863.22833886073,0.02250000089406967,1604812540,,,,0,0.0,3,6.0,17.0,0.0,0.0,49.72172233497872,66.7128,C,,
Raw,1730961476001,19045000000,18,704197.064056895,-1414996674956000000,0.0,117.28857917203675,-4395.962642216967,0.0,0,4,0.0,47,369493921185665,1797,14.699999809265137,-1639.8566545082335,0.14999,16,-28786.161026284437,0.02250000089406967,1575420030,,,,0,0.0,1,6.0,14.699999809265137,0.0,0.0,0.0,66.7128,C,,
Raw,1730961476001,19045000000,18,704197.064056895,-1414996674956000000,0.0,117.28857917203675,-4395.962642216967,0.0,0,26,0.0,47,369493931256802,396,25.51300048828125,-1036.3418508143704,0.14999,17,-23072.99276994975,0.004900000058114529,1575420030,,,,0,5.742479366662724,1,6.0,25.51300048828125,0.0,0.0,0.0,66.7128,C,,
Raw,1730961476001,19045000000,18,704197.064056895,-1414996674956000000,0.0,117.28857917203675,-4395.962642216967,0.0,0,37,0.0,47,369479925064803,316,27.700000762939453,-1563.3355712890625,0.14999,16,-27592.94556072876,0.002025000052526593,1561097980,,,,0,9.354066478352776,5,6.0,27.700000762939453,0.0,0.0,46.26273851312692,66.7128,I,,
Raw,1730961476001,19045000000,18,704197.064056895,-1414996674956000000,0.0,117.28857917203675,-4395.962642216967,0.0,0,3,0.0,47,369493929378320,487,21.746000289916992,-1782.7551235915907,0.14999,16,-29024.082604293657,0.009999999776482582,1575420030,,,,0,0.180586330836004,1,6.0,21.746000289916992,0.0,0.0,0.0,66.7128,C,,
Raw,1730961476001,19045000000,18,704197.064056895,-1414996674956000000,0.0,117.28857917203675,-4395.962642216967,0.0,0,16,0.0,47,369493932633681,487,19.711999893188477,-1578.1680544618916,0.14999,16,-27630.99720566492,0.009999999776482582,1575420030,,,,0,0.0,1,6.0,19.711999893188477,0.0,0.0,0.0,66.7128,C,,
Raw,1730961477001,20045000000,18,704151.6680683141,-1414996674956000000,0.0,116.29469701765834,-4384.4897024899465,0.0,0,2,0.0,47,369494922827634,316,24.554000854492188,-1116.8219510495508,0.14999,20,-22733.027833420794,0.002025000052526593,1575420030,,,,0,4.400402771398967,1,6.0,24.554000854492188,0.0,0.0,0.0,66.7128,C,,
Raw,1730961477001,20045000000,18,704151.6680683141,-1414996674956000000,0.0,116.29469701765834,-4384.4897024899465,0.0,0,21,0.0,47,369494922464012,235,28.507999420166016,-1065.7339536636323,0.14999,16,-23304.239194384354,0.0008999999845400453,1575420030,,,,0,9.699149076050517,1,6.0,28.507999420166016,0.0,0.0,0.0,66.7128,C,,
Raw,1730961477001,20045000000,18,704151.6680683141,-1414996674956000000,0.0,116.29469701765834,-4384.4897024899465,0.0,0,31,0.0,47,369494926714531,396,22.106000900268555,-843.7818435564232,0.14999,16,-19395.04056278009,0.004900000058114529,1575420030,,,,0,0.7344561404947968,1,6.0,22.106000900268555,0.0,0.0,0.0,66.7128,C,,
Raw,1730961477001,20045000000,18,704151.6680683141,-1414996674956000000,0.0,116.29469701765834,-4384.4897024899465,0.0,0,23,0.0,47,369480926475760,74,29.600000381469727,-1025.564208984375,0.14999,17,-21704.883962182448,0.0006249999860301614,1561097980,,,,0,11.434176636173753,5,6.0,29.600000381469727,0.0,0.0,48.23246089832469,66.7128,I,,
Raw,1730961477001,20045000000,18,704151.6680683141,-1414996674956000000,0.0,116.29469701765834,-4384.4897024899465,0.0,0,13,0.0,47,369494915499510,487,19.200000762939453,-1047.6646030963705,0.14999,24,-24099.392003222656,0.009999999776482582,1575420030,,,,0,0.0,6,6.0,19.200000762939453,0.0,0.0,26.40678266182804,66.7128,C,,
Raw,1730961477001,20045000000,18,704151.6680683141,-1414996674956000000,0.0,116.29469701765834,-4384.4897024899465,0.0,0,9,0.0,17,909263,487,0.0,-1312.530994863015,0.14999,16,-26515.458462627274,0.009999999776482582,1600875010,,,,0,0.0,3,6.0,20.0,0.0,0.0,47.399603837490076,66.7128,C,,
Raw,1730961477001,20045000000,18,704151.6680683141,-1414996674956000000,0.0,116.29469701765834,-4384.4897024899465,0.0,0,7,0.0,17,331849,1797,0.0,-1886.0117848369746,0.14999,16,-32751.07709235384,0.02250000089406967,1604812540,,,,0,0.0,3,6.0,13.0,0.0,0.0,47.399603837490076,66.7128,C,,
Raw,1730961477001,20045000000,18,704151.6680683141,-1414996674956000000,0.0,116.29469701765834,-4384.4897024899465,0.0,0,5,0.0,17,158469,797,21.979999542236328,-1112.7994447946696,0.14999,16,-25252.06168064723,0.02250000089406967,1602562560,,,,0,0.0,3,6.0,21.979999542236328,0.0,0.0,47.399603837490076,66.7128,C,,
Raw,1730961477001,20045000000,18,704151.6680683141,-1414996674956000000,0.0,116.29469701765834,-4384.4897024899465,0.0,0,4,0.0,47,369494921191142,797,14.699999809265137,-1641.1327742847045,0.14999,16,-30428.1306099394,0.02250000089406967,1575420030,,,,0,0.0,1,6.0,14.699999809265137,0.0,0.0,0.0,66.7128,C,,
Raw,1730961477001,20045000000,18,704151.6680683141,-1414996674956000000,0.0,116.29469701765834,-4384.4897024899465,0.0,0,26,0.0,47,369494931260253,487,22.450000762939453,-1034.1539381613513,0.14999,20,-24108.430287744493,0.009999999776482582,1575420030,,,,0,1.2551147354750132,1,6.0,22.450000762939453,0.0,0.0,0.0,66.7128,C,,
Raw,1730961477001,20045000000,18,704151.6680683141,-1414996674956000000,0.0,116.29469701765834,-4384.4897024899465,0.0,0,37,0.0,47,369480925070027,74,27.760000228881836,-1560.5849609375,0.14999,17,-29154.871437725847,0.0006249999860301614,1561097980,,,,0,10.781521975855533,5,6.0,27.760000228881836,0.0,0.0,48.23246089832469,66.7128,I,,
Raw,1730961477001,20045000000,18,704151.6680683141,-1414996674956000000,0.0,116.29469701765834,-4384.4897024899465,0.0,0,3,0.0,47,369494929384265,487,21.746000289916992,-1780.5295796214411,0.14999,16,-30806.405020381437,0.009999999776482582,1575420030,,,,0,0.180586330836004,1,6.0,21.746000289916992,0.0,0.0,0.0,66.7128,C,,
Raw,1730961477001,20045000000,18,704151.6680683141,-1414996674956000000,0.0,116.29469701765834,-4384.4897024899465,0.0,0,16,0.0,47,369494932638947,396,19.783000946044922,-1573.4577285591376,0.14999,16,-29206.11898796066,0.004900000058114529,1575420030,,,,0,0.0,1,6.0,19.783000946044922,0.0,0.0,0.0,66.7128,C,,
Raw,1730961477001,20045000000,18,704151.6680683141,-1414996674956000000,0.0,116.29469701765834,-4384.4897024899465,0.0,0,8,0.0,47,369494916871745,396,23.299999237060547,-1405.852673735016,0.14999,24,-26687.540497201942,0.004900000058114529,1575420030,,,,0,3.8559390511706786,6,6.0,23.299999237060547,0.0,0.0,26.40678266182804,66.7128,C,,
Raw,1730961478001,21045000000,18,704123.0545232729,-1414996674956000000,0.0,121.77888856024649,-4381.135702169525,0.0,0,2,0.0,47,369495922831357,396,22.56100082397461,-1115.3319367248464,0.14999,16,-23848.944057959565,0.004900000058114529,1575420030,,,,0,1.442587256971359,1,6.0,22.56100082397461,0.0,0.0,0.0,66.7128,C,,
Raw,1730961478001,21045000000,18,704123.0545232729,-1414996674956000000,0.0,121.77888856024649,-4381.135702169525,0.0,0,21,0.0,47,369495922467564,74,30.22599983215332,-1064.390469183656,0.14999,17,-24369.113322452424,0.0006249999860301614,1575420030,,,,0,11.828775138742596,1,6.0,30.22599983215332,0.0,0.0,0.0,66.7128,C,,
Raw,1730961478001,21045000000,18,704123.0545232729,-1414996674956000000,0.0,121.77888856024649,-4381.135702169525,0.0,0,31,0.0,47,369495926717336,396,22.183000564575195,-841.9311260882602,0.14999,16,-20238.22696106935,0.004900000058114529,1575420030,,,,0,3.123548438719715,1,6.0,22.183000564575195,0.0,0.0,0.0,66.7128,C,,
Raw,1730961478001,21045000000,18,704123.0545232729,-1414996674956000000,0.0,121.77888856024649,-4381.135702169525,0.0,0,23,0.0,47,369481926479180,396,28.865999221801758,-1026.9876708984375,0.14999,21,-22730.048989815943,0.004900000058114529,1561097980,,,,0,8.933941567456294,5,6.0,28.865999221801758,0.0,0.0,47.73574295377105,66.7128,I,,
Raw,1730961478001,21045000000,18,704123.0545232729,-1414996674956000000,0.0,121.77888856024649,-4381.135702169525,0.0,0,2,0.0,47,369495917325652,1797,12.899999618530273,-1070.794576024614,0.14999,24,-26642.656804165916,0.02250000089406967,1575420030,,,,0,0.0,6,6.0,12.899999618530273,0.0,0.0,25.89601168076215,66.7128,C,,
Raw,1730961478001,21045000000,18,704123.0545232729,-1414996674956000000,0.0,121.77888856024649,-4381.135702169525,0.0,0,9,0.0,17,913642,487,0.0,-1312.5699480438645,0.14999,16,-27828.41448841376,0.009999999776482582,1600875010,,,,0,0.0,3,6.0,19.0,0.0,0.0,44.57418127490996,66.7128,C,,
Raw,1730961478001,21045000000,18,704123.0545232729,-1414996674956000000,0.0,121.77888856024649,-4381.135702169525,0.0,0,7,0.0,17,338138,797,0.0,-1886.2199375579032,0.14999,16,-34638.04875648597,0.02250000089406967,1604812540,,,,0,0.0,3,6.0,15.0,0.0,0.0,44.57418127490996,66.7128,C,,
Raw,1730961478001,21045000000,18,704123.0545232729,-1414996674956000000,0.0,121.77888856024649,-4381.135702169525,0.0,0,5,0.0,17,162174,487,19.0,-1111.0478493961234,0.14999,16,-26362.893655512926,0.009999999776482582,1602562560,,,,0,0.0,3,6.0,19.0,0.0,0.0,44.57418127490996,66.7128,C,,
Raw,1730961478001,21045000000,18,704123.0545232729,-1414996674956000000,0.0,121.77888856024649,-4381.135702169525,0.0,0,16,0.0,17,458632,396,12.600000381469727,-642.8404376180333,0.14999,16,-23901.016544153666,0.004900000058114529,1601437440,,,,0,1.370292828971824,3,6.0,12.600000381469727,0.0,0.0,44.57418127490996,66.7128,C,,
Raw,1730961478001,21045000000,18,704123.0545232729,-1414996674956000000,0.0,121.77888856024649,-4381.135702169525,0.0,0,4,0.0,47,369495921196605,797,18.648000717163086,-1636.7348347725501,0.14999,16,-32066.452923625362,0.02250000089406967,1575420030,,,,0,0.0,1,6.0,18.648000717163086,0.0,0.0,0.0,66.7128,C,,
Raw,1730961478001,21045000000,18,704123.0545232729,-1414996674956000000,0.0,121.77888856024649,-4381.135702169525,0.0,0,26,0.0,47,369495931263703,396,24.08799934387207,-1032.2430105857795,0.14999,16,-25141.377945382344,0.004900000058114529,1575420030,,,,0,3.7143181479992555,1,6.0,24.08799934387207,0.0,0.0,0.0,66.7128,C,,
Raw,1730961478001,21045000000,18,704123.0545232729,-1414996674956000000,0.0,121.77888856024649,-4381.135702169525,0.0,0,37,0.0,47,369481925075236,316,25.0,-1561.7401123046875,0.14999,17,-30715.55934069115,0.002025000052526593,1561097980,,,,0,6.0420730753608956,5,6.0,25.0,0.0,0.0,47.73574295377105,66.7128,I,,
Raw,1730961478001,21045000000,18,704123.0545232729,-1414996674956000000,0.0,121.77888856024649,-4381.135702169525,0.0,0,3,0.0,47,369495929390194,487,21.788000106811523,-1778.7905481858484,0.14999,16,-32585.90891205414,0.009999999776482582,1575420030,,,,0,1.5041895693555656,1,6.0,21.788000106811523,0.0,0.0,0.0,66.7128,C,,
Raw,1730961478001,21045000000,18,704123.0545232729,-1414996674956000000,0.0,121.77888856024649,-4381.135702169525,0.0,0,16,0.0,47,369495932644200,396,23.996000289916992,-1572.7498881297538,0.14999,16,-30779.20755277609,0.004900000058114529,1575420030,,,,0,3.6186048969829185,1,6.0,23.996000289916992,0.0,0.0,0.0,66.7128,C,,
Raw,1730961478001,21045000000,18,704123.0545232729,-1414996674956000000,0.0,121.77888856024649,-4381.135702169525,0.0,0,8,0.0,47,369495916876355,396,22.5,-1402.5515245127601,0.14999,25,-28092.07811674285,0.004900000058114529,1575420030,,,,0,2.8650207343841356,6,6.0,22.5,0.0,0.0,25.89601168076215,66.7128,C,,
Fix,FLP,12.9393944000,77.5426496000,802.7999877929688,0.5009623,18.951,337.52634,1730961475880,1.5,45.0,2275027021000000,1.0,0,,,
Raw,1730961479001,22045000000,18,704084.6425329352,-1414996674956000000,0.0,122.69009989528504,-4379.906154967994,0.0,0,2,0.0,47,369496922835079,487,25.18199920654297,-1115.9096935888406,0.14999,16,-24964.82275684507,0.009999999776482582,1575420030,,,,0,5.278089598278197,1,6.0,25.18199920654297,0.0,0.0,0.0,66.7128,C,,
Raw,1730961479001,22045000000,18,704084.6425329352,-1414996674956000000,0.0,122.69009989528504,-4379.906154967994,0.0,0,21,0.0,47,369496922471121,487,21.66200065612793,-1068.1150404112548,0.14999,20,-25434.63847924658,0.009999999776482582,1575420030,,,,0,0.036418877832514476,1,6.0,21.66200065612793,0.0,0.0,0.0,66.7128,C,,
Raw,1730961479001,22045000000,18,704084.6425329352,-1414996674956000000,0.0,122.69009989528504,-4379.906154967994,0.0,0,31,0.0,47,369496926720137,316,26.527000427246094,-841.7467790927367,0.14999,17,-21080.024811347335,0.002025000052526593,1575420030,,,,0,7.132406161001149,1,6.0,26.527000427246094,0.0,0.0,0.0,66.7128,C,,
Raw,1730961479001,22045000000,18,704084.6425329352,-1414996674956000000,0.0,122.69009989528504,-4379.906154967994,0.0,0,23,0.0,47,369482926482598,316,23.600000381469727,-1024.2061767578125,0.14999,20,-23754.89571290358,0.002025000052526593,1561097980,,,,0,4.243752088079155,5,6.0,23.600000381469727,0.0,0.0,46.22667019812556,66.7128,I,,
Raw,1730961479001,22045000000,18,704084.6425329352,-1414996674956000000,0.0,122.69009989528504,-4379.906154967994,0.0,0,2,0.0,47,369496917329224,797,12.899999618530273,-1070.309550159376,0.14999,24,-27713.428840918943,0.02250000089406967,1575420030,,,,0,0.0,6,6.0,12.899999618530273,0.0,0.0,24.942066424640792,66.7128,C,,
Raw,1730961479001,22045000000,18,704084.6425329352,-1414996674956000000,0.0,122.69009989528504,-4379.906154967994,0.0,0,9,0.0,17,918015,797,0.0,-1309.6534886466873,0.14999,16,-29139.309491428892,0.02250000089406967,1600875010,,,,0,0.0,3,6.0,17.0,0.0,0.0,39.96018542285583,66.7128,C,,
Raw,1730961479001,22045000000,18,704084.6425329352,-1414996674956000000,0.0,122.69009989528504,-4379.906154967994,0.0,0,7,0.0,17,344425,1797,0.0,-1884.142606240451,0.14999,16,-36522.91166113018,0.02250000089406967,1604812540,,,,0,0.0,3,6.0,14.0,0.0,0.0,39.96018542285583,66.7128,C,,
Raw,1730961479001,22045000000,18,704084.6425329352,-1414996674956000000,0.0,122.69009989528504,-4379.906154967994,0.0,0,5,0.0,17,165862,316,19.0,-1109.8697060163545,0.14999,16,-27473.999306855003,0.002025000052526593,1602562560,,,,0,7.0436503622272495,3,6.0,19.0,0.0,0.0,39.96018542285583,66.7128,C,,
Raw,1730961479001,22045000000,18,704084.6425329352,-1414996674956000000,0.0,122.69009989528504,-4379.906154967994,0.0,0,16,0.0,17,460803,487,12.600000381469727,-641.8561183894676,0.14999,16,-24543.207640523033,0.009999999776482582,1601437440,,,,0,0.0,3,6.0,12.600000381469727,0.0,0.0,39.96018542285583,66.7128,C,,
Raw,1730961479001,22045000000,18,704084.6425329352,-1414996674956000000,0.0,122.69009989528504,-4379.906154967994,0.0,0,4,0.0,47,369496921202064,1797,18.648000717163086,-1635.5438268145767,0.14999,16,-33703.072816240136,0.02250000089406967,1575420030,,,,0,0.0,1,6.0,18.648000717163086,0.0,0.0,0.0,66.7128,C,,
Raw,1730961479001,22045000000,18,704084.6425329352,-1414996674956000000,0.0,122.69009989528504,-4379.906154967994,0.0,0,26,0.0,47,369496931267144,316,27.488000869750977,-1031.4901054926715,0.14999,17,-26173.10258344223,0.002025000052526593,1575420030,,,,0,8.386061205751265,1,6.0,27.488000869750977,0.0,0.0,0.0,66.7128,C,,
Raw,1730961479001,22045000000,18,704084.6425329352,-1414996674956000000,0.0,122.69009989528504,-4379.906154967994,0.0,0,37,0.0,47,369482925080441,487,22.399999618530273,-1559.7999267578125,0.14999,20,-32275.858793827003,0.009999999776482582,1561097980,,,,0,2.6707781674043507,5,6.0,22.399999618530273,0.0,0.0,46.22667019812556,66.7128,I,,
Raw,1730961479001,22045000000,18,704084.6425329352,-1414996674956000000,0.0,122.69009989528504,-4379.906154967994,0.0,0,3,0.0,47,369496929396133,487,21.760000228881836,-1777.2966313541822,0.14999,16,-34364.133087459195,0.009999999776482582,1575420030,,,,0,0.0,1,6.0,21.760000228881836,0.0,0.0,0.0,66.7128,C,,
Raw,1730961479001,22045000000,18,704084.6425329352,-1414996674956000000,0.0,122.69009989528504,-4379.906154967994,0.0,0,16,0.0,47,369496932649448,396,23.332000732421875,-1572.0621177361731,0.14999,16,-32351.844246745975,0.004900000058114529,1575420030,,,,0,2.598561506967203,1,6.0,23.332000732421875,0.0,0.0,0.0,66.7128,C,,
Raw,1730961479001,22045000000,18,704084.6425329352,-1414996674956000000,0.0,122.69009989528504,-4379.906154967994,0.0,0,30,0.0,47,369496920824858,797,14.800000190734863,-1559.9468777904538,0.14999,24,-30307.558074903212,0.02250000089406967,1575420030,,,,0,0.0,6,6.0,14.800000190734863,0.0,0.0,24.942066424640792,66.7128,C,,
Raw,1730961479001,22045000000,18,704084.6425329352,-1414996674956000000,0.0,122.69009989528504,-4379.906154967994,0.0,0,8,0.0,47,369496916881036,487,18.0,-1402.9192893354827,0.14999,28,-29494.838226797372,0.009999999776482582,1575420030,,,,0,0.0,6,6.0,18.0,0.0,0.0,24.942066424640792,66.7128,C,,
Raw,1730961480001,23045000000,18,704038.9338280151,-1414996674956000000,0.0,115.03110720024664,-4381.590710743377,0.0,0,2,0.0,47,369497922838800,797,25.18199920654297,-1117.765986066949,0.14999,16,-26080.493551878964,0.02250000089406967,1575420030,,,,0,5.278089598278197,1,6.0,25.18199920654297,0.0,0.0,0.0,66.7128,C,,
Raw,1730961480001,23045000000,18,704038.9338280151,-1414996674956000000,0.0,115.03110720024664,-4381.590710743377,0.0,0,21,0.0,47,369497922474685,797,21.66200065612793,-1068.2886090542174,0.14999,16,-26503.17542238586,0.02250000089406967,1575420030,,,,0,0.036418877832514476,1,6.0,21.66200065612793,0.0,0.0,0.0,66.7128,C,,
Raw,1730961480001,23045000000,18,704038.9338280151,-1414996674956000000,0.0,115.03110720024664,-4381.590710743377,0.0,0,31,0.0,47,369497926722946,396,23.197999954223633,-842.6556915474797,0.14999,20,-21922.329090766758,0.004900000058114529,1575420030,,,,0,2.434671934661771,1,6.0,23.197999954223633,0.0,0.0,0.0,66.7128,C,,
Raw,1730961480001,23045000000,18,704038.9338280151,-1414996674956000000,0.0,115.03110720024664,-4381.590710743377,0.0,0,23,0.0,47,369483926486015,487,23.3799991607666,-1025.9559326171875,0.14999,16,-24779.531115661684,0.009999999776482582,1561097980,,,,0,2.7975817280247295,5,6.0,23.3799991607666,0.0,0.0,44.90481179760965,66.7128,I,,
Raw,1730961480001,23045000000,18,704038.9338280151,-1414996674956000000,0.0,115.03110720024664,-4381.590710743377,0.0,0,13,0.0,47,369497915509907,1797,13.399999618530273,-1046.995230235609,0.14999,24,-27241.47788613691,0.02250000089406967,1575420030,,,,0,0.0,6,6.0,13.399999618530273,0.0,0.0,24.103336450279052,66.7128,C,,
Raw,1730961480001,23045000000,18,704038.9338280151,-1414996674956000000,0.0,115.03110720024664,-4381.590710743377,0.0,0,2,0.0,47,369497917332794,797,12.899999618530273,-1070.5321788898568,0.14999,24,-28783.982662955612,0.02250000089406967,1575420030,,,,0,0.0,6,6.0,12.899999618530273,0.0,0.0,24.103336450279052,66.7128,C,,
Raw,1730961480001,23045000000,18,704038.9338280151,-1414996674956000000,0.0,115.03110720024664,-4381.590710743377,0.0,0,9,0.0,17,922386,797,0.0,-1310.7846853609835,0.14999,16,-30449.82056089798,0.02250000089406967,1600875010,,,,0,0.0,3,6.0,17.0,0.0,0.0,36.7183803762282,66.7128,C,,
Raw,1730961480001,23045000000,18,704038.9338280151,-1414996674956000000,0.0,115.03110720024664,-4381.590710743377,0.0,0,7,0.0,17,350690,1797,0.0,-1882.897885806713,0.14999,16,-38406.19750949998,0.02250000089406967,1604812540,,,,0,0.0,3,6.0,13.0,0.0,0.0,36.7183803762282,66.7128,C,,
Raw,1730961480001,23045000000,18,704038.9338280151,-1414996674956000000,0.0,115.03110720024664,-4381.590710743377,0.0,0,5,0.0,17,169644,396,19.0,-1111.235924851151,0.14999,16,-28584.19248098856,0.004900000058114529,1602562560,,,,0,2.6066753699001226,3,6.0,19.0,0.0,0.0,36.7183803762282,66.7128,C,,
Raw,1730961480001,23045000000,18,704038.9338280151,-1414996674956000000,0.0,115.03110720024664,-4381.590710743377,0.0,0,16,0.0,17,462931,396,12.0,-642.7133815073673,0.14999,16,-25185.00569749775,0.004900000058114529,1601437440,,,,0,1.6475256058660983,3,6.0,12.0,0.0,0.0,36.7183803762282,66.7128,C,,
Raw,1730961480001,23045000000,18,704038.9338280151,-1414996674956000000,0.0,115.03110720024664,-4381.590710743377,0.0,0,32,0.0,47,369497919376844,487,19.457000732421875,-1127.03323218213,0.14999,16,-30271.46505333859,0.009999999776482582,1575420030,,,,0,0.0,1,6.0,19.457000732421875,0.0,0.0,0.0,66.7128,C,,
Raw,1730961480001,23045000000,18,704038.9338280151,-1414996674956000000,0.0,115.03110720024664,-4381.590710743377,0.0,0,4,0.0,47,369497921207525,1797,18.648000717163086,-1639.8557253399092,0.14999,16,-35340.41714411441,0.02250000089406967,1575420030,,,,0,0.0,1,6.0,18.648000717163086,0.0,0.0,0.0,66.7128,C,,
Raw,1730961480001,23045000000,18,704038.9338280151,-1414996674956000000,0.0,115.03110720024664,-4381.590710743377,0.0,0,26,0.0,47,369497931270589,487,25.285999298095703,-1032.727478950023,0.14999,20,-27205.96336834243,0.009999999776482582,1575420030,,,,0,5.435661078488393,1,6.0,25.285999298095703,0.0,0.0,0.0,66.7128,C,,
Raw,1730961480001,23045000000,18,704038.9338280151,-1414996674956000000,0.0,115.03110720024664,-4381.590710743377,0.0,0,37,0.0,47,369483925085644,487,18.600000381469727,-1560.5731201171875,0.14999,16,-33835.73547983247,0.009999999776482582,1561097980,,,,0,0.0,5,6.0,18.600000381469727,0.0,0.0,44.90481179760965,66.7128,I,,
Raw,1730961480001,23045000000,18,704038.9338280151,-1414996674956000000,0.0,115.03110720024664,-4381.590710743377,0.0,0,3,0.0,47,369497929402058,487,21.69300079345703,-1779.6858947830578,0.14999,16,-36142.17764347716,0.009999999776482582,1575420030,,,,0,0.0,1,6.0,21.69300079345703,0.0,0.0,0.0,66.7128,C,,
Raw,1730961480001,23045000000,18,704038.9338280151,-1414996674956000000,0.0,115.03110720024664,-4381.590710743377,0.0,0,16,0.0,47,369497932654698,396,21.6200008392334,-1573.5359645320361,0.14999,16,-33924.81402189181,0.004900000058114529,1575420030,,,,0,0.0,1,6.0,21.6200008392334,0.0,0.0,0.0,66.7128,C,,
Raw,1730961480001,23045000000,18,704038.9338280151,-1414996674956000000,0.0,115.03110720024664,-4381.590710743377,0.0,0,8,0.0,47,369497916885716,487,18.0,-1405.0967953032707,0.14999,24,-30897.893220498765,0.009999999776482582,1575420030,,,,0,0.0,6,6.0,18.0,0.0,0.0,24.103336450279052,66.7128,C,,
Raw,1730961481001,24045000000,18,703969.510800702,-1414996674956000000,0.0,89.74232369735375,-4381.266891950785,0.0,0,2,0.0,47,369498922842528,797,25.18199920654297,-1116.4375541138247,0.14999,16,-27197.974364921043,0.02250000089406967,1575420030,,,,0,5.278089598278197,1,6.0,25.18199920654297,0.0,0.0,0.0,66.7128,C,,
Raw,1730961481001,24045000000,18,703969.510800702,-1414996674956000000,0.0,89.74232369735375,-4381.266891950785,0.0,0,21,0.0,47,369498922478244,797,21.66200065612793,-1066.1569110848131,0.14999,16,-27570.185716851873,0.02250000089406967,1575420030,,,,0,0.036418877832514476,1,6.0,21.66200065612793,0.0,0.0,0.0,66.7128,C,,
