# 
# Header Description:
# 
# Version: v3.1.0.3 Platform: 14 Manufacturer: samsung Model: SM-M346B GNSS Hardware Model Name: S.LSI,K050,SPOTNAV_4.11.0_25_E17P
# 
# Raw,utcTimeMillis,TimeNanos,LeapSecond,TimeUncertaintyNanos,FullBiasNanos,BiasNanos,BiasUncertaintyNanos,DriftNanosPerSecond,DriftUncertaintyNanosPerSecond,HardwareClockDiscontinuityCount,Svid,TimeOffsetNanos,State,ReceivedSvTimeNanos,ReceivedSvTimeUncertaintyNanos,Cn0DbHz,PseudorangeRateMetersPerSecond,PseudorangeRateUncertaintyMetersPerSecond,AccumulatedDeltaRangeState,AccumulatedDeltaRangeMeters,AccumulatedDeltaRangeUncertaintyMeters,CarrierFrequencyHz,CarrierCycles,CarrierPhase,CarrierPhaseUncertainty,MultipathIndicator,SnrInDb,ConstellationType,AgcDb,BasebandCn0DbHz,FullInterSignalBiasNanos,FullInterSignalBiasUncertaintyNanos,SatelliteInterSignalBiasNanos,SatelliteInterSignalBiasUncertaintyNanos,CodeType,ChipsetElapsedRealtimeNanos,IsFullTracking
# 
# UncalAccel,utcTimeMillis,elapsedRealtimeNanos,UncalAccelXMps2,UncalAccelYMps2,UncalAccelZMps2,BiasXMps2,BiasYMps2,BiasZMps2
# 
# Accel,utcTimeMillis,elapsedRealtimeNanos,AccelXMps2,AccelYMps2,AccelZMps2
# 
# UncalGyro,utcTimeMillis,elapsedRealtimeNanos,UncalGyroXRadPerSec,UncalGyroYRadPerSec,UncalGyroZRadPerSec,DriftXRadPerSec,DriftYRadPerSec,DriftZRadPerSec
# 
# Gyro,utcTimeMillis,elapsedRealtimeNanos,GyroXRadPerSec,GyroYRadPerSec,GyroZRadPerSec
# 
# UncalMag,utcTimeMillis,elapsedRealtimeNanos,UncalMagXMicroT,UncalMagYMicroT,UncalMagZMicroT,BiasXMicroT,BiasYMicroT,BiasZMicroT
# 
# Mag,utcTimeMillis,elapsedRealtimeNanos,MagXMicroT,MagYMicroT,MagZMicroT
# 
# Pressure,utcTimeMillis,elapsedRealtimeNanos,PressureHpa
# 
# OrientationDeg,utcTimeMillis,elapsedRealtimeNanos,yawDeg,rollDeg,pitchDeg
# 
# Fix,Provider,LatitudeDegrees,LongitudeDegrees,AltitudeMeters,SpeedMps,AccuracyMeters,BearingDegrees,UnixTimeMillis,SpeedAccuracyMps,BearingAccuracyDegrees,elapsedRealtimeNanos,VerticalAccuracyMeters,MockLocation,NumberOfUsedSignals,VerticalSpeedAccuracyMps,SolutionType
# 
# Nav,Svid,Type,Status,MessageId,Sub-messageId,Data(Bytes)
# 
# Status,UnixTimeMillis,SignalCount,SignalIndex,ConstellationType,Svid,CarrierFrequencyHz,Cn0DbHz,AzimuthDegrees,ElevationDegrees,UsedInFix,HasAlmanacData,HasEphemerisData,BasebandCn0DbHz
# 
# Agc,utcTimeMillis,TimeNanos,LeapSecond,TimeUncertaintyNanos,FullBiasNanos,BiasNanos,BiasUncertaintyNanos,DriftNanosPerSecond,DriftUncertaintyNanosPerSecond,HardwareClockDiscontinuityCount,AgcDb,CarrierFrequencyHz,ConstellationType
# 
Fix,FLP,12.9371035000,77.5410441000,792.2000122070312,0.3871897,15.546,177.20576,1730961832025,1.5,45.0,1725689287000000,1.0,0,,,
Raw,1730961833002,5879577005,18,0.0,-1414997045123008768,0.0,2000070.375,5.685206413269043,0.0,0,3,0.0,19,3373071,19,30.200000762939453,-434.8658752441406,0.15747039020061493,16,0.0,0.11134731024503708,1575420030,,,,0,,1,1.2999999523162842,25.200000762939453,0.0,0.0,0.0,0.0,C,1856743681361769,
Raw,1730961833002,5879577005,18,0.0,-1414997045123008768,0.0,2000070.375,5.685206413269043,0.0,0,31,0.0,19,19607854,21,28.600000381469727,473.25433349609375,0.17954610288143158,16,0.0,0.12695704400539398,1575420030,,,,0,,1,1.2999999523162842,23.600000381469727,0.0,0.0,0.0,0.0,C,1856743681361769,
Raw,1730961833002,5879577005,18,0.0,-1414997045123008768,0.0,2000070.375,5.685206413269043,0.0,0,21,0.0,19,15623684,20,29.0,249.12037658691406,0.1736111044883728,16,0.0,0.12276041507720947,1575420030,,,,0,,1,1.2999999523162842,24.0,0.0,0.0,0.0,0.0,C,1856743681361769,
Raw,1730961833002,5879577005,18,0.0,-1414997045123008768,0.0,2000070.375,5.685206413269043,0.0,0,26,0.0,19,4355370,25,26.100000381469727,323.0324401855469,0.22461310029029846,16,0.0,0.1588239222764969,1575420030,,,,0,,1,1.2999999523162842,21.100000381469727,0.0,0.0,0.0,0.0,C,1856743681361769,
Raw,1730961833002,5879577005,18,0.0,-1414997045123008768,0.0,2000070.375,5.685206413269043,0.0,0,16,0.0,19,6374187,23,27.299999237060547,-214.24745178222656,0.20108991861343384,16,0.0,0.14219067990779877,1575420030,,,,0,,1,1.2999999523162842,22.299999237060547,0.0,0.0,0.0,0.0,C,1856743681361769,
Raw,1730961833002,5879577005,18,0.0,-1414997045123008768,0.0,2000070.375,5.685206413269043,0.0,0,27,0.0,19,13760544,32,23.200000762939453,-338.701416015625,0.3018958866596222,16,0.0,0.21347057819366455,1575420030,,,,0,,1,1.2999999523162842,18.200000762939453,0.0,0.0,0.0,0.0,C,1856743681361769,
Raw,1730961833002,5879577005,18,0.0,-1414997045123008768,0.0,2000070.375,5.685206413269043,0.0,0,9,0.0,51,10327344,14,35.29999923706055,58.599761962890625,0.10892178863286972,16,0.0,0.07701859623193741,1600875010,,,,0,,3,1.2999999523162842,30.299999237060547,0.0,0.0,0.0,0.0,C,1856743681361769,
Raw,1730961833002,5879577005,18,0.0,-1414997045123008768,0.0,2000070.375,5.685206413269043,0.0,0,37,0.0,51,18797542,17,31.899999618530273,-213.922607421875,0.13819599151611328,16,0.0,0.09771838784217834,1561097980,,,,0,,5,1.2999999523162842,26.899999618530273,0.0,0.0,0.0,0.0,C,1856743681361769,
Raw,1730961833002,5879577005,18,0.0,-1414997045123008768,0.0,2000070.375,5.685206413269043,0.0,0,5,0.0,51,349944,20,29.200000762939453,238.73193359375,0.1707533597946167,16,0.0,0.12073969841003418,1602562560,,,,0,,3,1.2999999523162842,24.200000762939453,0.0,0.0,0.0,0.0,C,1856743681361769,
Raw,1730961833002,5879577005,18,0.0,-1414997045123008768,0.0,2000070.375,5.685206413269043,0.0,0,10,0.0,51,4292018,25,25.899999618530273,-546.7069091796875,0.2289324849843979,16,0.0,0.16187815368175507,1598062460,,,,0,,3,1.2999999523162842,20.899999618530273,0.0,0.0,0.0,0.0,C,1856743681361769,
Raw,1730961833002,5879577005,18,0.0,-1414997045123008768,0.0,2000070.375,5.685206413269043,0.0,0,27,0.0,1040,902285,27,25.0,-527.5137329101562,0.25,16,0.0,0.1767749935388565,1575420030,,,,0,,6,1.2999999523162842,20.0,0.0,0.0,0.0,0.0,C,1856743681361769,
Raw,1730961833002,5879577005,18,0.0,-1414997045123008768,0.0,2000070.375,5.685206413269043,0.0,0,40,0.0,51,3275165,26,25.299999237060547,-291.0397644042969,0.24266545474529266,16,0.0,0.1715887486934662,1561097980,,,,0,,5,1.2999999523162842,20.299999237060547,0.0,0.0,0.0,0.0,C,1856743681361769,
Raw,1730961833002,5879577005,18,0.0,-1414997045123008768,0.0,2000070.375,5.685206413269043,0.0,0,32,0.0,51,16334800,26,25.700000762939453,-421.51727294921875,0.23337766528129578,16,0.0,0.16502134501934052,1561097980,,,,0,,5,1.2999999523162842,20.700000762939453,0.0,0.0,0.0,0.0,C,1856743681361769,
Raw,1730961833002,5879577005,18,0.0,-1414997045123008768,0.0,2000070.375,5.685206413269043,0.0,0,16,0.0,51,2100915,26,25.5,692.8836669921875,0.23795360326766968,16,0.0,0.1682569980621338,1601437440,,,,0,,3,1.2999999523162842,20.5,0.0,0.0,0.0,0.0,C,1856743681361769,
Raw,1730961833002,5879577005,18,0.0,-1414997045123008768,0.0,2000070.375,5.685206413269043,0.0,0,23,0.0,51,19571686,30,24.0,313.90142822265625,0.2770083248615265,16,0.0,0.19587258994579315,1561097980,,,,0,,5,1.2999999523162842,19.0,0.0,0.0,0.0,0.0,C,1856743681361769,
Raw,1730961834007,6876991325,18,0.0,-1414997045130131712,0.0,2000070.375,5.874037265777588,0.0,0,3,0.0,19,788862,19,30.200000762939453,-434.3824462890625,0.15747039020061493,16,0.0,0.11134731024503708,1575420030,,,,0,,1,1.2999999523162842,25.200000762939453,0.0,0.0,0.0,0.0,C,1856744678777216,
Raw,1730961834007,6876991325,18,0.0,-1414997045130131712,0.0,2000070.375,5.874037265777588,0.0,0,31,0.0,19,17020607,20,29.299999237060547,474.2578125,0.16935087740421295,16,0.0,0.11974800378084183,1575420030,,,,0,,1,1.2999999523162842,24.299999237060547,0.0,0.0,0.0,0.0,C,1856744678777216,
Raw,1730961834007,6876991325,18,0.0,-1414997045130131712,0.0,2000070.375,5.874037265777588,0.0,0,21,0.0,19,13037167,20,28.899999618530273,248.31829833984375,0.1750669777393341,16,0.0,0.12378986179828644,1575420030,,,,0,,1,1.2999999523162842,23.899999618530273,0.0,0.0,0.0,0.0,C,1856744678777216,
Raw,1730961834007,6876991325,18,0.0,-1414997045130131712,0.0,2000070.375,5.874037265777588,0.0,0,26,0.0,19,1768588,23,26.899999618530273,322.68902587890625,0.20850275456905365,16,0.0,0.14743229746818542,1575420030,,,,0,,1,1.2999999523162842,21.899999618530273,0.0,0.0,0.0,0.0,C,1856744678777216,
Raw,1730961834007,6876991325,18,0.0,-1414997045130131712,0.0,2000070.375,5.874037265777588,0.0,0,16,0.0,19,3789206,23,27.200000762939453,-213.68704223632812,0.2029055953025818,16,0.0,0.1434745490550995,1575420030,,,,0,,1,1.2999999523162842,22.200000762939453,0.0,0.0,0.0,0.0,C,1856744678777216,
Raw,1730961834007,6876991325,18,0.0,-1414997045130131712,0.0,2000070.375,5.874037265777588,0.0,0,27,0.0,19,11175997,32,23.100000381469727,-338.68328857421875,0.3052409589290619,16,0.0,0.21583588421344757,1575420030,,,,0,,1,1.2999999523162842,18.100000381469727,0.0,0.0,0.0,0.0,C,1856744678777216,
Raw,1730961834007,6876991325,18,0.0,-1414997045130131712,0.0,2000070.375,5.874037265777588,0.0,0,9,0.0,51,7741422,14,35.29999923706055,58.36771774291992,0.10892178863286972,16,0.0,0.07701859623193741,1600875010,,,,0,,3,1.2999999523162842,30.299999237060547,0.0,0.0,0.0,0.0,C,1856744678777216,
Raw,1730961834007,6876991325,18,0.0,-1414997045130131712,0.0,2000070.375,5.874037265777588,0.0,0,37,0.0,51,16212592,16,32.79999923706055,-214.15176391601562,0.12939289212226868,19,-69587.20806305004,0.18751345574855804,1561097980,,,,0,,5,1.2999999523162842,27.799999237060547,0.0,0.0,0.0,0.0,C,1856744678777216,
Raw,1730961834007,6876991325,18,0.0,-1414997045130131712,0.0,2000070.375,5.874037265777588,0.0,0,5,0.0,51,17763488,17,31.700000762939453,238.36672973632812,0.14027409255504608,16,0.0,0.09918781369924545,1602562560,,,,0,,3,1.2999999523162842,26.700000762939453,0.0,0.0,0.0,0.0,C,1856744678777216,
Raw,1730961834007,6876991325,18,0.0,-1414997045130131712,0.0,2000070.375,5.874037265777588,0.0,0,10,0.0,51,1708116,20,28.899999618530273,-546.301025390625,0.1750669777393341,16,0.0,0.12378986179828644,1598062460,,,,0,,3,1.2999999523162842,23.899999618530273,0.0,0.0,0.0,0.0,C,1856744678777216,
Raw,1730961834007,6876991325,18,0.0,-1414997045130131712,0.0,2000070.375,5.874037265777588,0.0,0,16,0.0,51,19512878,24,26.5,693.3169555664062,0.21633315086364746,16,0.0,0.15296916663646698,1601437440,,,,0,,3,1.2999999523162842,21.5,0.0,0.0,0.0,0.0,C,1856744678777216,
Raw,1730961834007,6876991325,18,0.0,-1414997045130131712,0.0,2000070.375,5.874037265777588,0.0,0,40,0.0,51,690467,25,26.200000762939453,-290.47869873046875,0.2224990874528885,16,0.0,0.15732909739017487,1561097980,,,,0,,5,1.2999999523162842,21.200000762939453,0.0,0.0,0.0,0.0,C,1856744678777216,
Raw,1730961834007,6876991325,18,0.0,-1414997045130131712,0.0,2000070.375,5.874037265777588,0.0,0,23,0.0,51,16984915,26,25.399999618530273,313.78240966796875,0.24029220640659332,16,0.0,0.16991062462329865,1561097980,,,,0,,5,1.2999999523162842,20.399999618530273,0.0,0.0,0.0,0.0,C,1856744678777216,
Raw,1730961834007,6876991325,18,0.0,-1414997045130131712,0.0,2000070.375,5.874037265777588,0.0,0,27,0.0,1040,2318305,27,25.0,-528.7534790039062,0.25,16,0.0,0.1767749935388565,1575420030,,,,0,,6,1.2999999523162842,20.0,0.0,0.0,0.0,0.0,C,1856744678777216,
Raw,1730961834007,6876991325,18,0.0,-1414997045130131712,0.0,2000070.375,5.874037265777588,0.0,0,41,0.0,51,16195652,28,24.799999237060547,22.447383880615234,0.25507602095603943,16,0.0,0.18036425113677979,1561097980,,,,0,,5,1.2999999523162842,19.799999237060547,0.0,0.0,0.0,0.0,C,1856744678777216,
Raw,1730961834007,6876991325,18,0.0,-1414997045130131712,0.0,2000070.375,5.874037265777588,0.0,0,32,0.0,51,13750500,26,25.600000381469727,-421.66143798828125,0.235648974776268,16,0.0,0.16662739217281342,1561097980,,,,0,,5,1.2999999523162842,20.600000381469727,0.0,0.0,0.0,0.0,C,1856744678777216,
Raw,1730961835007,7869868654,18,0.0,-1414997045137902336,0.0,2000070.375,5.170807361602783,0.0,0,3,0.0,19,13667683,18,30.5,-433.9870300292969,0.15378700196743011,16,0.0,0.10874278843402863,1575420030,,,,0,,1,1.2999999523162842,25.5,0.0,0.0,0.0,0.0,C,1856745671655626,
Raw,1730961835007,7869868654,18,0.0,-1414997045137902336,0.0,2000070.375,5.170807361602783,0.0,0,31,0.0,19,9896342,20,29.299999237060547,473.6689453125,0.16935087740421295,16,0.0,0.11974800378084183,1575420030,,,,0,,1,1.2999999523162842,24.299999237060547,0.0,0.0,0.0,0.0,C,1856745671655626,
Raw,1730961835007,7869868654,18,0.0,-1414997045137902336,0.0,2000070.375,5.170807361602783,0.0,0,21,0.0,19,5913707,20,28.899999618530273,249.1842803955078,0.1750669777393341,16,0.0,0.12378986179828644,1575420030,,,,0,,1,1.2999999523162842,23.899999618530273,0.0,0.0,0.0,0.0,C,1856745671655626,
Raw,1730961835007,7869868654,18,0.0,-1414997045137902336,0.0,2000070.375,5.170807361602783,0.0,0,26,0.0,19,14644863,22,27.700000762939453,323.58013916015625,0.19406546652317047,16,0.0,0.13722369074821472,1575420030,,,,0,,1,1.2999999523162842,22.700000762939453,0.0,0.0,0.0,0.0,C,1856745671655626,
Raw,1730961835007,7869868654,18,0.0,-1414997045137902336,0.0,2000070.375,5.170807361602783,0.0,0,16,0.0,19,16667283,23,27.200000762939453,-213.99154663085938,0.2029055953025818,16,0.0,0.1434745490550995,1575420030,,,,0,,1,1.2999999523162842,22.200000762939453,0.0,0.0,0.0,0.0,C,1856745671655626,
Raw,1730961835007,7869868654,18,0.0,-1414997045137902336,0.0,2000070.375,5.170807361602783,0.0,0,2,0.0,17,331897,36,21.799999237060547,208.18406677246094,0.35430842638015747,16,0.0,0.25053149461746216,1575420030,,,,0,,1,1.2999999523162842,16.799999237060547,0.0,0.0,0.0,0.0,C,1856745671655626,
Raw,1730961835007,7869868654,18,0.0,-1414997045137902336,0.0,2000070.375,5.170807361602783,0.0,0,27,0.0,19,4054458,32,23.100000381469727,-338.46844482421875,0.3052409589290619,16,0.0,0.21583588421344757,1575420030,,,,0,,1,1.2999999523162842,18.100000381469727,0.0,0.0,0.0,0.0,C,1856745671655626,
Raw,1730961835007,7869868654,18,0.0,-1414997045137902336,0.0,2000070.375,5.170807361602783,0.0,0,9,0.0,51,618597,13,36.29999923706055,58.60279846191406,0.10207311064004898,16,0.0,0.07217589765787125,1600875010,,,,0,,3,1.2999999523162842,31.299999237060547,0.0,0.0,0.0,0.0,C,1856745671655626,
Raw,1730961835007,7869868654,18,0.0,-1414997045137902336,0.0,2000070.375,5.170807361602783,0.0,0,37,0.0,51,9090638,15,33.400001525878906,-213.7089080810547,0.12398333847522736,19,-69799.66522912303,0.18368837237358093,1561097980,,,,0,,5,1.2999999523162842,28.399999618530273,0.0,0.0,0.0,0.0,C,1856745671655626,
Raw,1730961835007,7869868654,18,0.0,-1414997045137902336,0.0,2000070.375,5.170807361602783,0.0,0,5,0.0,51,10640002,17,31.700000762939453,238.85491943359375,0.14027409255504608,16,0.0,0.09918781369924545,1602562560,,,,0,,3,1.2999999523162842,26.700000762939453,0.0,0.0,0.0,0.0,C,1856745671655626,
Raw,1730961835007,7869868654,18,0.0,-1414997045137902336,0.0,2000070.375,5.170807361602783,0.0,0,10,0.0,51,14587304,20,29.200000762939453,-546.012939453125,0.1707533597946167,16,0.0,0.12073969841003418,1598062460,,,,0,,3,1.2999999523162842,24.200000762939453,0.0,0.0,0.0,0.0,C,1856745671655626,
Raw,1730961835007,7869868654,18,0.0,-1414997045137902336,0.0,2000070.375,5.170807361602783,0.0,0,16,0.0,51,12387891,24,26.5,693.2462768554688,0.21633315086364746,16,0.0,0.15296916663646698,1601437440,,,,0,,3,1.2999999523162842,21.5,0.0,0.0,0.0,0.0,C,1856745671655626,
Raw,1730961835007,7869868654,18,0.0,-1414997045137902336,0.0,2000070.375,5.170807361602783,0.0,0,23,0.0,51,9861220,25,26.200000762939453,315.12847900390625,0.2224990874528885,16,0.0,0.15732909739017487,1561097980,,,,0,,5,1.2999999523162842,21.200000762939453,0.0,0.0,0.0,0.0,C,1856745671655626,
Raw,1730961835007,7869868654,18,0.0,-1414997045137902336,0.0,2000070.375,5.170807361602783,0.0,0,40,0.0,51,13568799,25,26.200000762939453,-290.4560241699219,0.2224990874528885,16,0.0,0.15732909739017487,1561097980,,,,0,,5,1.2999999523162842,21.200000762939453,0.0,0.0,0.0,0.0,C,1856745671655626,
Raw,1730961835007,7869868654,18,0.0,-1414997045137902336,0.0,2000070.375,5.170807361602783,0.0,0,32,0.0,51,6629254,26,25.5,-422.93524169921875,0.23795360326766968,16,0.0,0.1682569980621338,1561097980,,,,0,,5,1.2999999523162842,20.5,0.0,0.0,0.0,0.0,C,1856745671655626,
Raw,1730961835007,7869868654,18,0.0,-1414997045137902336,0.0,2000070.375,5.170807361602783,0.0,0,41,0.0,51,9072854,28,24.799999237060547,21.879737854003906,0.25507602095603943,16,0.0,0.18036425113677979,1561097980,,,,0,,5,1.2999999523162842,19.799999237060547,0.0,0.0,0.0,0.0,C,1856745671655626,
Raw,1730961835007,7869868654,18,0.0,-1414997045137902336,0.0,2000070.375,5.170807361602783,0.0,0,27,0.0,1040,1197360,27,25.0,-529.6956176757812,0.25,16,0.0,0.1767749935388565,1575420030,,,,0,,6,1.2999999523162842,20.0,0.0,0.0,0.0,0.0,C,1856745671655626,
Fix,FLP,12.9371044000,77.5410357000,792.2000122070312,0.19488753,15.602,205.85306,1730961837081,1.5,45.0,1725694343000000,1.0,0,,,
Raw,1730961836999,9865278881,18,0.0,-1414997045134721024,0.0,10.010015487670898,7.65523099899292,0.0,0,3,0.0,15,369854929080763,18,31.100000381469727,-433.91595458984375,0.14679761230945587,16,0.0,0.10380059480667114,1575420030,,,,0,,1,1.2999999523162842,26.100000381469727,0.0,0.0,0.0,0.0,C,1856746247476522,
Raw,1730961836999,9865278881,18,0.0,-1414997045134721024,0.0,10.010015487670898,7.65523099899292,0.0,0,26,0.0,15,369854930052970,20,29.399999618530273,323.9071044921875,0.1679656058549881,16,0.0,0.11876848340034485,1575420030,,,,0,,1,1.2999999523162842,24.399999618530273,0.0,0.0,0.0,0.0,C,1856746247476522,
Raw,1730961836999,9865278881,18,0.0,-1414997045134721024,0.0,10.010015487670898,7.65523099899292,0.0,0,31,0.0,15,369854925303434,20,29.200000762939453,473.83782958984375,0.1707533597946167,16,0.0,0.12073969841003418,1575420030,,,,0,,1,1.2999999523162842,24.200000762939453,0.0,0.0,0.0,0.0,C,1856746247476522,
Raw,1730961836999,9865278881,18,0.0,-1414997045134721024,0.0,10.010015487670898,7.65523099899292,0.0,0,16,0.0,15,369854932078947,21,28.700000762939453,-214.0413055419922,0.17803412675857544,16,0.0,0.125887930393219,1575420030,,,,0,,1,1.2999999523162842,23.700000762939453,0.0,0.0,0.0,0.0,C,1856746247476522,
Raw,1730961836999,9865278881,18,0.0,-1414997045134721024,0.0,10.010015487670898,7.65523099899292,0.0,0,21,0.0,15,369854921322251,21,28.700000762939453,248.96817016601562,0.17803412675857544,16,0.0,0.125887930393219,1575420030,,,,0,,1,1.2999999523162842,23.700000762939453,0.0,0.0,0.0,0.0,C,1856746247476522,
Raw,1730961836999,9865278881,18,0.0,-1414997045134721024,0.0,10.010015487670898,7.65523099899292,0.0,0,2,0.0,15,369854921740885,33,22.700000762939453,209.90206909179688,0.319193035364151,16,0.0,0.22570139169692993,1575420030,,,,0,,1,1.2999999523162842,17.700000762939453,0.0,0.0,0.0,0.0,C,1856746247476522,
Raw,1730961836999,9865278881,18,0.0,-1414997045134721024,0.0,10.010015487670898,7.65523099899292,0.0,0,27,0.0,15,369854919467026,33,22.799999237060547,-337.9517517089844,0.31561675667762756,16,0.0,0.2231726050376892,1575420030,,,,0,,1,1.2999999523162842,17.799999237060547,0.0,0.0,0.0,0.0,C,1856746247476522,
Raw,1730961836999,9865278881,18,0.0,-1414997045134721024,0.0,10.010015487670898,7.65523099899292,0.0,0,4,0.0,15,369854920742011,38,21.299999237060547,-333.1063537597656,0.37637853622436523,16,0.0,0.2661372721195221,1575420030,,,,0,,1,1.2999999523162842,16.299999237060547,0.0,0.0,0.0,0.0,C,1856746247476522,
Raw,1730961836999,9865278881,18,0.0,-1414997045134721024,0.0,10.010015487670898,7.65523099899292,0.0,0,9,0.0,239,35036936028400,13,36.5,59.072654724121094,0.10078105330467224,16,0.0,0.07126228511333466,1600875010,,,,0,,3,1.2999999523162842,31.5,0.0,0.0,0.0,0.0,C,1856746247476522,
Raw,1730961836999,9865278881,18,0.0,-1414997045134721024,0.0,10.010015487670898,7.65523099899292,0.0,0,37,0.0,51,4502279,15,33.70000076293945,-214.00238037109375,0.12140488624572754,19,-70226.66482620698,0.1818651407957077,1561097980,,,,0,,5,1.2999999523162842,28.700000762939453,0.0,0.0,0.0,0.0,C,1856746247476522,
Raw,1730961836999,9865278881,18,0.0,-1414997045134721024,0.0,10.010015487670898,7.65523099899292,0.0,0,27,0.0,3072,11611189,18,31.100000381469727,-528.9153442382812,0.14679761230945587,16,0.0,0.10380059480667114,1575420030,,,,0,,6,1.2999999523162842,26.100000381469727,0.0,0.0,0.0,0.0,C,1856746247476522,
Raw,1730961836999,9865278881,18,0.0,-1414997045134721024,0.0,10.010015487670898,7.65523099899292,0.0,0,5,0.0,239,35036926048579,17,31.399999618530273,238.3878936767578,0.14348027110099792,16,0.0,0.10145489871501923,1602562560,,,,0,,3,1.2999999523162842,26.399999618530273,0.0,0.0,0.0,0.0,C,1856746247476522,
Raw,1730961836999,9865278881,18,0.0,-1414997045134721024,0.0,10.010015487670898,7.65523099899292,0.0,0,23,0.0,51,5269385,21,28.100000381469727,314.4091491699219,0.18740276992321014,16,0.0,0.13251249492168427,1561097980,,,,0,,5,1.2999999523162842,23.100000381469727,0.0,0.0,0.0,0.0,C,1856746247476522,
Raw,1730961836999,9865278881,18,0.0,-1414997045134721024,0.0,10.010015487670898,7.65523099899292,0.0,0,16,0.0,239,35036927793537,22,27.700000762939453,693.821533203125,0.19406546652317047,16,0.0,0.13722369074821472,1601437440,,,,0,,3,1.2999999523162842,22.700000762939453,0.0,0.0,0.0,0.0,C,1856746247476522,
Raw,1730961836999,9865278881,18,0.0,-1414997045134721024,0.0,10.010015487670898,7.65523099899292,0.0,0,196,0.0,15,369854873541667,22,27.799999237060547,-204.74501037597656,0.19236689805984497,16,0.0,0.1360226273536682,1575420030,,,,0,,4,1.2999999523162842,22.799999237060547,0.0,0.0,0.0,0.0,C,1856746247476522,
Raw,1730961836999,9865278881,18,0.0,-1414997045134721024,0.0,10.010015487670898,7.65523099899292,0.0,0,10,0.0,239,35036930001143,20,28.899999618530273,-546.272705078125,0.1750669777393341,16,0.0,0.12378986179828644,1598062460,,,,0,,3,1.2999999523162842,23.899999618530273,0.0,0.0,0.0,0.0,C,1856746247476522,
Raw,1730961836999,9865278881,18,0.0,-1414997045134721024,0.0,10.010015487670898,7.65523099899292,0.0,0,38,0.0,47,369840871667738,30,23.899999618530273,237.1574249267578,0.2799473702907562,16,0.0,0.19795078039169312,1561097980,,,,0,,5,1.2999999523162842,18.899999618530273,0.0,0.0,0.0,0.0,C,1856746247476522,
Raw,1730961836999,9865278881,18,0.0,-1414997045134721024,0.0,10.010015487670898,7.65523099899292,0.0,0,41,0.0,51,4482923,27,25.0,20.82503890991211,0.25,16,0.0,0.1767749935388565,1561097980,,,,0,,5,1.2999999523162842,20.0,0.0,0.0,0.0,0.0,C,1856746247476522,
Raw,1730961836999,9865278881,18,0.0,-1414997045134721024,0.0,10.010015487670898,7.65523099899292,0.0,0,32,0.0,51,2042333,26,25.399999618530273,-421.3422546386719,0.24029220640659332,16,0.0,0.16991062462329865,1561097980,,,,0,,5,1.2999999523162842,20.399999618530273,0.0,0.0,0.0,0.0,C,1856746247476522,
Raw,1730961836999,9865278881,18,0.0,-1414997045134721024,0.0,10.010015487670898,7.65523099899292,0.0,0,40,0.0,51,8980923,25,25.899999618530273,-291.3318786621094,0.2289324849843979,16,0.0,0.16187815368175507,1561097980,,,,0,,5,1.2999999523162842,20.899999618530273,0.0,0.0,0.0,0.0,C,1856746247476522,
Raw,1730961836999,9865278881,18,0.0,-1414997045134721024,0.0,10.010015487670898,7.65523099899292,0.0,0,15,0.0,2048,10409312,36,21.799999237060547,429.801025390625,0.35430842638015747,16,0.0,0.25053149461746216,1575420030,,,,0,,6,1.2999999523162842,16.799999237060547,0.0,0.0,0.0,0.0,C,1856746247476522,
Raw,1730961837999,10865278881,18,0.0,-1414997045134721024,0.0,10.010015487670898,8.104125022888184,0.0,0,3,0.0,15,369855929082212,18,31.100000381469727,-434.0241394042969,0.14679761230945587,16,0.0,0.10380059480667114,1575420030,,,,0,,1,1.2999999523162842,26.100000381469727,0.0,0.0,0.0,0.0,C,1856746977398895,
Raw,1730961837999,10865278881,18,0.0,-1414997045134721024,0.0,10.010015487670898,8.104125022888184,0.0,0,26,0.0,15,369855930051911,19,30.100000381469727,323.99542236328125,0.15872763097286224,16,0.0,0.11223630607128143,1575420030,,,,0,,1,1.2999999523162842,25.100000381469727,0.0,0.0,0.0,0.0,C,1856746977398895,
Raw,1730961837999,10865278881,18,0.0,-1414997045134721024,0.0,10.010015487670898,8.104125022888184,0.0,0,16,0.0,15,369855932079623,20,28.899999618530273,-213.80874633789062,0.1750669777393341,16,0.0,0.12378986179828644,1575420030,,,,0,,1,1.2999999523162842,23.899999618530273,0.0,0.0,0.0,0.0,C,1856746977398895,
Raw,1730961837999,10865278881,18,0.0,-1414997045134721024,0.0,10.010015487670898,8.104125022888184,0.0,0,31,0.0,15,369855925301841,20,29.200000762939453,474.17449951171875,0.1707533597946167,16,0.0,0.12073969841003418,1575420030,,,,0,,1,1.2999999523162842,24.200000762939453,0.0,0.0,0.0,0.0,C,1856746977398895,
Raw,1730961837999,10865278881,18,0.0,-1414997045134721024,0.0,10.010015487670898,8.104125022888184,0.0,0,21,0.0,15,369855921321426,21,28.700000762939453,249.40040588378906,0.17803412675857544,16,0.0,0.125887930393219,1575420030,,,,0,,1,1.2999999523162842,23.700000762939453,0.0,0.0,0.0,0.0,C,1856746977398895,
Raw,1730961837999,10865278881,18,0.0,-1414997045134721024,0.0,10.010015487670898,8.104125022888184,0.0,0,2,0.0,15,369855921740202,31,23.299999237060547,209.82473754882812,0.2986055314540863,16,0.0,0.21114397048950195,1575420030,,,,0,,1,1.2999999523162842,18.299999237060547,0.0,0.0,0.0,0.0,C,1856746977398895,
Raw,1730961837999,10865278881,18,0.0,-1414997045134721024,0.0,10.010015487670898,8.104125022888184,0.0,0,27,0.0,15,369855919468129,33,22.700000762939453,-337.5649108886719,0.319193035364151,16,0.0,0.22570139169692993,1575420030,,,,0,,1,1.2999999523162842,17.700000762939453,0.0,0.0,0.0,0.0,C,1856746977398895,
Raw,1730961837999,10865278881,18,0.0,-1414997045134721024,0.0,10.010015487670898,8.104125022888184,0.0,0,4,0.0,15,369855920743165,37,21.600000381469727,-333.33331298828125,0.3628973662853241,16,0.0,0.25660473108291626,1575420030,,,,0,,1,1.2999999523162842,16.600000381469727,0.0,0.0,0.0,0.0,C,1856746977398895,
Raw,1730961837999,10865278881,18,0.0,-1414997045134721024,0.0,10.010015487670898,8.104125022888184,0.0,0,9,0.0,239,35037936028204,13,36.5,59.3379020690918,0.10078105330467224,16,0.0,0.07126228511333466,1600875010,,,,0,,3,1.2999999523162842,31.5,0.0,0.0,0.0,0.0,C,1856746977398895,
Raw,1730961837999,10865278881,18,0.0,-1414997045134721024,0.0,10.010015487670898,8.104125022888184,0.0,0,37,0.0,47,369841924502994,14,34.400001525878906,-213.99368286132812,0.11569254100322723,19,-70440.56209468996,0.1778259426355362,1561097980,,,,0,,5,1.2999999523162842,29.399999618530273,0.0,0.0,0.0,0.0,C,1856746977398895,
Raw,1730961837999,10865278881,18,0.0,-1414997045134721024,0.0,10.010015487670898,8.104125022888184,0.0,0,27,0.0,3072,11612981,15,33.29999923706055,-528.7818603515625,0.12486109882593155,16,0.0,0.0882892832159996,1575420030,,,,0,,6,1.2999999523162842,28.299999237060547,0.0,0.0,0.0,0.0,C,1856746977398895,
Raw,1730961837999,10865278881,18,0.0,-1414997045134721024,0.0,10.010015487670898,8.104125022888184,0.0,0,5,0.0,239,35037926047897,17,31.299999237060547,239.1165313720703,0.14457345008850098,16,0.0,0.10222788900136948,1602562560,,,,0,,3,1.2999999523162842,26.299999237060547,0.0,0.0,0.0,0.0,C,1856746977398895,
Raw,1730961837999,10865278881,18,0.0,-1414997045134721024,0.0,10.010015487670898,8.104125022888184,0.0,0,23,0.0,51,5268328,20,29.299999237060547,314.1184997558594,0.16935087740421295,16,0.0,0.11974800378084183,1561097980,,,,0,,5,1.2999999523162842,24.299999237060547,0.0,0.0,0.0,0.0,C,1856746977398895,
Raw,1730961837999,10865278881,18,0.0,-1414997045134721024,0.0,10.010015487670898,8.104125022888184,0.0,0,16,0.0,239,35037927791261,21,28.299999237060547,693.9653930664062,0.18419939279556274,16,0.0,0.13024738430976868,1601437440,,,,0,,3,1.2999999523162842,23.299999237060547,0.0,0.0,0.0,0.0,C,1856746977398895,
Raw,1730961837999,10865278881,18,0.0,-1414997045134721024,0.0,10.010015487670898,8.104125022888184,0.0,0,10,0.0,239,35037930003003,20,28.799999237060547,-546.61279296875,0.17654122412204742,16,0.0,0.12483230233192444,1598062460,,,,0,,3,1.2999999523162842,23.799999237060547,0.0,0.0,0.0,0.0,C,1856746977398895,
Raw,1730961837999,10865278881,18,0.0,-1414997045134721024,0.0,10.010015487670898,8.104125022888184,0.0,0,196,0.0,15,369855873542318,21,28.299999237060547,-204.352294921875,0.18419939279556274,16,0.0,0.13024738430976868,1575420030,,,,0,,4,1.2999999523162842,23.299999237060547,0.0,0.0,0.0,0.0,C,1856746977398895,
Raw,1730961837999,10865278881,18,0.0,-1414997045134721024,0.0,10.010015487670898,8.104125022888184,0.0,0,7,0.0,3072,11952981,26,25.700000762939453,-213.5911407470703,0.23337766528129578,16,0.0,0.16502134501934052,1575420030,,,,0,,6,1.2999999523162842,20.700000762939453,0.0,0.0,0.0,0.0,C,1856746977398895,
Raw,1730961837999,10865278881,18,0.0,-1414997045134721024,0.0,10.010015487670898,8.104125022888184,0.0,0,38,0.0,47,369841871666938,24,26.399999618530273,237.05642700195312,0.21835967898368835,16,0.0,0.15440212190151215,1561097980,,,,0,,5,1.2999999523162842,21.399999618530273,0.0,0.0,0.0,0.0,C,1856746977398895,
Raw,1730961837999,10865278881,18,0.0,-1414997045134721024,0.0,10.010015487670898,8.104125022888184,0.0,0,32,0.0,51,2043670,26,25.399999618530273,-422.67999267578125,0.24029220640659332,16,0.0,0.16991062462329865,1561097980,,,,0,,5,1.2999999523162842,20.399999618530273,0.0,0.0,0.0,0.0,C,1856746977398895,
Raw,1730961837999,10865278881,18,0.0,-1414997045134721024,0.0,10.010015487670898,8.104125022888184,0.0,0,41,0.0,51,4482867,27,25.200000762939453,21.780479431152344,0.24507398903369904,16,0.0,0.17329181730747223,1561097980,,,,0,,5,1.2999999523162842,20.200000762939453,0.0,0.0,0.0,0.0,C,1856746977398895,
Raw,1730961837999,10865278881,18,0.0,-1414997045134721024,0.0,10.010015487670898,8.104125022888184,0.0,0,16,0.0,47,369841870997931,32,23.100000381469727,94.97972869873047,0.3052409589290619,16,0.0,0.21583588421344757,1561097980,,,,0,,5,1.2999999523162842,18.100000381469727,0.0,0.0,0.0,0.0,C,1856746977398895,
Raw,1730961837999,10865278881,18,0.0,-1414997045134721024,0.0,10.010015487670898,8.104125022888184,0.0,0,40,0.0,51,8981907,25,25.799999237060547,-291.95697021484375,0.23113907873630524,16,0.0,0.16343843936920166,1561097980,,,,0,,5,1.2999999523162842,20.799999237060547,0.0,0.0,0.0,0.0,C,1856746977398895,
Raw,1730961837999,10865278881,18,0.0,-1414997045134721024,0.0,10.010015487670898,8.104125022888184,0.0,0,13,0.0,47,369841877897750,33,22.700000762939453,186.9078369140625,0.319193035364151,16,0.0,0.22570139169692993,1561097980,,,,0,,5,1.2999999523162842,17.700000762939453,0.0,0.0,0.0,0.0,C,1856746977398895,
Raw,1730961837999,10865278881,18,0.0,-1414997045134721024,0.0,10.010015487670898,8.104125022888184,0.0,0,9,0.0,51,13064134,34,22.399999618530273,125.20487976074219,0.3302946388721466,16,0.0,0.23355133831501007,1561097980,,,,0,,5,1.2999999523162842,17.399999618530273,0.0,0.0,0.0,0.0,C,1856746977398895,
Raw,1730961837999,10865278881,18,0.0,-1414997045134721024,0.0,10.010015487670898,8.104125022888184,0.0,0,8,0.0,47,369841873950721,36,21.700000762939453,230.1783447265625,0.3585642874240875,16,0.0,0.2535408139228821,1561097980,,,,0,,5,1.2999999523162842,16.700000762939453,0.0,0.0,0.0,0.0,C,1856746977398895,
Raw,1730961837999,10865278881,18,0.0,-1414997045134721024,0.0,10.010015487670898,8.104125022888184,0.0,0,15,0.0,3072,10407876,36,21.700000762939453,430.17816162109375,0.3585642874240875,16,0.0,0.2535408139228821,1575420030,,,,0,,6,1.2999999523162842,16.700000762939453,0.0,0.0,0.0,0.0,C,1856746977398895,
Raw,1730961838999,11865278881,18,0.0,-1414997045134721024,0.0,10.010015487670898,7.875675201416016,0.0,0,3,0.0,15,369856929083669,17,31.399999618530273,-433.9157409667969,0.14348027110099792,16,0.0,0.10145489871501923,1575420030,,,,0,,1,1.2999999523162842,26.399999618530273,0.0,0.0,0.0,0.0,C,1856747789304678,
Raw,1730961838999,11865278881,18,0.0,-1414997045134721024,0.0,10.010015487670898,7.875675201416016,0.0,0,26,0.0,15,369856930050793,18,30.600000381469727,323.5921936035156,0.1525878757238388,16,0.0,0.1078948900103569,1575420030,,,,0,,1,1.2999999523162842,25.600000381469727,0.0,0.0,0.0,0.0,C,1856747789304678,
Raw,1730961838999,11865278881,18,0.0,-1414997045134721024,0.0,10.010015487670898,7.875675201416016,0.0,0,31,0.0,15,369856925300246,20,29.100000381469727,473.0578918457031,0.17217335104942322,16,0.0,0.12174377590417862,1575420030,,,,0,,1,1.2999999523162842,24.100000381469727,0.0,0.0,0.0,0.0,C,1856747789304678,
Raw,1730961838999,11865278881,18,0.0,-1414997045134721024,0.0,10.010015487670898,7.875675201416016,0.0,0,21,0.0,15,369856921320576,21,28.600000381469727,249.0032196044922,0.17954610288143158,16,0.0,0.12695704400539398,1575420030,,,,0,,1,1.2999999523162842,23.600000381469727,0.0,0.0,0.0,0.0,C,1856747789304678,
Raw,1730961838999,11865278881,18,0.0,-1414997045134721024,0.0,10.010015487670898,7.875675201416016,0.0,0,2,0.0,15,369856921739445,31,23.299999237060547,210.29205322265625,0.2986055314540863,16,0.0,0.21114397048950195,1575420030,,,,0,,1,1.2999999523162842,18.299999237060547,0.0,0.0,0.0,0.0,C,1856747789304678,
Raw,1730961838999,11865278881,18,0.0,-1414997045134721024,0.0,10.010015487670898,7.875675201416016,0.0,0,27,0.0,15,369856919469249,33,22.600000381469727,-337.02691650390625,0.32283055782318115,16,0.0,0.22827348113059998,1575420030,,,,0,,1,1.2999999523162842,17.600000381469727,0.0,0.0,0.0,0.0,C,1856747789304678,
Raw,1730961838999,11865278881,18,0.0,-1414997045134721024,0.0,10.010015487670898,7.875675201416016,0.0,0,4,0.0,15,369856920744233,37,21.600000381469727,-334.1234436035156,0.3628973662853241,16,0.0,0.25660473108291626,1575420030,,,,0,,1,1.2999999523162842,16.600000381469727,0.0,0.0,0.0,0.0,C,1856747789304678,
Raw,1730961838999,11865278881,18,0.0,-1414997045134721024,0.0,10.010015487670898,7.875675201416016,0.0,0,37,0.0,47,369842924503706,14,35.20000076293945,-214.15809631347656,0.10964430868625641,17,-70654.72018603899,0.17354923486709595,1561097980,,,,0,,5,1.2999999523162842,30.200000762939453,0.0,0.0,0.0,0.0,C,1856747789304678,
Raw,1730961838999,11865278881,18,0.0,-1414997045134721024,0.0,10.010015487670898,7.875675201416016,0.0,0,27,0.0,3072,11614721,15,33.29999923706055,-530.1455078125,0.12486109882593155,16,0.0,0.0882892832159996,1575420030,,,,0,,6,1.2999999523162842,28.299999237060547,0.0,0.0,0.0,0.0,C,1856747789304678,
Raw,1730961838999,11865278881,18,0.0,-1414997045134721024,0.0,10.010015487670898,7.875675201416016,0.0,0,23,0.0,51,5267305,19,30.0,314.12152099609375,0.1599999964237213,16,0.0,0.11313600093126297,1561097980,,,,0,,5,1.2999999523162842,25.0,0.0,0.0,0.0,0.0,C,1856747789304678,
Raw,1730961838999,11865278881,18,0.0,-1414997045134721024,0.0,10.010015487670898,7.875675201416016,0.0,0,5,0.0,239,35038926047023,17,31.200000762939453,239.44798278808594,0.14567914605140686,16,0.0,0.10300972312688828,1602562560,,,,0,,3,1.2999999523162842,26.200000762939453,0.0,0.0,0.0,0.0,C,1856747789304678,
Raw,1730961838999,11865278881,18,0.0,-1414997045134721024,0.0,10.010015487670898,7.875675201416016,0.0,0,38,0.0,47,369842871666137,22,27.899999618530273,236.36878967285156,0.19069050252437592,16,0.0,0.13483725488185883,1561097980,,,,0,,5,1.2999999523162842,22.899999618530273,0.0,0.0,0.0,0.0,C,1856747789304678,
Raw,1730961838999,11865278881,18,0.0,-1414997045134721024,0.0,10.010015487670898,7.875675201416016,0.0,0,16,0.0,239,35038927788941,21,28.299999237060547,693.6013793945312,0.18419939279556274,16,0.0,0.13024738430976868,1601437440,,,,0,,3,1.2999999523162842,23.299999237060547,0.0,0.0,0.0,0.0,C,1856747789304678,
Raw,1730961838999,11865278881,18,0.0,-1414997045134721024,0.0,10.010015487670898,7.875675201416016,0.0,0,10,0.0,239,35038930004835,21,28.700000762939453,-546.6968383789062,0.17803412675857544,16,0.0,0.125887930393219,1598062460,,,,0,,3,1.2999999523162842,23.700000762939453,0.0,0.0,0.0,0.0,C,1856747789304678,
Raw,1730961838999,11865278881,18,0.0,-1414997045134721024,0.0,10.010015487670898,7.875675201416016,0.0,0,196,0.0,15,369856873542957,21,28.299999237060547,-204.55026245117188,0.18419939279556274,16,0.0,0.13024738430976868,1575420030,,,,0,,4,1.2999999523162842,23.299999237060547,0.0,0.0,0.0,0.0,C,1856747789304678,
Raw,1730961838999,11865278881,18,0.0,-1414997045134721024,0.0,10.010015487670898,7.875675201416016,0.0,0,7,0.0,3072,11953724,26,25.700000762939453,-213.2744140625,0.23337766528129578,16,0.0,0.16502134501934052,1575420030,,,,0,,6,1.2999999523162842,20.700000762939453,0.0,0.0,0.0,0.0,C,1856747789304678,
Raw,1730961838999,11865278881,18,0.0,-1414997045134721024,0.0,10.010015487670898,7.875675201416016,0.0,0,32,0.0,51,2045142,26,25.399999618530273,-422.3125915527344,0.24029220640659332,16,0.0,0.16991062462329865,1561097980,,,,0,,5,1.2999999523162842,20.399999618530273,0.0,0.0,0.0,0.0,C,1856747789304678,
Raw,1730961838999,11865278881,18,0.0,-1414997045134721024,0.0,10.010015487670898,7.875675201416016,0.0,0,41,0.0,51,4482776,26,25.5,22.16424560546875,0.23795360326766968,16,0.0,0.1682569980621338,1561097980,,,,0,,5,1.2999999523162842,20.5,0.0,0.0,0.0,0.0,C,1856747789304678,
Raw,1730961838999,11865278881,18,0.0,-1414997045134721024,0.0,10.010015487670898,7.875675201416016,0.0,0,16,0.0,47,369842870997613,27,24.899999618530273,95.0615005493164,0.252518892288208,16,0.0,0.17855611443519592,1561097980,,,,0,,5,1.2999999523162842,19.899999618530273,0.0,0.0,0.0,0.0,C,1856747789304678,
Raw,1730961838999,11865278881,18,0.0,-1414997045134721024,0.0,10.010015487670898,7.875675201416016,0.0,0,9,0.0,238,35038936027963,13,35.79999923706055,59.52634811401367,0.10541407018899918,16,0.0,0.07453829050064087,1600875010,,,,0,,3,1.2999999523162842,30.799999237060547,0.0,0.0,0.0,0.0,C,1856747789304678,
Raw,1730961838999,11865278881,18,0.0,-1414997045134721024,0.0,10.010015487670898,7.875675201416016,0.0,0,40,0.0,51,8982849,26,25.700000762939453,-292.44110107421875,0.23337766528129578,16,0.0,0.16502134501934052,1561097980,,,,0,,5,1.2999999523162842,20.700000762939453,0.0,0.0,0.0,0.0,C,1856747789304678,
Raw,1730961838999,11865278881,18,0.0,-1414997045134721024,0.0,10.010015487670898,7.875675201416016,0.0,0,199,0.0,15,369856871792337,34,22.5,3.2649354934692383,0.3265306055545807,16,0.0,0.23088979721069336,1575420030,,,,0,,4,1.2999999523162842,17.5,0.0,0.0,0.0,0.0,C,1856747789304678,
Raw,1730961838999,11865278881,18,0.0,-1414997045134721024,0.0,10.010015487670898,7.875675201416016,0.0,0,13,0.0,47,369842877897125,31,23.600000381469727,186.45677185058594,0.28905072808265686,16,0.0,0.20438776910305023,1561097980,,,,0,,5,1.2999999523162842,18.600000381469727,0.0,0.0,0.0,0.0,C,1856747789304678,
Raw,1730961838999,11865278881,18,0.0,-1414997045134721024,0.0,10.010015487670898,7.875675201416016,0.0,0,8,0.0,47,369842873949980,33,22.600000381469727,230.07861328125,0.32283055782318115,16,0.0,0.22827348113059998,1561097980,,,,0,,5,1.2999999523162842,17.600000381469727,0.0,0.0,0.0,0.0,C,1856747789304678,
Raw,1730961838999,11865278881,18,0.0,-1414997045134721024,0.0,10.010015487670898,7.875675201416016,0.0,0,9,0.0,51,13063726,33,22.600000381469727,124.41328430175781,0.32283055782318115,16,0.0,0.22827348113059998,1561097980,,,,0,,5,1.2999999523162842,17.600000381469727,0.0,0.0,0.0,0.0,C,1856747789304678,
Raw,1730961838999,11865278881,18,0.0,-1414997045134721024,0.0,10.010015487670898,7.875675201416016,0.0,0,194,0.0,15,369856862614110,35,22.200000762939453,117.73673248291016,0.33802053332328796,16,0.0,0.23901431262493134,1575420030,,,,0,,4,1.2999999523162842,17.200000762939453,0.0,0.0,0.0,0.0,C,1856747789304678,
Raw,1730961838999,11865278881,18,0.0,-1414997045134721024,0.0,10.010015487670898,7.875675201416016,0.0,0,27,0.0,47,369842913137981,43,20.0,140.3025360107422,0.4444444477558136,16,0.0,0.3142666816711426,1561097980,,,,0,,5,1.2999999523162842,15.0,0.0,0.0,0.0,0.0,C,1856747789304678,
Raw,1730961838999,11865278881,18,0.0,-1414997045134721024,0.0,10.010015487670898,7.875675201416016,0.0,0,15,0.0,3072,10406483,37,21.600000381469727,431.3897705078125,0.3628973662853241,16,0.0,0.25660473108291626,1575420030,,,,0,,6,1.2999999523162842,16.600000381469727,0.0,0.0,0.0,0.0,C,1856747789304678,
Raw,1730961839999,12865278881,18,0.0,-1414997045134721024,0.0,10.010015487670898,7.357228755950928,0.0,0,3,0.0,15,369857929085126,17,31.700000762939453,-433.8550720214844,0.14027409255504608,16,0.0,0.09918781369924545,1575420030,,,,0,,1,1.2999999523162842,26.700000762939453,0.0,0.0,0.0,0.0,C,1856748550798122,
Raw,1730961839999,12865278881,18,0.0,-1414997045134721024,0.0,10.010015487670898,7.357228755950928,0.0,0,26,0.0,15,369857930049699,18,30.799999237060547,323.825927734375,0.15023136138916016,16,0.0,0.10622859746217728,1575420030,,,,0,,1,1.2999999523162842,25.799999237060547,0.0,0.0,0.0,0.0,C,1856748550798122,
Raw,1730961839999,12865278881,18,0.0,-1414997045134721024,0.0,10.010015487670898,7.357228755950928,0.0,0,31,0.0,15,369857925298677,20,29.100000381469727,472.04730224609375,0.17217335104942322,16,0.0,0.12174377590417862,1575420030,,,,0,,1,1.2999999523162842,24.100000381469727,0.0,0.0,0.0,0.0,C,1856748550798122,
Raw,1730961839999,12865278881,18,0.0,-1414997045134721024,0.0,10.010015487670898,7.357228755950928,0.0,0,21,0.0,15,369857921319709,21,28.5,248.45616149902344,0.18107740581035614,16,0.0,0.12803983688354492,1575420030,,,,0,,1,1.2999999523162842,23.5,0.0,0.0,0.0,0.0,C,1856748550798122,
Raw,1730961839999,12865278881,18,0.0,-1414997045134721024,0.0,10.010015487670898,7.357228755950928,0.0,0,2,0.0,15,369857921738639,32,23.200000762939453,210.27407836914062,0.3018958866596222,16,0.0,0.21347057819366455,1575420030,,,,0,,1,1.2999999523162842,18.200000762939453,0.0,0.0,0.0,0.0,C,1856748550798122,
Raw,1730961839999,12865278881,18,0.0,-1414997045134721024,0.0,10.010015487670898,7.357228755950928,0.0,0,27,0.0,15,369857919470382,34,22.5,-337.0805358886719,0.3265306055545807,16,0.0,0.23088979721069336,1575420030,,,,0,,1,1.2999999523162842,17.5,0.0,0.0,0.0,0.0,C,1856748550798122,
Raw,1730961839999,12865278881,18,0.0,-1414997045134721024,0.0,10.010015487670898,7.357228755950928,0.0,0,4,0.0,15,369857920745389,37,21.5,-334.16375732421875,0.36730945110321045,16,0.0,0.25972452759742737,1575420030,,,,0,,1,1.2999999523162842,16.5,0.0,0.0,0.0,0.0,C,1856748550798122,
Raw,1730961839999,12865278881,18,0.0,-1414997045134721024,0.0,10.010015487670898,7.357228755950928,0.0,0,37,0.0,47,369843924504423,14,35.29999923706055,-214.72250366210938,0.10892178863286972,19,-70869.25454931991,0.1730383336544037,1561097980,,,,0,,5,1.2999999523162842,30.299999237060547,0.0,0.0,0.0,0.0,C,1856748550798122,
Raw,1730961839999,12865278881,18,0.0,-1414997045134721024,0.0,10.010015487670898,7.357228755950928,0.0,0,27,0.0,3072,11616456,15,33.20000076293945,-530.4408569335938,0.1257481873035431,16,0.0,0.08891654014587402,1575420030,,,,0,,6,1.2999999523162842,28.200000762939453,0.0,0.0,0.0,0.0,C,1856748550798122,
Raw,1730961839999,12865278881,18,0.0,-1414997045134721024,0.0,10.010015487670898,7.357228755950928,0.0,0,23,0.0,51,5266236,18,30.600000381469727,314.5343017578125,0.1525878757238388,16,0.0,0.1078948900103569,1561097980,,,,0,,5,1.2999999523162842,25.600000381469727,0.0,0.0,0.0,0.0,C,1856748550798122,
Raw,1730961839999,12865278881,18,0.0,-1414997045134721024,0.0,10.010015487670898,7.357228755950928,0.0,0,9,0.0,239,35039936027833,14,35.099998474121094,58.57313919067383,0.11037405580282211,16,0.0,0.07804549485445023,1600875010,,,,0,,3,1.2999999523162842,30.100000381469727,0.0,0.0,0.0,0.0,C,1856748550798122,
Raw,1730961839999,12865278881,18,0.0,-1414997045134721024,0.0,10.010015487670898,7.357228755950928,0.0,0,5,0.0,239,35039926046211,18,31.100000381469727,238.26205444335938,0.14679761230945587,16,0.0,0.10380059480667114,1602562560,,,,0,,3,1.2999999523162842,26.100000381469727,0.0,0.0,0.0,0.0,C,1856748550798122,
Raw,1730961839999,12865278881,18,0.0,-1414997045134721024,0.0,10.010015487670898,7.357228755950928,0.0,0,38,0.0,47,369843871665299,21,28.700000762939453,235.47772216796875,0.17803412675857544,16,0.0,0.125887930393219,1561097980,,,,0,,5,1.2999999523162842,23.700000762939453,0.0,0.0,0.0,0.0,C,1856748550798122,
Raw,1730961839999,12865278881,18,0.0,-1414997045134721024,0.0,10.010015487670898,7.357228755950928,0.0,0,16,0.0,239,35039927786645,21,28.299999237060547,694.0782470703125,0.18419939279556274,16,0.0,0.13024738430976868,1601437440,,,,0,,3,1.2999999523162842,23.299999237060547,0.0,0.0,0.0,0.0,C,1856748550798122,
Raw,1730961839999,12865278881,18,0.0,-1414997045134721024,0.0,10.010015487670898,7.357228755950928,0.0,0,10,0.0,239,35039930006628,21,28.600000381469727,-546.727783203125,0.17954610288143158,16,0.0,0.12695704400539398,1598062460,,,,0,,3,1.2999999523162842,23.600000381469727,0.0,0.0,0.0,0.0,C,1856748550798122,
Raw,1730961839999,12865278881,18,0.0,-1414997045134721024,0.0,10.010015487670898,7.357228755950928,0.0,0,196,0.0,15,369857873543633,21,28.200000762939453,-204.39593505859375,0.18579070270061493,16,0.0,0.1313726007938385,1575420030,,,,0,,4,1.2999999523162842,23.200000762939453,0.0,0.0,0.0,0.0,C,1856748550798122,
Raw,1730961839999,12865278881,18,0.0,-1414997045134721024,0.0,10.010015487670898,7.357228755950928,0.0,0,32,0.0,51,2046513,24,26.299999237060547,-421.7960205078125,0.22041483223438263,16,0.0,0.15585532784461975,1561097980,,,,0,,5,1.2999999523162842,21.299999237060547,0.0,0.0,0.0,0.0,C,1856748550798122,
Raw,1730961839999,12865278881,18,0.0,-1414997045134721024,0.0,10.010015487670898,7.357228755950928,0.0,0,7,0.0,3072,11954448,25,25.899999618530273,-213.06045532226562,0.2289324849843979,16,0.0,0.16187815368175507,1575420030,,,,0,,6,1.2999999523162842,20.899999618530273,0.0,0.0,0.0,0.0,C,1856748550798122,
Raw,1730961839999,12865278881,18,0.0,-1414997045134721024,0.0,10.010015487670898,7.357228755950928,0.0,0,41,0.0,51,4482737,26,25.700000762939453,21.827043533325195,0.23337766528129578,16,0.0,0.16502134501934052,1561097980,,,,0,,5,1.2999999523162842,20.700000762939453,0.0,0.0,0.0,0.0,C,1856748550798122,
Raw,1730961839999,12865278881,18,0.0,-1414997045134721024,0.0,10.010015487670898,7.357228755950928,0.0,0,16,0.0,47,369843870997279,27,25.0,95.57552337646484,0.25,16,0.0,0.1767749935388565,1561097980,,,,0,,5,1.2999999523162842,20.0,0.0,0.0,0.0,0.0,C,1856748550798122,
Raw,1730961839999,12865278881,18,0.0,-1414997045134721024,0.0,10.010015487670898,7.357228755950928,0.0,0,13,0.0,47,369843877896511,29,24.200000762939453,186.0817108154297,0.2712673544883728,16,0.0,0.1918131411075592,1561097980,,,,0,,5,1.2999999523162842,19.200000762939453,0.0,0.0,0.0,0.0,C,1856748550798122,
Raw,1730961839999,12865278881,18,0.0,-1414997045134721024,0.0,10.010015487670898,7.357228755950928,0.0,0,40,0.0,51,8983796,26,25.600000381469727,-292.9466247558594,0.235648974776268,16,0.0,0.16662739217281342,1561097980,,,,0,,5,1.2999999523162842,20.600000381469727,0.0,0.0,0.0,0.0,C,1856748550798122,
Raw,1730961839999,12865278881,18,0.0,-1414997045134721024,0.0,10.010015487670898,7.357228755950928,0.0,0,8,0.0,47,369843873949213,32,23.0,228.9515838623047,0.3086419701576233,16,0.0,0.21824073791503906,1561097980,,,,0,,5,1.2999999523162842,18.0,0.0,0.0,0.0,0.0,C,1856748550798122,
Raw,1730961839999,12865278881,18,0.0,-1414997045134721024,0.0,10.010015487670898,7.357228755950928,0.0,0,9,0.0,51,13063337,33,22.600000381469727,123.71490478515625,0.32283055782318115,16,0.0,0.22827348113059998,1561097980,,,,0,,5,1.2999999523162842,17.600000381469727,0.0,0.0,0.0,0.0,C,1856748550798122,
Raw,1730961839999,12865278881,18,0.0,-1414997045134721024,0.0,10.010015487670898,7.357228755950928,0.0,0,194,0.0,15,369857862613730,35,22.100000381469727,117.69738006591797,0.3419855535030365,16,0.0,0.24181798100471497,1575420030,,,,0,,4,1.2999999523162842,17.100000381469727,0.0,0.0,0.0,0.0,C,1856748550798122,
Raw,1730961839999,12865278881,18,0.0,-1414997045134721024,0.0,10.010015487670898,7.357228755950928,0.0,0,25,0.0,51,14238797,38,21.200000762939453,570.5648193359375,0.38103944063186646,16,0.0,0.26943299174308777,1561097980,,,,0,,5,1.2999999523162842,16.200000762939453,0.0,0.0,0.0,0.0,C,1856748550798122,
Raw,1730961839999,12865278881,18,0.0,-1414997045134721024,0.0,10.010015487670898,7.357228755950928,0.0,0,15,0.0,3072,10404992,37,21.5,432.4122314453125,0.36730945110321045,16,0.0,0.25972452759742737,1575420030,,,,0,,6,1.2999999523162842,16.5,0.0,0.0,0.0,0.0,C,1856748550798122,
Raw,1730961839999,12865278881,18,0.0,-1414997045134721024,0.0,10.010015487670898,7.357228755950928,0.0,0,27,0.0,47,369843913137446,42,20.299999237060547,139.69020080566406,0.42718610167503357,16,0.0,0.3020632863044739,1561097980,,,,0,,5,1.2999999523162842,15.300000190734863,0.0,0.0,0.0,0.0,C,1856748550798122,
Raw,1730961839999,12865278881,18,0.0,-1414997045134721024,0.0,10.010015487670898,7.357228755950928,0.0,0,199,0.0,15,369857871792362,34,22.299999237060547,3.339599132537842,0.3341241180896759,16,0.0,0.23625916242599487,1575420030,,,,0,,4,1.2999999523162842,17.299999237060547,0.0,0.0,0.0,0.0,C,1856748550798122,
Fix,FLP,12.9370844000,77.5410276000,792.2000122070312,0.34327018,14.169,202.87224,1730961841901,1.5,45.0,1725699163000000,1.0,0,,,
Raw,1730961840999,13865278881,18,0.0,-1414997045134721024,0.0,10.010015487670898,5.268526554107666,0.0,0,26,0.0,15,369858930048633,15,34.20000076293945,323.3799133300781,0.11728279292583466,16,0.0,0.08293066173791885,1575420030,,,,0,,1,1.2999999523162842,29.200000762939453,0.0,0.0,0.0,0.0,C,1856749443086386,
Raw,1730961840999,13865278881,18,0.0,-1414997045134721024,0.0,10.010015487670898,5.268526554107666,0.0,0,3,0.0,15,369858929086568,14,35.29999923706055,-434.3721618652344,0.10892178863286972,19,-41163.904582030984,0.1721654236316681,1575420030,,,,0,,1,1.2999999523162842,30.299999237060547,0.0,0.0,0.0,0.0,C,1856749443086386,
Raw,1730961840999,13865278881,18,0.0,-1414997045134721024,0.0,10.010015487670898,5.268526554107666,0.0,0,16,0.0,15,369858932081753,13,36.400001525878906,-214.1884307861328,0.10142399370670319,16,0.0,0.07171690464019775,1575420030,,,,0,,1,1.2999999523162842,31.399999618530273,0.0,0.0,0.0,0.0,C,1856749443086386,
Raw,1730961840999,13865278881,18,0.0,-1414997045134721024,0.0,10.010015487670898,5.268526554107666,0.0,0,31,0.0,15,369858925297097,20,29.0,472.5847473144531,0.1736111044883728,16,0.0,0.12276041507720947,1575420030,,,,0,,1,1.2999999523162842,24.0,0.0,0.0,0.0,0.0,C,1856749443086386,
Raw,1730961840999,13865278881,18,0.0,-1414997045134721024,0.0,10.010015487670898,5.268526554107666,0.0,0,21,0.0,15,369858921318897,21,28.399999618530273,246.89346313476562,0.18262839317321777,16,0.0,0.12913653254508972,1575420030,,,,0,,1,1.2999999523162842,23.399999618530273,0.0,0.0,0.0,0.0,C,1856749443086386,
Raw,1730961840999,13865278881,18,0.0,-1414997045134721024,0.0,10.010015487670898,5.268526554107666,0.0,0,2,0.0,15,369858921737930,31,23.299999237060547,208.48562622070312,0.2986055314540863,16,0.0,0.21114397048950195,1575420030,,,,0,,1,1.2999999523162842,18.299999237060547,0.0,0.0,0.0,0.0,C,1856749443086386,
Raw,1730961840999,13865278881,18,0.0,-1414997045134721024,0.0,10.010015487670898,5.268526554107666,0.0,0,4,0.0,15,369858920746497,37,21.600000381469727,-334.26904296875,0.3628973662853241,16,0.0,0.25660473108291626,1575420030,,,,0,,1,1.2999999523162842,16.600000381469727,0.0,0.0,0.0,0.0,C,1856749443086386,
Raw,1730961840999,13865278881,18,0.0,-1414997045134721024,0.0,10.010015487670898,5.268526554107666,0.0,0,27,0.0,15,369858919471607,34,22.399999618530273,-337.5269775390625,0.3302946388721466,16,0.0,0.23355133831501007,1575420030,,,,0,,1,1.2999999523162842,17.399999618530273,0.0,0.0,0.0,0.0,C,1856749443086386,
Raw,1730961840999,13865278881,18,0.0,-1414997045134721024,0.0,10.010015487670898,5.268526554107666,0.0,0,7,0.0,15,369858916116427,56,17.799999237060547,-290.2904357910156,0.6103515028953552,16,0.0,0.4315795600414276,1575420030,,,,0,,1,1.2999999523162842,12.800000190734863,0.0,0.0,0.0,0.0,C,1856749443086386,
Raw,1730961840999,13865278881,18,0.0,-1414997045134721024,0.0,10.010015487670898,5.268526554107666,0.0,0,8,0.0,15,369858917596030,57,17.600000381469727,-331.6790771484375,0.6298815608024597,16,0.0,0.4453892409801483,1575420030,,,,0,,1,1.2999999523162842,12.600000381469727,0.0,0.0,0.0,0.0,C,1856749443086386,
Raw,1730961840999,13865278881,18,0.0,-1414997045134721024,0.0,10.010015487670898,5.268526554107666,0.0,0,23,0.0,51,5265190,12,37.20000076293945,314.55413818359375,0.09644688665866852,16,0.0,0.0681975930929184,1561097980,,,,0,,5,1.2999999523162842,32.20000076293945,0.0,0.0,0.0,0.0,C,1856749443086386,
Raw,1730961840999,13865278881,18,0.0,-1414997045134721024,0.0,10.010015487670898,5.268526554107666,0.0,0,37,0.0,47,369844924505126,14,35.29999923706055,-214.92727661132812,0.10892178863286972,16,0.0,0.07701859623193741,1561097980,,,,0,,5,1.2999999523162842,30.299999237060547,0.0,0.0,0.0,0.0,C,1856749443086386,
Raw,1730961840999,13865278881,18,0.0,-1414997045134721024,0.0,10.010015487670898,5.268526554107666,0.0,0,27,0.0,3072,11618257,15,33.20000076293945,-531.0270385742188,0.1257481873035431,19,-157938.31843069574,0.1840633749961853,1575420030,,,,0,,6,1.2999999523162842,28.200000762939453,0.0,0.0,0.0,0.0,C,1856749443086386,
Raw,1730961840999,13865278881,18,0.0,-1414997045134721024,0.0,10.010015487670898,5.268526554107666,0.0,0,9,0.0,239,35040936027672,14,34.70000076293945,57.94474792480469,0.11336711049079895,16,0.0,0.08016188442707062,1600875010,,,,0,,3,1.2999999523162842,29.700000762939453,0.0,0.0,0.0,0.0,C,1856749443086386,
Raw,1730961840999,13865278881,18,0.0,-1414997045134721024,0.0,10.010015487670898,5.268526554107666,0.0,0,38,0.0,47,369844871664580,21,28.700000762939453,236.0269775390625,0.17803412675857544,16,0.0,0.125887930393219,1561097980,,,,0,,5,1.2999999523162842,23.700000762939453,0.0,0.0,0.0,0.0,C,1856749443086386,
Raw,1730961840999,13865278881,18,0.0,-1414997045134721024,0.0,10.010015487670898,5.268526554107666,0.0,0,10,0.0,239,35040930008461,21,28.600000381469727,-547.8402099609375,0.17954610288143158,16,0.0,0.12695704400539398,1598062460,,,,0,,3,1.2999999523162842,23.600000381469727,0.0,0.0,0.0,0.0,C,1856749443086386,
Raw,1730961840999,13865278881,18,0.0,-1414997045134721024,0.0,10.010015487670898,5.268526554107666,0.0,0,16,0.0,239,35040927784330,21,28.200000762939453,693.2740478515625,0.18579070270061493,16,0.0,0.1313726007938385,1601437440,,,,0,,3,1.2999999523162842,23.200000762939453,0.0,0.0,0.0,0.0,C,1856749443086386,
Raw,1730961840999,13865278881,18,0.0,-1414997045134721024,0.0,10.010015487670898,5.268526554107666,0.0,0,32,0.0,51,2047933,23,26.899999618530273,-421.4141540527344,0.20850275456905365,16,0.0,0.14743229746818542,1561097980,,,,0,,5,1.2999999523162842,21.899999618530273,0.0,0.0,0.0,0.0,C,1856749443086386,
Raw,1730961840999,13865278881,18,0.0,-1414997045134721024,0.0,10.010015487670898,5.268526554107666,0.0,0,7,0.0,3072,11955156,25,25.899999618530273,-212.58474731445312,0.2289324849843979,16,0.0,0.16187815368175507,1575420030,,,,0,,6,1.2999999523162842,20.899999618530273,0.0,0.0,0.0,0.0,C,1856749443086386,
Raw,1730961840999,13865278881,18,0.0,-1414997045134721024,0.0,10.010015487670898,5.268526554107666,0.0,0,196,0.0,15,369858873544332,22,28.0,-204.82337951660156,0.18903592228889465,16,0.0,0.13366730511188507,1575420030,,,,0,,4,1.2999999523162842,23.0,0.0,0.0,0.0,0.0,C,1856749443086386,
Raw,1730961840999,13865278881,18,0.0,-1414997045134721024,0.0,10.010015487670898,5.268526554107666,0.0,0,41,0.0,51,4482658,26,25.700000762939453,21.955209732055664,0.23337766528129578,16,0.0,0.16502134501934052,1561097980,,,,0,,5,1.2999999523162842,20.700000762939453,0.0,0.0,0.0,0.0,C,1856749443086386,
Raw,1730961840999,13865278881,18,0.0,-1414997045134721024,0.0,10.010015487670898,5.268526554107666,0.0,0,5,0.0,239,35040926045539,18,30.700000762939453,237.9583740234375,0.15140274167060852,16,0.0,0.1070568785071373,1602562560,,,,0,,3,1.2999999523162842,25.700000762939453,0.0,0.0,0.0,0.0,C,1856749443086386,
Raw,1730961840999,13865278881,18,0.0,-1414997045134721024,0.0,10.010015487670898,5.268526554107666,0.0,0,13,0.0,47,369844877895891,29,24.200000762939453,185.5719757080078,0.2712673544883728,16,0.0,0.1918131411075592,1561097980,,,,0,,5,1.2999999523162842,19.200000762939453,0.0,0.0,0.0,0.0,C,1856749443086386,
Raw,1730961840999,13865278881,18,0.0,-1414997045134721024,0.0,10.010015487670898,5.268526554107666,0.0,0,8,0.0,47,369844873948440,30,24.0,228.2237091064453,0.2770083248615265,16,0.0,0.19587258994579315,1561097980,,,,0,,5,1.2999999523162842,19.0,0.0,0.0,0.0,0.0,C,1856749443086386,
Raw,1730961840999,13865278881,18,0.0,-1414997045134721024,0.0,10.010015487670898,5.268526554107666,0.0,0,16,0.0,47,369844870996996,27,25.0,95.01761627197266,0.25,16,0.0,0.1767749935388565,1561097980,,,,0,,5,1.2999999523162842,20.0,0.0,0.0,0.0,0.0,C,1856749443086386,
Raw,1730961840999,13865278881,18,0.0,-1414997045134721024,0.0,10.010015487670898,5.268526554107666,0.0,0,40,0.0,51,8984800,26,25.5,-293.6200256347656,0.23795360326766968,16,0.0,0.1682569980621338,1561097980,,,,0,,5,1.2999999523162842,20.5,0.0,0.0,0.0,0.0,C,1856749443086386,
Raw,1730961840999,13865278881,18,0.0,-1414997045134721024,0.0,10.010015487670898,5.268526554107666,0.0,0,194,0.0,15,369858862613306,35,22.0,117.25236511230469,0.34602075815200806,16,0.0,0.2446712851524353,1575420030,,,,0,,4,1.2999999523162842,17.0,0.0,0.0,0.0,0.0,C,1856749443086386,
Raw,1730961840999,13865278881,18,0.0,-1414997045134721024,0.0,10.010015487670898,5.268526554107666,0.0,0,15,0.0,3072,10403578,37,21.5,432.789306640625,0.36730945110321045,16,0.0,0.25972452759742737,1575420030,,,,0,,6,1.2999999523162842,16.5,0.0,0.0,0.0,0.0,C,1856749443086386,
Raw,1730961840999,13865278881,18,0.0,-1414997045134721024,0.0,10.010015487670898,5.268526554107666,0.0,0,25,0.0,51,14236898,38,21.200000762939453,570.9699096679688,0.38103944063186646,16,0.0,0.26943299174308777,1561097980,,,,0,,5,1.2999999523162842,16.200000762939453,0.0,0.0,0.0,0.0,C,1856749443086386,
Raw,1730961840999,13865278881,18,0.0,-1414997045134721024,0.0,10.010015487670898,5.268526554107666,0.0,0,199,0.0,15,369858871792255,35,22.200000762939453,2.8304810523986816,0.33802053332328796,16,0.0,0.23901431262493134,1575420030,,,,0,,4,1.2999999523162842,17.200000762939453,0.0,0.0,0.0,0.0,C,1856749443086386,
Raw,1730961840999,13865278881,18,0.0,-1414997045134721024,0.0,10.010015487670898,5.268526554107666,0.0,0,27,0.0,47,369844913136973,42,20.299999237060547,138.38743591308594,0.42718610167503357,16,0.0,0.3020632863044739,1561097980,,,,0,,5,1.2999999523162842,15.300000190734863,0.0,0.0,0.0,0.0,C,1856749443086386,
Raw,1730961841999,14865278881,18,0.0,-1414997045134721024,0.0,10.010015487670898,4.000997543334961,0.0,0,3,0.0,15,369859929088002,11,39.599998474121094,-433.8139953613281,0.08353102952241898,19,-41597.85079996131,0.15421162545681,1575420030,,,,0,,1,1.2999999523162842,34.599998474121094,0.0,0.0,0.0,0.0,C,1856750533019545,
Raw,1730961841999,14865278881,18,0.0,-1414997045134721024,0.0,10.010015487670898,4.000997543334961,0.0,0,26,0.0,15,369859930047562,12,38.29999923706055,324.21466064453125,0.09018027782440186,16,0.0,0.0637664720416069,1575420030,,,,0,,1,1.2999999523162842,33.29999923706055,0.0,0.0,0.0,0.0,C,1856750533019545,
Raw,1730961841999,14865278881,18,0.0,-1414997045134721024,0.0,10.010015487670898,4.000997543334961,0.0,0,16,0.0,15,369859932082507,13,36.20000076293945,-214.88748168945312,0.1027284637093544,16,0.0,0.07263929396867752,1575420030,,,,0,,1,1.2999999523162842,31.200000762939453,0.0,0.0,0.0,0.0,C,1856750533019545,
Raw,1730961841999,14865278881,18,0.0,-1414997045134721024,0.0,10.010015487670898,4.000997543334961,0.0,0,31,0.0,15,369859925295560,20,28.899999618530273,474.1329650878906,0.1750669777393341,16,0.0,0.12378986179828644,1575420030,,,,0,,1,1.2999999523162842,23.899999618530273,0.0,0.0,0.0,0.0,C,1856750533019545,
Raw,1730961841999,14865278881,18,0.0,-1414997045134721024,0.0,10.010015487670898,4.000997543334961,0.0,0,21,0.0,15,369859921318131,21,28.299999237060547,246.93533325195312,0.18419939279556274,16,0.0,0.13024738430976868,1575420030,,,,0,,1,1.2999999523162842,23.299999237060547,0.0,0.0,0.0,0.0,C,1856750533019545,
Raw,1730961841999,14865278881,18,0.0,-1414997045134721024,0.0,10.010015487670898,4.000997543334961,0.0,0,2,0.0,15,369859921737229,31,23.600000381469727,205.5558319091797,0.28905072808265686,16,0.0,0.20438776910305023,1575420030,,,,0,,1,1.2999999523162842,18.600000381469727,0.0,0.0,0.0,0.0,C,1856750533019545,
