# 
# Header Description:
# 
# Version: v3.1.0.2 Platform: 14 Manufacturer: samsung Model: SM-S918B GNSS Hardware Model Name: Qualcomm GNSS GEN9
# 
# Raw,utcTimeMillis,TimeNanos,LeapSecond,TimeUncertaintyNanos,FullBiasNanos,BiasNanos,BiasUncertaintyNanos,DriftNanosPerSecond,DriftUncertaintyNanosPerSecond,HardwareClockDiscontinuityCount,Svid,TimeOffsetNanos,State,ReceivedSvTimeNanos,ReceivedSvTimeUncertaintyNanos,Cn0DbHz,PseudorangeRateMetersPerSecond,PseudorangeRateUncertaintyMetersPerSecond,AccumulatedDeltaRangeState,AccumulatedDeltaRangeMeters,AccumulatedDeltaRangeUncertaintyMeters,CarrierFrequencyHz,CarrierCycles,CarrierPhase,CarrierPhaseUncertainty,MultipathIndicator,SnrInDb,ConstellationType,AgcDb,BasebandCn0DbHz,FullInterSignalBiasNanos,FullInterSignalBiasUncertaintyNanos,SatelliteInterSignalBiasNanos,SatelliteInterSignalBiasUncertaintyNanos,CodeType,ChipsetElapsedRealtimeNanos,IsFullTracking
# 
# UncalAccel,utcTimeMillis,elapsedRealtimeNanos,UncalAccelXMps2,UncalAccelYMps2,UncalAccelZMps2,BiasXMps2,BiasYMps2,BiasZMps2
# 
# Accel,utcTimeMillis,elapsedRealtimeNanos,AccelXMps2,AccelYMps2,AccelZMps2
# 
# UncalGyro,utcTimeMillis,elapsedRealtimeNanos,UncalGyroXRadPerSec,UncalGyroYRadPerSec,UncalGyroZRadPerSec,DriftXRadPerSec,DriftYRadPerSec,DriftZRadPerSec
# 
# Gyro,utcTimeMillis,elapsedRealtimeNanos,GyroXRadPerSec,GyroYRadPerSec,GyroZRadPerSec
# 
# UncalMag,utcTimeMillis,elapsedRealtimeNanos,UncalMagXMicroT,UncalMagYMicroT,UncalMagZMicroT,BiasXMicroT,BiasYMicroT,BiasZMicroT
# 
# Mag,utcTimeMillis,elapsedRealtimeNanos,MagXMicroT,MagYMicroT,MagZMicroT
# 
# Pressure,utcTimeMillis,elapsedRealtimeNanos,PressureHpa
# 
# OrientationDeg,utcTimeMillis,elapsedRealtimeNanos,yawDeg,rollDeg,pitchDeg
# 
# Fix,Provider,LatitudeDegrees,LongitudeDegrees,AltitudeMeters,SpeedMps,AccuracyMeters,BearingDegrees,UnixTimeMillis,SpeedAccuracyMps,BearingAccuracyDegrees,elapsedRealtimeNanos,VerticalAccuracyMeters,MockLocation,NumberOfUsedSignals,VerticalSpeedAccuracyMps,SolutionType
# 
# Nav,Svid,Type,Status,MessageId,Sub-messageId,Data(Bytes)
# 
# Status,UnixTimeMillis,SignalCount,SignalIndex,ConstellationType,Svid,CarrierFrequencyHz,Cn0DbHz,AzimuthDegrees,ElevationDegrees,UsedInFix,HasAlmanacData,HasEphemerisData,BasebandCn0DbHz
# 
# Agc,utcTimeMillis,TimeNanos,LeapSecond,TimeUncertaintyNanos,FullBiasNanos,BiasNanos,BiasUncertaintyNanos,DriftNanosPerSecond,DriftUncertaintyNanosPerSecond,HardwareClockDiscontinuityCount,AgcDb,CarrierFrequencyHz,ConstellationType
# 
Status,,6,0,1,3,1575420030,29.90,325.04938,47.50939,1,1,1,24.9
Status,,6,1,1,21,1575420030,34.90,218.97058,23.886856,0,1,1,29.9
Status,,6,2,2,127,1575420030,43.60,0.0,0.0,0,0,0,38.6
Status,,6,3,3,9,1600875010,36.90,294.16736,80.57033,1,1,1,31.9
Status,,6,4,5,60,1561097980,43.30,169.61021,73.85382,0,1,0,38.3
Status,,6,5,5,5,1561097980,39.20,240.05266,64.2636,1,1,1,34.2
Raw,1730961824962,911902315000000,18,0.0,-1414085140647179371,-0.6847896575927734,1010111.3319396973,7.812499790249995,201.8029056128711,19,3,0.0,1,235362,27,34.9,-435.7724914550781,0.8195000290870667,16,0.0,0.0,1575420030,,,,0,0.0,1,-51.91,29.9,0.0,0.0,,,C,759867092329452,0
Raw,1730961824962,911902315000000,18,0.0,-1414085140647179371,-0.6847896575927734,1010111.3319396973,7.812499790249995,201.8029056128711,19,21,0.0,1,504388,16,39.9,247.80043029785156,0.5470000505447388,16,0.0,0.0,1575420030,,,,0,0.0,1,-51.91,34.9,0.0,0.0,,,C,759867092329452,0
Raw,1730961824962,911902315000000,18,0.0,-1414085140647179371,-0.6847896575927734,1010111.3319396973,7.812499790249995,201.8029056128711,19,9,0.0,1,199080,13,40.9,55.29084014892578,0.3815000057220459,16,0.0,0.0,1600875010,,,,0,0.0,3,-55.04,36.9,3802.63623046875,18.55632972717285,,,C,759867092329452,0
Raw,1730961824962,911902315000000,18,0.0,-1414085140647179371,-0.6847896575927734,1010111.3319396973,7.812499790249995,201.8029056128711,19,60,0.0,1,149540,6,47.6,5.636359214782715,1.412100076675415,16,0.0,0.0,1561097980,,,,0,0.0,5,-60.7,43.300000000000004,-1537.466796875,17.517894744873047,,,I,759867092329452,0
Raw,1730961824962,911902315000000,18,0.0,-1414085140647179371,-0.6847896575927734,1010111.3319396973,7.812499790249995,201.8029056128711,19,5,0.0,35,16783265,10,43.5,2.141240358352661,1.2630000114440918,16,0.0,0.0,1561097980,,,,0,0.0,5,-60.7,39.2,-1537.466796875,17.517894744873047,,,I,759867092329452,0
Agc,1730961824962,911902315000000,18,0.0,-1414085140647179371,-0.6847896575927734,1010111.3319396973,7.812499790249995,201.8029056128711,19,-51.91,1575420000,1
Agc,1730961824962,911902315000000,18,0.0,-1414085140647179371,-0.6847896575927734,1010111.3319396973,7.812499790249995,201.8029056128711,19,-51.91,1575420000,4
Agc,1730961824962,911902315000000,18,0.0,-1414085140647179371,-0.6847896575927734,1010111.3319396973,7.812499790249995,201.8029056128711,19,-55.04,1602000000,3
Agc,1730961824962,911902315000000,18,0.0,-1414085140647179371,-0.6847896575927734,1010111.3319396973,7.812499790249995,201.8029056128711,19,-60.7,1561098000,5
Agc,1730961824962,911902315000000,18,0.0,-1414085140647179371,-0.6847896575927734,1010111.3319396973,7.812499790249995,201.8029056128711,19,-55.71,1575420000,6
Agc,1730961824962,911902315000000,18,0.0,-1414085140647179371,-0.6847896575927734,1010111.3319396973,7.812499790249995,201.8029056128711,19,-40.59,1176450000,1
Agc,1730961824962,911902315000000,18,0.0,-1414085140647179371,-0.6847896575927734,1010111.3319396973,7.812499790249995,201.8029056128711,19,-40.59,1176450000,4
Agc,1730961824962,911902315000000,18,0.0,-1414085140647179371,-0.6847896575927734,1010111.3319396973,7.812499790249995,201.8029056128711,19,-40.59,1176450000,6
Agc,1730961824962,911902315000000,18,0.0,-1414085140647179371,-0.6847896575927734,1010111.3319396973,7.812499790249995,201.8029056128711,19,-40.59,1176450000,5
Agc,1730961824962,911902315000000,18,0.0,-1414085140647179371,-0.6847896575927734,1010111.3319396973,7.812499790249995,201.8029056128711,19,-55.71,1575420000,5
Status,,15,0,1,2,1575420030,31.10,237.37793,23.9199,0,1,1,26.1
Status,,15,1,1,3,1575420030,34.80,325.07373,47.519787,1,1,1,29.8
Status,,15,2,1,4,1575420030,27.00,320.6324,18.307894,0,1,1,22.0
Status,,15,3,1,16,1575420030,27.60,128.95195,66.57693,1,1,1,22.6
Status,,15,4,1,21,1575420030,35.30,218.95872,23.880964,0,1,1,30.3
Status,,15,5,2,127,1575420030,43.10,0.0,0.0,0,0,0,38.1
Status,,15,6,3,9,1600875010,37.30,294.23898,80.56543,1,1,1,32.3
Status,,15,7,3,16,1601437440,26.50,21.867792,31.032148,0,1,1,21.5
Status,,15,8,5,60,1561097980,43.40,169.61064,73.853806,0,1,0,38.4
Status,,15,9,5,38,1561097980,28.20,155.16573,29.791851,0,1,1,23.2
Status,,15,10,5,37,1561097980,38.40,242.30374,56.05306,1,1,1,33.4
Status,,15,11,5,32,1561097980,30.00,346.24158,43.56138,0,1,1,25.0
Status,,15,12,5,23,1561097980,30.60,14.300195,61.419197,1,1,1,25.6
Status,,15,13,5,5,1561097980,39.30,240.0529,64.263535,1,1,1,34.3
Status,,15,14,1,3,1176450050,28.50,325.07373,47.519787,1,1,1,23.5
Raw,1730961826602,911903955000000,18,0.0,-1414085140647172170,-0.9072589874267578,1000240.3259277344,-4.8587926634396,19.436855054206315,19,2,0.0,16399,369844523919999,21,36.1,207.01097106933594,1.0440000295639038,16,0.0,0.0,1575420030,,,,0,0.0,1,-51.81,31.1,0.0,0.0,,,C,759868735239347,0
Raw,1730961826602,911903955000000,18,0.0,-1414085140647172170,-0.9072589874267578,1000240.3259277344,-4.8587926634396,19.436855054206315,19,3,0.0,16399,369844531237795,16,39.8,-435.7629699707031,0.6370000243186951,16,0.0,0.0,1575420030,,,,0,0.0,1,-51.81,34.8,0.0,0.0,,,C,759868735239347,0
Raw,1730961826602,911903955000000,18,0.0,-1414085140647172170,-0.9072589874267578,1000240.3259277344,-4.8587926634396,19.436855054206315,19,21,0.0,16399,369844523503004,14,40.3,248.51071166992188,0.07849565893411636,16,0.0,0.0,1575420030,,,,0,0.0,1,-51.81,35.3,0.0,0.0,,,C,759868735239347,0
Raw,1730961826602,911903955000000,18,0.0,-1414085140647172170,-0.9072589874267578,1000240.3259277344,-4.8587926634396,19.436855054206315,19,9,0.0,49359,35026538198770,12,41.3,56.59235382080078,0.45649999380111694,16,0.0,0.0,1600875010,,,,0,0.0,3,-55.0,37.3,3800.322998046875,9.45890998840332,,,C,759868735239347,0
Raw,1730961826602,911903955000000,18,0.0,-1414085140647172170,-0.9072589874267578,1000240.3259277344,-4.8587926634396,19.436855054206315,19,16,0.0,49359,35026529985888,40,30.5,691.6181640625,0.9049999713897705,16,0.0,0.0,1601437440,,,,0,0.0,3,-55.0,26.5,3800.322998046875,9.45890998840332,,,C,759868735239347,0
Raw,1730961826602,911903955000000,18,0.0,-1414085140647172170,-0.9072589874267578,1000240.3259277344,-4.8587926634396,19.436855054206315,19,60,0.0,16399,369830482149498,6,47.7,6.049243927001953,0.9830999970436096,16,0.0,0.0,1561097980,,,,0,0.0,5,-60.55,43.400000000000006,-1541.075439453125,8.456829071044922,,,I,759868735239347,0
Raw,1730961826602,911903955000000,18,0.0,-1414085140647172170,-0.9072589874267578,1000240.3259277344,-4.8587926634396,19.436855054206315,19,38,0.0,16399,369830473849650,31,32.5,236.6790771484375,1.1990000009536743,16,0.0,0.0,1561097980,,,,0,0.0,5,-60.55,28.2,-1541.075439453125,8.456829071044922,,,I,759868735239347,0
Raw,1730961826602,911903955000000,18,0.0,-1414085140647172170,-0.9072589874267578,1000240.3259277344,-4.8587926634396,19.436855054206315,19,5,0.0,16399,369830480783272,10,43.6,0.9738706350326538,0.7492458820343018,16,0.0,0.0,1561097980,,,,0,0.0,5,-60.55,39.300000000000004,-1541.075439453125,8.456829071044922,,,I,759868735239347,0
Raw,1730961826602,911903955000000,18,0.0,-1414085140647172170,-0.9072589874267578,1000240.3259277344,-4.8587926634396,19.436855054206315,19,3,0.0,81935,369844531237753,8,33.5,-435.8323974609375,0.8220000267028809,16,0.0,0.0,1176450050,,,,0,0.0,1,-39.99,28.5,21.20029640197754,5.102391242980957,,,Q,759868735239347,0
Agc,1730961826602,911903955000000,18,0.0,-1414085140647172170,-0.9072589874267578,1000240.3259277344,-4.8587926634396,19.436855054206315,19,-51.81,1575420000,1
Agc,1730961826602,911903955000000,18,0.0,-1414085140647172170,-0.9072589874267578,1000240.3259277344,-4.8587926634396,19.436855054206315,19,-51.81,1575420000,4
Agc,1730961826602,911903955000000,18,0.0,-1414085140647172170,-0.9072589874267578,1000240.3259277344,-4.8587926634396,19.436855054206315,19,-55.0,1602000000,3
Agc,1730961826602,911903955000000,18,0.0,-1414085140647172170,-0.9072589874267578,1000240.3259277344,-4.8587926634396,19.436855054206315,19,-60.55,1561098000,5
Agc,1730961826602,911903955000000,18,0.0,-1414085140647172170,-0.9072589874267578,1000240.3259277344,-4.8587926634396,19.436855054206315,19,-55.61,1575420000,6
Agc,1730961826602,911903955000000,18,0.0,-1414085140647172170,-0.9072589874267578,1000240.3259277344,-4.8587926634396,19.436855054206315,19,-39.99,1176450000,1
Agc,1730961826602,911903955000000,18,0.0,-1414085140647172170,-0.9072589874267578,1000240.3259277344,-4.8587926634396,19.436855054206315,19,-39.99,1176450000,4
Agc,1730961826602,911903955000000,18,0.0,-1414085140647172170,-0.9072589874267578,1000240.3259277344,-4.8587926634396,19.436855054206315,19,-39.99,1176450000,6
Agc,1730961826602,911903955000000,18,0.0,-1414085140647172170,-0.9072589874267578,1000240.3259277344,-4.8587926634396,19.436855054206315,19,-39.99,1176450000,5
Agc,1730961826602,911903955000000,18,0.0,-1414085140647172170,-0.9072589874267578,1000240.3259277344,-4.8587926634396,19.436855054206315,19,-55.61,1575420000,5
Status,,26,0,1,2,1575420030,31.50,237.37793,23.9199,1,1,1,26.5
Status,,26,1,1,3,1575420030,35.00,325.07373,47.519787,1,1,1,30.0
Status,,26,2,1,4,1575420030,25.40,320.6324,18.307894,1,1,1,20.4
Status,,26,3,1,16,1575420030,28.20,128.95195,66.57693,1,1,1,23.2
Status,,26,4,1,21,1575420030,36.10,218.95872,23.880964,1,1,1,31.1
Status,,26,5,2,127,1575420030,43.50,0.0,0.0,0,0,0,38.5
Status,,26,6,3,9,1600875010,36.90,294.23898,80.56543,1,1,1,31.9
Status,,26,7,3,16,1601437440,26.10,21.867792,31.032148,1,1,1,21.1
Status,,26,8,3,5,1602562560,24.00,105.86296,24.118906,0,1,1,19.0
Status,,26,9,5,60,1561097980,44.10,169.61064,73.853806,0,1,0,39.1
Status,,26,10,5,38,1561097980,31.10,155.16573,29.791851,1,1,1,26.1
Status,,26,11,5,37,1561097980,39.40,242.30374,56.05306,1,1,1,34.4
Status,,26,12,5,32,1561097980,27.10,346.24158,43.56138,1,1,1,22.1
Status,,26,13,5,23,1561097980,25.70,14.300195,61.419197,1,1,1,20.7
Status,,26,14,5,13,1561097980,27.30,163.50778,53.803024,0,1,1,22.3
Status,,26,15,5,5,1561097980,39.20,240.0529,64.263535,1,1,1,34.2
Status,,26,16,6,8,1575420030,31.60,26.703241,40.85905,0,1,1,26.6
Status,,26,17,6,15,1575420030,25.30,186.18367,19.753557,0,1,1,20.3
Status,,26,18,6,27,1575420030,36.60,199.68839,24.643229,0,1,1,31.6
Status,,26,19,6,30,1575420030,27.40,145.76492,66.23398,0,1,1,22.4
Status,,26,20,1,3,1176450050,27.40,325.07373,47.519787,0,1,1,22.4
Status,,26,21,1,4,1176450050,21.80,320.6324,18.307894,0,1,1,16.8
Status,,26,22,6,13,1176450050,21.90,242.96428,32.534176,0,1,1,16.9
Status,,26,23,6,27,1176450050,24.00,199.68839,24.643229,0,1,1,19.0
Status,,26,24,5,23,1176450050,25.10,14.300195,61.419197,0,1,1,20.1
Status,,26,25,5,37,1176450050,31.30,242.30374,56.05306,0,1,1,26.3
Raw,1730961827602,911904955000000,18,0.0,-1414085140647172091,-0.8715000152587891,92.94794290326536,3.785260158513224,13.16595863593958,19,2,0.0,16399,369845523919328,21,36.5,207.88291931152344,0.08309104293584824,16,0.0,0.0,1575420030,,,,0,0.0,1,-51.81,31.5,0.0,0.0,,,C,759869741872629,0
Raw,1730961827602,911904955000000,18,0.0,-1414085140647172091,-0.8715000152587891,92.94794290326536,3.785260158513224,13.16595863593958,19,3,0.0,16399,369845531239244,14,40.0,-435.6803894042969,0.03649565577507019,16,0.0,0.0,1575420030,,,,0,0.0,1,-51.81,35.0,0.0,0.0,,,C,759869741872629,0
Raw,1730961827602,911904955000000,18,0.0,-1414085140647172091,-0.8715000152587891,92.94794290326536,3.785260158513224,13.16595863593958,19,4,0.0,16399,369845522903661,46,30.4,-334.0224914550781,0.8104999661445618,16,0.0,0.0,1575420030,,,,0,0.0,1,-51.81,25.4,0.0,0.0,,,C,759869741872629,0
Raw,1730961827602,911904955000000,18,0.0,-1414085140647172091,-0.8715000152587891,92.94794290326536,3.785260158513224,13.16595863593958,19,16,0.0,16399,369845534244328,31,33.2,-215.09844970703125,0.6225000023841858,16,0.0,0.0,1575420030,,,,0,0.0,1,-51.81,28.200000000000003,0.0,0.0,,,C,759869741872629,0
Raw,1730961827602,911904955000000,18,0.0,-1414085140647172091,-0.8715000152587891,92.94794290326536,3.785260158513224,13.16595863593958,19,21,0.0,16399,369845523502206,13,41.1,248.60704040527344,0.04739195108413696,16,0.0,0.0,1575420030,,,,0,0.0,1,-51.81,36.1,0.0,0.0,,,C,759869741872629,0
Raw,1730961827602,911904955000000,18,0.0,-1414085140647172091,-0.8715000152587891,92.94794290326536,3.785260158513224,13.16595863593958,19,9,0.0,49359,35027538198567,13,40.9,57.04136657714844,3.395580291748047,16,0.0,0.0,1600875010,,,,0,0.0,3,-55.0,36.9,3800.322998046875,9.49711799621582,,,C,759869741872629,0
Raw,1730961827602,911904955000000,18,0.0,-1414085140647172091,-0.8715000152587891,92.94794290326536,3.785260158513224,13.16595863593958,19,16,0.0,49359,35027529983614,40,30.1,691.262451171875,0.7999999523162842,16,0.0,0.0,1601437440,,,,0,0.0,3,-55.0,26.1,3800.322998046875,9.49711799621582,,,C,759869741872629,0
Raw,1730961827602,911904955000000,18,0.0,-1414085140647172091,-0.8715000152587891,92.94794290326536,3.785260158513224,13.16595863593958,19,5,0.0,49359,35027528224713,53,28.0,241.25570678710938,2.9640002250671387,16,0.0,0.0,1602562560,,,,0,0.0,3,-55.0,24.0,3800.322998046875,9.49711799621582,,,C,759869741872629,0
Raw,1730961827602,911904955000000,18,0.0,-1414085140647172091,-0.8715000152587891,92.94794290326536,3.785260158513224,13.16595863593958,19,60,0.0,16399,369831482149474,6,48.4,6.242364883422852,0.03103739023208618,16,0.0,0.0,1561097980,,,,0,0.0,5,-60.57,44.1,-1541.0775146484375,8.499648094177246,,,I,759869741872629,0
Raw,1730961827602,911904955000000,18,0.0,-1414085140647172091,-0.8715000152587891,92.94794290326536,3.785260158513224,13.16595863593958,19,38,0.0,16399,369831473848811,21,35.4,236.4532470703125,0.06849554926156998,16,0.0,0.0,1561097980,,,,0,0.0,5,-60.57,31.099999999999998,-1541.0775146484375,8.499648094177246,,,I,759869741872629,0
Raw,1730961827602,911904955000000,18,0.0,-1414085140647172091,-0.8715000152587891,92.94794290326536,3.785260158513224,13.16595863593958,19,37,0.0,16399,369831526669251,10,43.7,-214.74815368652344,0.9045000076293945,16,0.0,0.0,1561097980,,,,0,0.0,5,-60.57,39.400000000000006,-1541.0775146484375,8.499648094177246,,,I,759869741872629,0
Raw,1730961827602,911904955000000,18,0.0,-1414085140647172091,-0.8715000152587891,92.94794290326536,3.785260158513224,13.16595863593958,19,32,0.0,16399,369831524202721,35,31.4,-422.8901672363281,1.0475000143051147,16,0.0,0.0,1561097980,,,,0,0.0,5,-60.57,27.099999999999998,-1541.0775146484375,8.499648094177246,,,I,759869741872629,0
Raw,1730961827602,911904955000000,18,0.0,-1414085140647172091,-0.8715000152587891,92.94794290326536,3.785260158513224,13.16595863593958,19,23,0.0,16399,369831527452863,46,30.0,313.408447265625,2.7890000343322754,16,0.0,0.0,1561097980,,,,0,0.0,5,-60.57,25.7,-1541.0775146484375,8.499648094177246,,,I,759869741872629,0
Raw,1730961827602,911904955000000,18,0.0,-1414085140647172091,-0.8715000152587891,92.94794290326536,3.785260158513224,13.16595863593958,19,13,0.0,16399,369831480077908,35,31.6,186.21109008789062,1.2785000801086426,16,0.0,0.0,1561097980,,,,0,0.0,5,-60.57,27.3,-1541.0775146484375,8.499648094177246,,,I,759869741872629,0
Raw,1730961827602,911904955000000,18,0.0,-1414085140647172091,-0.8715000152587891,92.94794290326536,3.785260158513224,13.16595863593958,19,5,0.0,16399,369831480783266,10,43.5,1.0668694972991943,1.325364351272583,16,0.0,0.0,1561097980,,,,0,0.0,5,-60.57,39.2,-1541.0775146484375,8.499648094177246,,,I,759869741872629,0
Raw,1730961827602,911904955000000,18,0.0,-1414085140647172091,-0.8715000152587891,92.94794290326536,3.785260158513224,13.16595863593958,19,8,0.0,23567,369845518307958,21,35.9,-93.2724380493164,0.8715000152587891,16,0.0,0.0,1575420030,,,,0,0.0,6,-55.61,31.599999999999998,-1466.881591796875,18.683883666992188,,,C,759869741872629,0
Raw,1730961827602,911904955000000,18,0.0,-1414085140647172091,-0.8715000152587891,92.94794290326536,3.785260158513224,13.16595863593958,19,15,0.0,23567,369845512596524,46,29.6,433.2986755371094,1.1944999694824219,16,0.0,0.0,1575420030,,,,0,0.0,6,-55.61,25.3,-1466.881591796875,18.683883666992188,,,C,759869741872629,0
Raw,1730961827602,911904955000000,18,0.0,-1414085140647172091,-0.8715000152587891,92.94794290326536,3.785260158513224,13.16595863593958,19,27,0.0,23567,369845513768193,13,40.9,-529.0354614257812,0.7130000591278076,16,0.0,0.0,1575420030,,,,0,0.0,6,-55.61,36.6,-1466.881591796875,18.683883666992188,,,C,759869741872629,0
Raw,1730961827602,911904955000000,18,0.0,-1414085140647172091,-0.8715000152587891,92.94794290326536,3.785260158513224,13.16595863593958,19,30,0.0,23567,369845522417330,35,31.7,-220.0270538330078,1.0715000629425049,16,0.0,0.0,1575420030,,,,0,0.0,6,-55.61,27.4,-1466.881591796875,18.683883666992188,,,C,759869741872629,0
Raw,1730961827602,911904955000000,18,0.0,-1414085140647172091,-0.8715000152587891,92.94794290326536,3.785260158513224,13.16595863593958,19,3,0.0,81935,369845531239206,8,32.4,-435.7146911621094,0.0381568968296051,16,0.0,0.0,1176450050,,,,0,0.0,1,-40.07,27.4,21.20029640197754,5.102546691894531,,,Q,759869741872629,0
Raw,1730961827602,911904955000000,18,0.0,-1414085140647172091,-0.8715000152587891,92.94794290326536,3.785260158513224,13.16595863593958,19,4,0.0,81935,369845522903577,16,26.8,-334.0795593261719,1.0644999742507935,16,0.0,0.0,1176450050,,,,0,0.0,1,-40.07,21.8,21.20029640197754,5.102546691894531,,,Q,759869741872629,0
Raw,1730961827602,911904955000000,18,0.0,-1414085140647172091,-0.8715000152587891,92.94794290326536,3.785260158513224,13.16595863593958,19,13,0.0,81935,369845516509065,16,27.2,281.1135559082031,0.984499990940094,16,0.0,0.0,1176450050,,,,0,0.0,6,-40.07,21.9,-1453.01708984375,211.0924530029297,,,Q,759869741872629,0
Raw,1730961827602,911904955000000,18,0.0,-1414085140647172091,-0.8715000152587891,92.94794290326536,3.785260158513224,13.16595863593958,19,27,0.0,81935,369845513768118,11,29.3,-529.1326293945312,0.14235150814056396,16,0.0,0.0,1176450050,,,,0,0.0,6,-40.07,24.0,-1453.01708984375,211.0924530029297,,,Q,759869741872629,0
Raw,1730961827602,911904955000000,18,0.0,-1414085140647172091,-0.8715000152587891,92.94794290326536,3.785260158513224,13.16595863593958,19,23,0.0,16399,369831527452859,10,29.6,312.8375244140625,0.07724752277135849,16,0.0,0.0,1176450050,,,,0,0.0,5,-40.07,25.1,-1502.9632568359375,190.5358123779297,,,Q,759869741872629,0
Raw,1730961827602,911904955000000,18,0.0,-1414085140647172091,-0.8715000152587891,92.94794290326536,3.785260158513224,13.16595863593958,19,37,0.0,16399,369831526669160,6,35.8,-214.93804931640625,0.04508473724126816,16,0.0,0.0,1176450050,,,,0,0.0,5,-40.07,31.299999999999997,-1502.9632568359375,190.5358123779297,,,Q,759869741872629,0
Agc,1730961827602,911904955000000,18,0.0,-1414085140647172091,-0.8715000152587891,92.94794290326536,3.785260158513224,13.16595863593958,19,-51.81,1575420000,1
Agc,1730961827602,911904955000000,18,0.0,-1414085140647172091,-0.8715000152587891,92.94794290326536,3.785260158513224,13.16595863593958,19,-51.81,1575420000,4
Agc,1730961827602,911904955000000,18,0.0,-1414085140647172091,-0.8715000152587891,92.94794290326536,3.785260158513224,13.16595863593958,19,-55.0,1602000000,3
Agc,1730961827602,911904955000000,18,0.0,-1414085140647172091,-0.8715000152587891,92.94794290326536,3.785260158513224,13.16595863593958,19,-60.57,1561098000,5
Agc,1730961827602,911904955000000,18,0.0,-1414085140647172091,-0.8715000152587891,92.94794290326536,3.785260158513224,13.16595863593958,19,-55.61,1575420000,6
Agc,1730961827602,911904955000000,18,0.0,-1414085140647172091,-0.8715000152587891,92.94794290326536,3.785260158513224,13.16595863593958,19,-40.07,1176450000,1
Agc,1730961827602,911904955000000,18,0.0,-1414085140647172091,-0.8715000152587891,92.94794290326536,3.785260158513224,13.16595863593958,19,-40.07,1176450000,4
Agc,1730961827602,911904955000000,18,0.0,-1414085140647172091,-0.8715000152587891,92.94794290326536,3.785260158513224,13.16595863593958,19,-40.07,1176450000,6
Agc,1730961827602,911904955000000,18,0.0,-1414085140647172091,-0.8715000152587891,92.94794290326536,3.785260158513224,13.16595863593958,19,-40.07,1176450000,5
Agc,1730961827602,911904955000000,18,0.0,-1414085140647172091,-0.8715000152587891,92.94794290326536,3.785260158513224,13.16595863593958,19,-55.61,1575420000,5
Status,,45,0,1,2,1575420030,28.40,237.37793,23.9199,1,1,1,23.4
Status,,45,1,1,3,1575420030,33.40,325.07373,47.519787,1,1,1,28.4
Status,,45,2,1,4,1575420030,25.80,320.6324,18.307894,1,1,1,20.8
Status,,45,3,1,7,1575420030,22.00,247.05441,6.5121007,0,1,1,17.0
Status,,45,4,1,16,1575420030,27.10,128.95195,66.57693,1,1,1,22.1
Status,,45,5,1,21,1575420030,36.80,218.95872,23.880964,1,1,1,31.8
Status,,45,6,2,127,1575420030,42.00,0.0,0.0,0,0,0,37.0
Status,,45,7,3,9,1600875010,36.90,294.23898,80.56543,1,1,1,31.9
Status,,45,8,3,16,1601437440,26.90,21.867792,31.032148,1,1,1,21.9
Status,,45,9,3,5,1602562560,23.20,105.86296,24.118906,1,1,1,18.2
Status,,45,10,3,7,1604812540,22.50,339.88803,15.788764,0,1,1,17.5
Status,,45,11,5,60,1561097980,43.70,169.61064,73.853806,0,1,0,38.7
Status,,45,12,5,40,1561097980,23.30,120.49007,24.642662,0,1,1,18.3
Status,,45,13,5,38,1561097980,32.10,155.16573,29.791851,1,1,1,27.1
Status,,45,14,5,37,1561097980,38.70,242.30374,56.05306,1,1,1,33.7
Status,,45,15,5,32,1561097980,28.00,346.24158,43.56138,1,1,1,23.0
Status,,45,16,5,23,1561097980,26.60,14.300195,61.419197,0,1,1,21.6
Status,,45,17,5,13,1561097980,26.10,163.50778,53.803024,1,1,1,21.1
Status,,45,18,5,10,1561097980,22.60,144.15637,35.49565,0,1,1,17.6
Status,,45,19,5,8,1561097980,24.00,158.66226,41.329662,1,1,1,19.0
Status,,45,20,5,5,1561097980,38.50,240.0529,64.263535,1,1,1,33.5
Status,,45,21,5,2,1561097980,31.90,150.59094,74.43217,0,1,1,26.9
Status,,45,22,6,7,1575420030,20.90,325.74994,24.830164,0,1,1,15.9
Status,,45,23,6,8,1575420030,32.30,26.703241,40.85905,1,1,1,27.3
Status,,45,24,6,13,1575420030,24.50,242.96428,32.534176,1,1,1,19.5
Status,,45,25,6,15,1575420030,24.30,186.18367,19.753557,1,1,1,19.3
Status,,45,26,6,27,1575420030,35.60,199.68839,24.643229,1,1,1,30.6
Status,,45,27,6,30,1575420030,25.90,145.76492,66.23398,1,1,1,20.9
Status,,45,28,1,3,1176450050,25.80,325.07373,47.519787,1,1,1,20.8
Status,,45,29,1,4,1176450050,18.30,320.6324,18.307894,0,1,1,13.3
Status,,45,30,1,26,1176450050,20.50,54.06989,52.261997,1,1,1,15.5
Status,,45,31,6,13,1176450050,21.90,242.96428,32.534176,0,1,1,16.9
Status,,45,32,6,27,1176450050,23.50,199.68839,24.643229,1,1,1,18.5
Status,,45,33,6,30,1176450050,20.50,145.76492,66.23398,1,1,1,15.5
Status,,45,34,5,23,1176450050,22.10,14.300195,61.419197,1,1,1,17.1
Status,,45,35,5,37,1176450050,28.60,242.30374,56.05306,1,1,1,23.6
Status,,45,36,5,41,1176450050,17.50,83.39254,56.734592,0,1,1,12.5
Status,,45,37,5,23,1575420030,21.70,14.300195,61.419197,0,1,1,16.7
Status,,45,38,5,27,1575420030,23.10,211.43973,9.336241,1,1,1,18.1
Status,,45,39,5,32,1575420030,19.70,346.24158,43.56138,0,1,1,14.7
Status,,45,40,5,37,1575420030,40.00,242.30374,56.05306,1,1,1,35.0
Status,,45,41,5,38,1575420030,27.60,155.16573,29.791851,1,1,1,22.6
Status,,45,42,5,39,1575420030,21.80,31.22149,27.865572,1,1,1,16.8
Status,,45,43,5,40,1575420030,22.60,120.49007,24.642662,0,1,1,17.6
Status,,45,44,5,41,1575420030,25.40,83.39254,56.734592,1,1,1,20.4
Raw,1730961829422,911906775000000,18,0.0,-1414085140647172131,-0.3297748565673828,45.97113002091646,3.9419515499445708,10.533848328831493,19,2,0.0,16399,369847343918110,31,33.4,207.2488250732422,0.6389999985694885,16,0.0,0.0,1575420030,,,,0,0.0,1,-52.01,28.4,0.0,0.0,,,C,759871559920492,0
Raw,1730961829422,911906775000000,18,0.0,-1414085140647172131,-0.3297748565673828,45.97113002091646,3.9419515499445708,10.533848328831493,19,3,0.0,16399,369847351241905,17,38.4,-435.5706481933594,0.042794376611709595,16,0.0,0.0,1575420030,,,,0,0.0,1,-52.01,33.4,0.0,0.0,,,C,759871559920492,0
Raw,1730961829422,911906775000000,18,0.0,-1414085140647172131,-0.3297748565673828,45.97113002091646,3.9419515499445708,10.533848328831493,19,4,0.0,16399,369847342905774,46,30.8,-333.63238525390625,0.8104999661445618,16,0.0,0.0,1575420030,,,,0,0.0,1,-52.01,25.8,0.0,0.0,,,C,759871559920492,0
Raw,1730961829422,911906775000000,18,0.0,-1414085140647172131,-0.3297748565673828,45.97113002091646,3.9419515499445708,10.533848328831493,19,7,0.0,16399,369847338277040,70,27.0,-292.95709228515625,1.4735000133514404,16,0.0,0.0,1575420030,,,,0,0.0,1,-52.01,22.0,0.0,0.0,,,C,759871559920492,0
Raw,1730961829422,911906775000000,18,0.0,-1414085140647172131,-0.3297748565673828,45.97113002091646,3.9419515499445708,10.533848328831493,19,16,0.0,16399,369847354245625,35,32.1,-215.16506958007812,0.67249995470047,16,0.0,0.0,1575420030,,,,0,0.0,1,-52.01,27.1,0.0,0.0,,,C,759871559920492,0
Raw,1730961829422,911906775000000,18,0.0,-1414085140647172131,-0.3297748565673828,45.97113002091646,3.9419515499445708,10.533848328831493,19,21,0.0,16399,369847343500688,13,41.8,248.55931091308594,0.04739195108413696,16,0.0,0.0,1575420030,,,,0,0.0,1,-52.01,36.8,0.0,0.0,,,C,759871559920492,0
Raw,1730961829422,911906775000000,18,0.0,-1414085140647172131,-0.3297748565673828,45.97113002091646,3.9419515499445708,10.533848328831493,19,9,0.0,49359,35029358198236,13,40.9,57.088623046875,0.024758514016866684,16,0.0,0.0,1600875010,,,,0,0.0,3,-55.19,36.9,3800.200439453125,9.513580322265625,,,C,759871559920492,0
Raw,1730961829422,911906775000000,18,0.0,-1414085140647172131,-0.3297748565673828,45.97113002091646,3.9419515499445708,10.533848328831493,19,16,0.0,49359,35029349979467,40,30.9,692.4324951171875,0.7999999523162842,16,0.0,0.0,1601437440,,,,0,0.0,3,-55.19,26.9,3800.200439453125,9.513580322265625,,,C,759871559920492,0
Raw,1730961829422,911906775000000,18,0.0,-1414085140647172131,-0.3297748565673828,45.97113002091646,3.9419515499445708,10.533848328831493,19,5,0.0,49359,35029348223242,61,27.2,237.37399291992188,1.0115000009536743,16,0.0,0.0,1602562560,,,,0,0.0,3,-55.19,23.2,3800.200439453125,9.513580322265625,,,C,759871559920492,0
Raw,1730961829422,911906775000000,18,0.0,-1414085140647172131,-0.3297748565673828,45.97113002091646,3.9419515499445708,10.533848328831493,19,7,0.0,49359,35029345334512,70,26.5,-584.009765625,1.5339999198913574,16,0.0,0.0,1604812540,,,,0,0.0,3,-55.19,22.5,3800.200439453125,9.513580322265625,,,C,759871559920492,0
Raw,1730961829422,911906775000000,18,0.0,-1414085140647172131,-0.3297748565673828,45.97113002091646,3.9419515499445708,10.533848328831493,19,60,0.0,16399,369833302149442,6,48.0,6.20828104019165,0.032439276576042175,16,0.0,0.0,1561097980,,,,0,0.0,5,-60.74,43.7,-1541.61962890625,8.461189270019531,,,I,759871559920492,0
Raw,1730961829422,911906775000000,18,0.0,-1414085140647172131,-0.3297748565673828,45.97113002091646,3.9419515499445708,10.533848328831493,19,40,0.0,16399,369833291147224,61,27.6,-292.7353820800781,1.4630000591278076,16,0.0,0.0,1561097980,,,,0,0.0,5,-60.74,23.3,-1541.61962890625,8.461189270019531,,,I,759871559920492,0
Raw,1730961829422,911906775000000,18,0.0,-1414085140647172131,-0.3297748565673828,45.97113002091646,3.9419515499445708,10.533848328831493,19,38,0.0,16399,369833293847367,19,36.4,236.472412109375,0.04994453489780426,16,0.0,0.0,1561097980,,,,0,0.0,5,-60.74,32.1,-1541.61962890625,8.461189270019531,,,I,759871559920492,0
Raw,1730961829422,911906775000000,18,0.0,-1414085140647172131,-0.3297748565673828,45.97113002091646,3.9419515499445708,10.533848328831493,19,37,0.0,16399,369833346670549,11,43.0,-214.7740936279297,0.04125979170203209,16,0.0,0.0,1561097980,,,,0,0.0,5,-60.74,38.7,-1541.61962890625,8.461189270019531,,,I,759871559920492,0
Raw,1730961829422,911906775000000,18,0.0,-1414085140647172131,-0.3297748565673828,45.97113002091646,3.9419515499445708,10.533848328831493,19,32,0.0,16399,369833344205279,31,32.3,-422.82293701171875,0.6875,16,0.0,0.0,1561097980,,,,0,0.0,5,-60.74,27.999999999999996,-1541.61962890625,8.461189270019531,,,I,759871559920492,0
Raw,1730961829422,911906775000000,18,0.0,-1414085140647172131,-0.3297748565673828,45.97113002091646,3.9419515499445708,10.533848328831493,19,23,0.0,16399,369833347451005,40,30.9,313.61968994140625,0.8029999732971191,16,0.0,0.0,1561097980,,,,0,0.0,5,-60.74,26.599999999999998,-1541.61962890625,8.461189270019531,,,I,759871559920492,0
Raw,1730961829422,911906775000000,18,0.0,-1414085140647172131,-0.3297748565673828,45.97113002091646,3.9419515499445708,10.533848328831493,19,13,0.0,16399,369833300076776,40,30.4,186.18228149414062,0.8134999871253967,16,0.0,0.0,1561097980,,,,0,0.0,5,-60.74,26.099999999999998,-1541.61962890625,8.461189270019531,,,I,759871559920492,0
Raw,1730961829422,911906775000000,18,0.0,-1414085140647172131,-0.3297748565673828,45.97113002091646,3.9419515499445708,10.533848328831493,19,10,0.0,16399,369833294381456,70,26.9,-209.8511505126953,1.5474998950958252,16,0.0,0.0,1561097980,,,,0,0.0,5,-60.74,22.599999999999998,-1541.61962890625,8.461189270019531,,,I,759871559920492,0
Raw,1730961829422,911906775000000,18,0.0,-1414085140647172131,-0.3297748565673828,45.97113002091646,3.9419515499445708,10.533848328831493,19,8,0.0,16399,369833296131004,53,28.3,230.8602752685547,0.9194999933242798,16,0.0,0.0,1561097980,,,,0,0.0,5,-60.74,24.0,-1541.61962890625,8.461189270019531,,,I,759871559920492,0
Raw,1730961829422,911906775000000,18,0.0,-1414085140647172131,-0.3297748565673828,45.97113002091646,3.9419515499445708,10.533848328831493,19,5,0.0,16399,369833300783258,11,42.8,1.0143452882766724,1.4583709239959717,16,0.0,0.0,1561097980,,,,0,0.0,5,-60.74,38.5,-1541.61962890625,8.461189270019531,,,I,759871559920492,0
Raw,1730961829422,911906775000000,18,0.0,-1414085140647172131,-0.3297748565673828,45.97113002091646,3.9419515499445708,10.533848328831493,19,2,0.0,16399,369833302868565,21,36.2,4.407306671142578,2.506200075149536,16,0.0,0.0,1561097980,,,,0,0.0,5,-60.74,31.900000000000002,-1541.61962890625,8.461189270019531,,,I,759871559920492,0
Raw,1730961829422,911906775000000,18,0.0,-1414085140647172131,-0.3297748565673828,45.97113002091646,3.9419515499445708,10.533848328831493,19,7,0.0,23567,369847334120490,92,25.2,-213.76638793945312,1.6584999561309814,16,0.0,0.0,1575420030,,,,0,0.0,6,-55.8,20.9,-1469.1092529296875,8.558761596679688,,,C,759871559920492,0
Raw,1730961829422,911906775000000,18,0.0,-1414085140647172131,-0.3297748565673828,45.97113002091646,3.9419515499445708,10.533848328831493,19,8,0.0,23567,369847338308533,19,36.6,-93.54335021972656,0.04309552535414696,16,0.0,0.0,1575420030,,,,0,0.0,6,-55.8,32.300000000000004,-1469.1092529296875,8.558761596679688,,,C,759871559920492,0
Raw,1730961829422,911906775000000,18,0.0,-1414085140647172131,-0.3297748565673828,45.97113002091646,3.9419515499445708,10.533848328831493,19,13,0.0,23567,369847336507408,53,28.8,281.2502746582031,0.1250806748867035,16,0.0,0.0,1575420030,,,,0,0.0,6,-55.8,24.5,-1469.1092529296875,8.558761596679688,,,C,759871559920492,0
Raw,1730961829422,911906775000000,18,0.0,-1414085140647172131,-0.3297748565673828,45.97113002091646,3.9419515499445708,10.533848328831493,19,15,0.0,23567,369847332593930,53,28.6,433.2774963378906,0.1250806748867035,16,0.0,0.0,1575420030,,,,0,0.0,6,-55.8,24.3,-1469.1092529296875,8.558761596679688,,,C,759871559920492,0
Raw,1730961829422,911906775000000,18,0.0,-1414085140647172131,-0.3297748565673828,45.97113002091646,3.9419515499445708,10.533848328831493,19,27,0.0,23567,369847333771408,14,39.9,-529.1427612304688,0.036514684557914734,16,0.0,0.0,1575420030,,,,0,0.0,6,-55.8,35.6,-1469.1092529296875,8.558761596679688,,,C,759871559920492,0
Raw,1730961829422,911906775000000,18,0.0,-1414085140647172131,-0.3297748565673828,45.97113002091646,3.9419515499445708,10.533848328831493,19,30,0.0,23567,369847342418650,46,30.2,-220.12875366210938,0.07274328172206879,16,0.0,0.0,1575420030,,,,0,0.0,6,-55.8,25.9,-1469.1092529296875,8.558761596679688,,,C,759871559920492,0
Raw,1730961829422,911906775000000,18,0.0,-1414085140647172131,-0.3297748565673828,45.97113002091646,3.9419515499445708,10.533848328831493,19,3,0.0,81935,369847351241855,10,30.8,-435.5513916015625,0.10724751651287079,16,0.0,0.0,1176450050,,,,0,0.0,1,-41.59,25.8,21.20029640197754,5.102830410003662,,,Q,759871559920492,0
Raw,1730961829422,911906775000000,18,0.0,-1414085140647172131,-0.3297748565673828,45.97113002091646,3.9419515499445708,10.533848328831493,19,4,0.0,81935,369847342905616,23,23.3,-333.7864990234375,1.974500060081482,16,0.0,0.0,1176450050,,,,0,0.0,1,-41.59,18.3,21.20029640197754,5.102830410003662,,,Q,759871559920492,0
Raw,1730961829422,911906775000000,18,0.0,-1414085140647172131,-0.3297748565673828,45.97113002091646,3.9419515499445708,10.533848328831493,19,26,0.0,81935,369847352233173,18,25.5,321.1725158691406,1.1694999933242798,16,0.0,0.0,1176450050,,,,0,0.0,1,-41.59,20.5,21.20029640197754,5.102830410003662,,,Q,759871559920492,0
Raw,1730961829422,911906775000000,18,0.0,-1414085140647172131,-0.3297748565673828,45.97113002091646,3.9419515499445708,10.533848328831493,19,27,0.0,81935,369847333771330,12,28.8,-529.1122436523438,0.9210000038146973,16,0.0,0.0,1176450050,,,,0,0.0,6,-41.59,23.5,-1455.26708984375,99.38855743408203,,,Q,759871559920492,0
Raw,1730961829422,911906775000000,18,0.0,-1414085140647172131,-0.3297748565673828,45.97113002091646,3.9419515499445708,10.533848328831493,19,30,0.0,81935,369847342418606,18,25.8,-219.82740783691406,1.1545000076293945,16,0.0,0.0,1176450050,,,,0,0.0,6,-41.59,20.5,-1455.26708984375,99.38855743408203,,,Q,759871559920492,0
Raw,1730961829422,911906775000000,18,0.0,-1414085140647172131,-0.3297748565673828,45.97113002091646,3.9419515499445708,10.533848328831493,19,23,0.0,16399,369833347450960,14,26.6,312.7249755859375,1.1019999980926514,16,0.0,0.0,1176450050,,,,0,0.0,5,-41.59,22.1,-1503.4949951171875,97.06230926513672,,,Q,759871559920492,0
Raw,1730961829422,911906775000000,18,0.0,-1414085140647172131,-0.3297748565673828,45.97113002091646,3.9419515499445708,10.533848328831493,19,37,0.0,16399,369833346670464,8,33.1,-214.79432678222656,1.5871533155441284,16,0.0,0.0,1176450050,,,,0,0.0,5,-41.59,28.6,-1503.4949951171875,97.06230926513672,,,Q,759871559920492,0
Raw,1730961829422,911906775000000,18,0.0,-1414085140647172131,-0.3297748565673828,45.97113002091646,3.9419515499445708,10.533848328831493,19,41,0.0,16399,369833346657082,27,22.0,20.908641815185547,2.760499954223633,16,0.0,0.0,1176450050,,,,0,0.0,5,-41.59,17.5,-1503.4949951171875,97.06230926513672,,,Q,759871559920492,0
Raw,1730961829422,911906775000000,18,0.0,-1414085140647172131,-0.3297748565673828,45.97113002091646,3.9419515499445708,10.533848328831493,19,23,0.0,16399,369833347451011,16,28.7,312.7286071777344,1.566999912261963,16,0.0,0.0,1575420030,,,,0,0.0,5,-55.8,21.7,-1552.4932861328125,94.8714599609375,,,P,759871559920492,0
Raw,1730961829422,911906775000000,18,0.0,-1414085140647172131,-0.3297748565673828,45.97113002091646,3.9419515499445708,10.533848328831493,19,27,0.0,16399,369833335316140,12,30.1,140.4462432861328,1.034000039100647,16,0.0,0.0,1575420030,,,,0,0.0,5,-55.8,23.1,-1552.4932861328125,94.8714599609375,,,P,759871559920492,0
Raw,1730961829422,911906775000000,18,0.0,-1414085140647172131,-0.3297748565673828,45.97113002091646,3.9419515499445708,10.533848328831493,19,32,0.0,16399,369833344205288,20,26.7,-422.81353759765625,1.7425000667572021,16,0.0,0.0,1575420030,,,,0,0.0,5,-55.8,19.7,-1552.4932861328125,94.8714599609375,,,P,759871559920492,0
Raw,1730961829422,911906775000000,18,0.0,-1414085140647172131,-0.3297748565673828,45.97113002091646,3.9419515499445708,10.533848328831493,19,37,0.0,16399,369833346670565,2,47.0,-214.7748565673828,0.06080919876694679,16,0.0,0.0,1575420030,,,,0,0.0,5,-55.8,40.0,-1552.4932861328125,94.8714599609375,,,P,759871559920492,0
Raw,1730961829422,911906775000000,18,0.0,-1414085140647172131,-0.3297748565673828,45.97113002091646,3.9419515499445708,10.533848328831493,19,38,0.0,16399,369833293847369,8,34.6,236.5225067138672,0.06605222821235657,16,0.0,0.0,1575420030,,,,0,0.0,5,-55.8,27.6,-1552.4932861328125,94.8714599609375,,,P,759871559920492,0
Raw,1730961829422,911906775000000,18,0.0,-1414085140647172131,-0.3297748565673828,45.97113002091646,3.9419515499445708,10.533848328831493,19,39,0.0,16399,369833292611043,16,28.8,73.71025085449219,1.1094999313354492,16,0.0,0.0,1575420030,,,,0,0.0,5,-55.8,21.8,-1552.4932861328125,94.8714599609375,,,P,759871559920492,0
Raw,1730961829422,911906775000000,18,0.0,-1414085140647172131,-0.3297748565673828,45.97113002091646,3.9419515499445708,10.533848328831493,19,40,0.0,16399,369833291147246,14,29.6,-291.4918518066406,1.5579999685287476,16,0.0,0.0,1575420030,,,,0,0.0,5,-55.8,22.6,-1552.4932861328125,94.8714599609375,,,P,759871559920492,0
Raw,1730961829422,911906775000000,18,0.0,-1414085140647172131,-0.3297748565673828,45.97113002091646,3.9419515499445708,10.533848328831493,19,41,0.0,16399,369833346657152,10,32.4,20.7722225189209,0.09974328428506851,16,0.0,0.0,1575420030,,,,0,0.0,5,-55.8,25.4,-1552.4932861328125,94.8714599609375,,,P,759871559920492,0
Agc,1730961829422,911906775000000,18,0.0,-1414085140647172131,-0.3297748565673828,45.97113002091646,3.9419515499445708,10.533848328831493,19,-52.01,1575420000,1
Agc,1730961829422,911906775000000,18,0.0,-1414085140647172131,-0.3297748565673828,45.97113002091646,3.9419515499445708,10.533848328831493,19,-52.01,1575420000,4
Agc,1730961829422,911906775000000,18,0.0,-1414085140647172131,-0.3297748565673828,45.97113002091646,3.9419515499445708,10.533848328831493,19,-55.19,1602000000,3
Agc,1730961829422,911906775000000,18,0.0,-1414085140647172131,-0.3297748565673828,45.97113002091646,3.9419515499445708,10.533848328831493,19,-60.74,1561098000,5
Agc,1730961829422,911906775000000,18,0.0,-1414085140647172131,-0.3297748565673828,45.97113002091646,3.9419515499445708,10.533848328831493,19,-55.8,1575420000,6
Agc,1730961829422,911906775000000,18,0.0,-1414085140647172131,-0.3297748565673828,45.97113002091646,3.9419515499445708,10.533848328831493,19,-41.59,1176450000,1
Agc,1730961829422,911906775000000,18,0.0,-1414085140647172131,-0.3297748565673828,45.97113002091646,3.9419515499445708,10.533848328831493,19,-41.59,1176450000,4
Agc,1730961829422,911906775000000,18,0.0,-1414085140647172131,-0.3297748565673828,45.97113002091646,3.9419515499445708,10.533848328831493,19,-41.59,1176450000,6
Agc,1730961829422,911906775000000,18,0.0,-1414085140647172131,-0.3297748565673828,45.97113002091646,3.9419515499445708,10.533848328831493,19,-41.59,1176450000,5
Agc,1730961829422,911906775000000,18,0.0,-1414085140647172131,-0.3297748565673828,45.97113002091646,3.9419515499445708,10.533848328831493,19,-55.8,1575420000,5
Status,,48,0,1,3,1575420030,33.50,325.07373,47.519787,1,1,1,28.5
Status,,48,1,1,4,1575420030,23.50,320.6324,18.307894,1,1,1,18.5
Status,,48,2,1,7,1575420030,22.30,247.05441,6.5121007,1,1,1,17.3
Status,,48,3,1,21,1575420030,38.50,218.95872,23.880964,1,1,1,33.5
Status,,48,4,1,26,1575420030,26.20,54.06989,52.261997,0,1,1,21.2
Status,,48,5,1,31,1575420030,24.00,20.378887,32.9409,0,1,1,19.0
Status,,48,6,2,127,1575420030,44.30,0.0,0.0,0,0,0,39.3
Status,,48,7,3,9,1600875010,36.90,294.23898,80.56543,1,1,1,31.9
Status,,48,8,3,16,1601437440,25.20,21.867792,31.032148,1,1,1,20.2
Status,,48,9,3,5,1602562560,23.90,105.86296,24.118906,1,1,1,18.9
Status,,48,10,3,21,1604249980,19.30,230.76122,6.2533603,0,1,1,14.3
Status,,48,11,3,7,1604812540,22.50,339.88803,15.788764,1,1,1,17.5
Status,,48,12,5,60,1561097980,44.30,169.61064,73.853806,0,1,0,39.3
Status,,48,13,5,40,1561097980,23.70,120.49007,24.642662,1,1,1,18.7
Status,,48,14,5,38,1561097980,30.20,155.16573,29.791851,1,1,1,25.2
Status,,48,15,5,37,1561097980,41.20,242.30374,56.05306,1,1,1,36.2
Status,,48,16,5,32,1561097980,28.20,346.24158,43.56138,1,1,1,23.2
Status,,48,17,5,23,1561097980,30.80,14.300195,61.419197,1,1,1,25.8
Status,,48,18,5,13,1561097980,26.20,163.50778,53.803024,1,1,1,21.2
Status,,48,19,5,10,1561097980,22.60,144.15637,35.49565,1,1,1,17.6
Status,,48,20,5,8,1561097980,26.50,158.66226,41.329662,1,1,1,21.5
Status,,48,21,5,5,1561097980,39.20,240.0529,64.263535,1,1,1,34.2
Status,,48,22,5,2,1561097980,34.60,150.59094,74.43217,1,1,1,29.6
Status,,48,23,6,7,1575420030,25.10,325.74994,24.830164,1,1,1,20.1
Status,,48,24,6,8,1575420030,28.10,26.703241,40.85905,1,1,1,23.1
Status,,48,25,6,13,1575420030,24.70,242.96428,32.534176,1,1,1,19.7
Status,,48,26,6,15,1575420030,23.30,186.18367,19.753557,1,1,1,18.3
Status,,48,27,6,27,1575420030,33.80,199.68839,24.643229,1,1,1,28.8
Status,,48,28,6,30,1575420030,23.60,145.76492,66.23398,1,1,1,18.6
Status,,48,29,1,3,1176450050,25.40,325.07373,47.519787,1,1,1,20.4
Status,,48,30,1,4,1176450050,18.30,320.6324,18.307894,0,1,1,13.3
Status,,48,31,1,26,1176450050,20.50,54.06989,52.261997,1,1,1,15.5
Status,,48,32,6,2,1176450050,16.90,53.347687,38.750675,0,1,1,11.9
Status,,48,33,6,8,1176450050,16.30,26.703241,40.85905,0,1,1,11.3
Status,,48,34,6,13,1176450050,21.90,242.96428,32.534176,0,1,1,16.9
Status,,48,35,6,27,1176450050,24.20,199.68839,24.643229,1,1,1,19.2
Status,,48,36,6,30,1176450050,22.20,145.76492,66.23398,1,1,1,17.2
Status,,48,37,5,23,1176450050,26.30,14.300195,61.419197,1,1,1,21.3
Status,,48,38,5,37,1176450050,30.10,242.30374,56.05306,1,1,1,25.1
Status,,48,39,5,41,1176450050,17.50,83.39254,56.734592,1,1,1,12.5
Status,,48,40,5,23,1575420030,26.20,14.300195,61.419197,0,1,1,21.2
Status,,48,41,5,27,1575420030,22.80,211.43973,9.336241,1,1,1,17.8
Status,,48,42,5,32,1575420030,19.70,346.24158,43.56138,1,1,1,14.7
Status,,48,43,5,37,1575420030,41.60,242.30374,56.05306,1,1,1,36.6
Status,,48,44,5,38,1575420030,23.40,155.16573,29.791851,1,1,1,18.4
Status,,48,45,5,39,1575420030,21.80,31.22149,27.865572,1,1,1,16.8
Status,,48,46,5,40,1575420030,22.50,120.49007,24.642662,1,1,1,17.5
Status,,48,47,5,41,1575420030,24.20,83.39254,56.734592,1,1,1,19.2
Raw,1730961830422,911907775000000,18,0.0,-1414085140647172125,-0.5779266357421875,39.906346501084045,3.8412871506546193,9.731320586622337,19,3,0.0,16399,369848351243331,17,38.5,-435.6073303222656,0.042794376611709595,16,0.0,0.0,1575420030,,,,0,0.0,1,-51.83,33.5,0.0,0.0,,,C,759872558634033,0
Raw,1730961830422,911907775000000,18,0.0,-1414085140647172125,-0.5779266357421875,39.906346501084045,3.8412871506546193,9.731320586622337,19,4,0.0,16399,369848342906823,61,28.5,-334.1842346191406,0.9404999613761902,16,0.0,0.0,1575420030,,,,0,0.0,1,-51.83,23.5,0.0,0.0,,,C,759872558634033,0
Raw,1730961830422,911907775000000,18,0.0,-1414085140647172125,-0.5779266357421875,39.906346501084045,3.8412871506546193,9.731320586622337,19,7,0.0,16399,369848338277988,70,27.3,-293.6992492675781,0.9965000152587891,16,0.0,0.0,1575420030,,,,0,0.0,1,-51.83,22.3,0.0,0.0,,,C,759872558634033,0
Raw,1730961830422,911907775000000,18,0.0,-1414085140647172125,-0.5779266357421875,39.906346501084045,3.8412871506546193,9.731320586622337,19,21,0.0,16399,369848343499867,11,43.5,248.37828063964844,0.04569833725690842,16,0.0,0.0,1575420030,,,,0,0.0,1,-51.83,38.5,0.0,0.0,,,C,759872558634033,0
Raw,1730961830422,911907775000000,18,0.0,-1414085140647172125,-0.5779266357421875,39.906346501084045,3.8412871506546193,9.731320586622337,19,26,0.0,16399,369848352232147,40,31.2,321.5201721191406,1.9444999694824219,16,0.0,0.0,1575420030,,,,0,0.0,1,-51.83,26.2,0.0,0.0,,,C,759872558634033,0
Raw,1730961830422,911907775000000,18,0.0,-1414085140647172125,-0.5779266357421875,39.906346501084045,3.8412871506546193,9.731320586622337,19,31,0.0,16399,369848347485904,53,29.0,472.97491455078125,2.056999921798706,16,0.0,0.0,1575420030,,,,0,0.0,1,-51.83,24.0,0.0,0.0,,,C,759872558634033,0
Raw,1730961830422,911907775000000,18,0.0,-1414085140647172125,-0.5779266357421875,39.906346501084045,3.8412871506546193,9.731320586622337,19,9,0.0,49359,35030358198028,13,40.9,57.10736083984375,0.024758514016866684,16,0.0,0.0,1600875010,,,,0,0.0,3,-54.98,36.9,3800.197265625,9.551270484924316,,,C,759872558634033,0
Raw,1730961830422,911907775000000,18,0.0,-1414085140647172125,-0.5779266357421875,39.906346501084045,3.8412871506546193,9.731320586622337,19,16,0.0,49359,35030349977159,46,29.2,691.2718505859375,0.8600000143051147,16,0.0,0.0,1601437440,,,,0,0.0,3,-54.98,25.2,3800.197265625,9.551270484924316,,,C,759872558634033,0
Raw,1730961830422,911907775000000,18,0.0,-1414085140647172125,-0.5779266357421875,39.906346501084045,3.8412871506546193,9.731320586622337,19,5,0.0,49359,35030348222167,61,27.9,237.83230590820312,1.0115000009536743,16,0.0,0.0,1602562560,,,,0,0.0,3,-54.98,23.9,3800.197265625,9.551270484924316,,,C,759872558634033,0
Raw,1730961830422,911907775000000,18,0.0,-1414085140647172125,-0.5779266357421875,39.906346501084045,3.8412871506546193,9.731320586622337,19,21,0.0,49359,35030341997624,106,23.3,367.45947265625,2.558000087738037,16,0.0,0.0,1604249980,,,,0,0.0,3,-54.98,19.3,3800.197265625,9.551270484924316,,,C,759872558634033,0
Raw,1730961830422,911907775000000,18,0.0,-1414085140647172125,-0.5779266357421875,39.906346501084045,3.8412871506546193,9.731320586622337,19,60,0.0,16399,369834302149418,6,48.6,6.032194137573242,0.03103739023208618,16,0.0,0.0,1561097980,,,,0,0.0,5,-60.59,44.300000000000004,-1541.963134765625,8.411620140075684,,,I,759872558634033,0
Raw,1730961830422,911907775000000,18,0.0,-1414085140647172125,-0.5779266357421875,39.906346501084045,3.8412871506546193,9.731320586622337,19,40,0.0,16399,369834291148162,61,28.0,-290.7189636230469,0.9269999861717224,16,0.0,0.0,1561097980,,,,0,0.0,5,-60.59,23.7,-1541.963134765625,8.411620140075684,,,I,759872558634033,0
Raw,1730961830422,911907775000000,18,0.0,-1414085140647172125,-0.5779266357421875,39.906346501084045,3.8412871506546193,9.731320586622337,19,38,0.0,16399,369834293846570,24,34.5,236.2906951904297,0.10070057213306427,16,0.0,0.0,1561097980,,,,0,0.0,5,-60.59,30.2,-1541.963134765625,8.411620140075684,,,I,759872558634033,0
Raw,1730961830422,911907775000000,18,0.0,-1414085140647172125,-0.5779266357421875,39.906346501084045,3.8412871506546193,9.731320586622337,19,37,0.0,16399,369834346671274,8,45.5,-214.86904907226562,0.03924337774515152,16,0.0,0.0,1561097980,,,,0,0.0,5,-60.59,41.2,-1541.963134765625,8.411620140075684,,,I,759872558634033,0
Raw,1730961830422,911907775000000,18,0.0,-1414085140647172125,-0.5779266357421875,39.906346501084045,3.8412871506546193,9.731320586622337,19,32,0.0,16399,369834344206699,31,32.5,-422.8709716796875,0.6875,16,0.0,0.0,1561097980,,,,0,0.0,5,-60.59,28.2,-1541.963134765625,8.411620140075684,,,I,759872558634033,0
Raw,1730961830422,911907775000000,18,0.0,-1414085140647172125,-0.5779266357421875,39.906346501084045,3.8412871506546193,9.731320586622337,19,23,0.0,16399,369834347449940,24,35.1,312.8759460449219,0.6858190298080444,16,0.0,0.0,1561097980,,,,0,0.0,5,-60.59,30.8,-1541.963134765625,8.411620140075684,,,I,759872558634033,0
Raw,1730961830422,911907775000000,18,0.0,-1414085140647172125,-0.5779266357421875,39.906346501084045,3.8412871506546193,9.731320586622337,19,13,0.0,16399,369834300076130,40,30.5,185.27969360351562,0.8134999871253967,16,0.0,0.0,1561097980,,,,0,0.0,5,-60.59,26.2,-1541.963134765625,8.411620140075684,,,I,759872558634033,0
Raw,1730961830422,911907775000000,18,0.0,-1414085140647172125,-0.5779266357421875,39.906346501084045,3.8412871506546193,9.731320586622337,19,8,0.0,16399,369834296130217,40,30.8,229.32395935058594,0.7894999980926514,16,0.0,0.0,1561097980,,,,0,0.0,5,-60.59,26.5,-1541.963134765625,8.411620140075684,,,I,759872558634033,0
Raw,1730961830422,911907775000000,18,0.0,-1414085140647172125,-0.5779266357421875,39.906346501084045,3.8412871506546193,9.731320586622337,19,5,0.0,16399,369834300783246,10,43.5,0.843640923500061,0.7492458820343018,16,0.0,0.0,1561097980,,,,0,0.0,5,-60.59,39.2,-1541.963134765625,8.411620140075684,,,I,759872558634033,0
Raw,1730961830422,911907775000000,18,0.0,-1414085140647172125,-0.5779266357421875,39.906346501084045,3.8412871506546193,9.731320586622337,19,2,0.0,16399,369834302868540,16,38.9,0.43208885192871094,1.6589000225067139,16,0.0,0.0,1561097980,,,,0,0.0,5,-60.59,34.6,-1541.963134765625,8.411620140075684,,,I,759872558634033,0
Raw,1730961830422,911907775000000,18,0.0,-1414085140647172125,-0.5779266357421875,39.906346501084045,3.8412871506546193,9.731320586622337,19,7,0.0,23567,369848334121198,46,29.4,-213.9163818359375,0.07274328172206879,16,0.0,0.0,1575420030,,,,0,0.0,6,-55.61,25.099999999999998,-1468.97900390625,8.502558708190918,,,C,759872558634033,0
Raw,1730961830422,911907775000000,18,0.0,-1414085140647172125,-0.5779266357421875,39.906346501084045,3.8412871506546193,9.731320586622337,19,8,0.0,23567,369848338308838,31,32.4,-93.5821304321289,0.8061904907226562,16,0.0,0.0,1575420030,,,,0,0.0,6,-55.61,28.099999999999998,-1468.97900390625,8.502558708190918,,,C,759872558634033,0
Raw,1730961830422,911907775000000,18,0.0,-1414085140647172125,-0.5779266357421875,39.906346501084045,3.8412871506546193,9.731320586622337,19,13,0.0,23567,369848336506502,53,29.0,281.1511535644531,0.1250806748867035,16,0.0,0.0,1575420030,,,,0,0.0,6,-55.61,24.7,-1468.97900390625,8.502558708190918,,,C,759872558634033,0
Raw,1730961830422,911907775000000,18,0.0,-1414085140647172125,-0.5779266357421875,39.906346501084045,3.8412871506546193,9.731320586622337,19,15,0.0,23567,369848332592469,61,27.6,433.1654968261719,1.005500078201294,16,0.0,0.0,1575420030,,,,0,0.0,6,-55.61,23.3,-1468.97900390625,8.502558708190918,,,C,759872558634033,0
Raw,1730961830422,911907775000000,18,0.0,-1414085140647172125,-0.5779266357421875,39.906346501084045,3.8412871506546193,9.731320586622337,19,27,0.0,23567,369848333773176,17,38.1,-529.3109130859375,0.0394071489572525,16,0.0,0.0,1575420030,,,,0,0.0,6,-55.61,33.800000000000004,-1468.97900390625,8.502558708190918,,,C,759872558634033,0
Raw,1730961830422,911907775000000,18,0.0,-1414085140647172125,-0.5779266357421875,39.906346501084045,3.8412871506546193,9.731320586622337,19,30,0.0,23567,369848342419375,61,27.9,-220.26492309570312,1.0084999799728394,16,0.0,0.0,1575420030,,,,0,0.0,6,-55.61,23.599999999999998,-1468.97900390625,8.502558708190918,,,C,759872558634033,0
Raw,1730961830422,911907775000000,18,0.0,-1414085140647172125,-0.5779266357421875,39.906346501084045,3.8412871506546193,9.731320586622337,19,3,0.0,81935,369848351243311,10,30.4,-435.5201721191406,0.8717315793037415,16,0.0,0.0,1176450050,,,,0,0.0,1,-39.99,25.4,21.20029640197754,5.102985382080078,,,Q,759872558634033,0
Raw,1730961830422,911907775000000,18,0.0,-1414085140647172125,-0.5779266357421875,39.906346501084045,3.8412871506546193,9.731320586622337,19,26,0.0,81935,369848352232097,18,25.5,321.5037841796875,1.1694999933242798,16,0.0,0.0,1176450050,,,,0,0.0,1,-39.99,20.5,21.20029640197754,5.102985382080078,,,Q,759872558634033,0
Raw,1730961830422,911907775000000,18,0.0,-1414085140647172125,-0.5779266357421875,39.906346501084045,3.8412871506546193,9.731320586622337,19,2,0.0,81935,369848338348406,30,22.2,269.7354736328125,3.5885000228881836,16,0.0,0.0,1176450050,,,,0,0.0,6,-39.99,16.9,-1455.14208984375,87.38755798339844,,,Q,759872558634033,0
Raw,1730961830422,911907775000000,18,0.0,-1414085140647172125,-0.5779266357421875,39.906346501084045,3.8412871506546193,9.731320586622337,19,8,0.0,81935,369848338308824,30,21.6,-93.47093200683594,3.7084999084472656,16,0.0,0.0,1176450050,,,,0,0.0,6,-39.99,16.3,-1455.14208984375,87.38755798339844,,,Q,759872558634033,0
Raw,1730961830422,911907775000000,18,0.0,-1414085140647172125,-0.5779266357421875,39.906346501084045,3.8412871506546193,9.731320586622337,19,27,0.0,81935,369848333773098,11,29.5,-529.2562255859375,0.15435150265693665,16,0.0,0.0,1176450050,,,,0,0.0,6,-39.99,24.2,-1455.14208984375,87.38755798339844,,,Q,759872558634033,0
Raw,1730961830422,911907775000000,18,0.0,-1414085140647172125,-0.5779266357421875,39.906346501084045,3.8412871506546193,9.731320586622337,19,30,0.0,81935,369848342419350,14,27.5,-219.84014892578125,0.984499990940094,16,0.0,0.0,1176450050,,,,0,0.0,6,-39.99,22.2,-1455.14208984375,87.38755798339844,,,Q,759872558634033,0
Raw,1730961830422,911907775000000,18,0.0,-1414085140647172125,-0.5779266357421875,39.906346501084045,3.8412871506546193,9.731320586622337,19,23,0.0,16399,369834347449908,9,30.8,312.92803955078125,0.07087202370166779,16,0.0,0.0,1176450050,,,,0,0.0,5,-39.99,26.3,-1503.8397216796875,85.06129455566406,,,Q,759872558634033,0
Raw,1730961830422,911907775000000,18,0.0,-1414085140647172125,-0.5779266357421875,39.906346501084045,3.8412871506546193,9.731320586622337,19,37,0.0,16399,369834346671185,6,34.6,-214.82632446289062,0.05441360920667648,16,0.0,0.0,1176450050,,,,0,0.0,5,-39.99,30.1,-1503.8397216796875,85.06129455566406,,,Q,759872558634033,0
Raw,1730961830422,911907775000000,18,0.0,-1414085140647172125,-0.5779266357421875,39.906346501084045,3.8412871506546193,9.731320586622337,19,23,0.0,16399,369834347449925,9,33.2,312.8900146484375,0.07856027781963348,16,0.0,0.0,1575420030,,,,0,0.0,5,-55.61,26.200000000000003,-1552.8365478515625,82.8717269897461,,,P,759872558634033,0
Raw,1730961830422,911907775000000,18,0.0,-1414085140647172125,-0.5779266357421875,39.906346501084045,3.8412871506546193,9.731320586622337,19,27,0.0,16399,369834335315722,14,29.8,140.17984008789062,1.034000039100647,16,0.0,0.0,1575420030,,,,0,0.0,5,-55.61,22.8,-1552.8365478515625,82.8717269897461,,,P,759872558634033,0
Raw,1730961830422,911907775000000,18,0.0,-1414085140647172125,-0.5779266357421875,39.906346501084045,3.8412871506546193,9.731320586622337,19,37,0.0,16399,369834346671271,2,48.6,-214.8585968017578,0.06020025908946991,16,0.0,0.0,1575420030,,,,0,0.0,5,-55.61,41.6,-1552.8365478515625,82.8717269897461,,,P,759872558634033,0
Raw,1730961830422,911907775000000,18,0.0,-1414085140647172125,-0.5779266357421875,39.906346501084045,3.8412871506546193,9.731320586622337,19,38,0.0,16399,369834293846579,12,30.4,236.5445556640625,1.031000018119812,16,0.0,0.0,1575420030,,,,0,0.0,5,-55.61,23.4,-1552.8365478515625,82.8717269897461,,,P,759872558634033,0
Raw,1730961830422,911907775000000,18,0.0,-1414085140647172125,-0.5779266357421875,39.906346501084045,3.8412871506546193,9.731320586622337,19,40,0.0,16399,369834291148158,14,29.5,-291.7582702636719,1.1079999208450317,16,0.0,0.0,1575420030,,,,0,0.0,5,-55.61,22.5,-1552.8365478515625,82.8717269897461,,,P,759872558634033,0
Raw,1730961830422,911907775000000,18,0.0,-1414085140647172125,-0.5779266357421875,39.906346501084045,3.8412871506546193,9.731320586622337,19,41,0.0,16399,369834346657096,11,31.2,20.739524841308594,0.1550806760787964,16,0.0,0.0,1575420030,,,,0,0.0,5,-55.61,24.2,-1552.8365478515625,82.8717269897461,,,P,759872558634033,0
Agc,1730961830422,911907775000000,18,0.0,-1414085140647172125,-0.5779266357421875,39.906346501084045,3.8412871506546193,9.731320586622337,19,-51.83,1575420000,1
Agc,1730961830422,911907775000000,18,0.0,-1414085140647172125,-0.5779266357421875,39.906346501084045,3.8412871506546193,9.731320586622337,19,-51.83,1575420000,4
Agc,1730961830422,911907775000000,18,0.0,-1414085140647172125,-0.5779266357421875,39.906346501084045,3.8412871506546193,9.731320586622337,19,-54.98,1602000000,3
Agc,1730961830422,911907775000000,18,0.0,-1414085140647172125,-0.5779266357421875,39.906346501084045,3.8412871506546193,9.731320586622337,19,-60.59,1561098000,5
Agc,1730961830422,911907775000000,18,0.0,-1414085140647172125,-0.5779266357421875,39.906346501084045,3.8412871506546193,9.731320586622337,19,-55.61,1575420000,6
Agc,1730961830422,911907775000000,18,0.0,-1414085140647172125,-0.5779266357421875,39.906346501084045,3.8412871506546193,9.731320586622337,19,-39.99,1176450000,1
Agc,1730961830422,911907775000000,18,0.0,-1414085140647172125,-0.5779266357421875,39.906346501084045,3.8412871506546193,9.731320586622337,19,-39.99,1176450000,4
Agc,1730961830422,911907775000000,18,0.0,-1414085140647172125,-0.5779266357421875,39.906346501084045,3.8412871506546193,9.731320586622337,19,-39.99,1176450000,6
Agc,1730961830422,911907775000000,18,0.0,-1414085140647172125,-0.5779266357421875,39.906346501084045,3.8412871506546193,9.731320586622337,19,-39.99,1176450000,5
Agc,1730961830422,911907775000000,18,0.0,-1414085140647172125,-0.5779266357421875,39.906346501084045,3.8412871506546193,9.731320586622337,19,-55.61,1575420000,5
Fix,FLP,12.9370636000,77.5410326000,794.1725783289794,0.11372945,13.232,148.80455,1730961829233,1.5,45.0,759871735000000,1.8270049,0,,,
Status,,50,0,1,3,1575420030,34.50,325.07373,47.519787,1,1,1,29.5
Status,,50,1,1,4,1575420030,27.10,320.6324,18.307894,1,1,1,22.1
Status,,50,2,1,7,1575420030,22.30,247.05441,6.5121007,1,1,1,17.3
Status,,50,3,1,21,1575420030,34.40,218.95872,23.880964,1,1,1,29.4
Status,,50,4,1,26,1575420030,30.50,54.06989,52.261997,1,1,1,25.5
Status,,50,5,1,31,1575420030,26.20,20.378887,32.9409,1,1,1,21.2
Status,,50,6,4,194,1575420030,19.90,67.65519,24.354902,0,1,1,14.9
Status,,50,7,2,127,1575420030,44.50,0.0,0.0,0,0,0,39.5
Status,,50,8,3,9,1600875010,36.80,294.23898,80.56543,1,1,1,31.8
Status,,50,9,3,16,1601437440,26.10,21.867792,31.032148,1,1,1,21.1
Status,,50,10,3,5,1602562560,30.10,105.86296,24.118906,1,1,1,25.1
Status,,50,11,3,21,1604249980,19.30,230.76122,6.2533603,1,1,1,14.3
Status,,50,12,3,7,1604812540,22.50,339.88803,15.788764,1,1,1,17.5
Status,,50,13,5,60,1561097980,40.10,169.61064,73.853806,0,1,0,35.1
Status,,50,14,5,41,1561097980,20.40,83.39254,56.734592,0,1,1,15.4
Status,,50,15,5,40,1561097980,25.40,120.49007,24.642662,1,1,1,20.4
Status,,50,16,5,38,1561097980,25.50,155.16573,29.791851,1,1,1,20.5
Status,,50,17,5,37,1561097980,43.50,242.30374,56.05306,1,1,1,38.5
Status,,50,18,5,32,1561097980,30.50,346.24158,43.56138,1,1,1,25.5
Status,,50,19,5,23,1561097980,26.10,14.300195,61.419197,1,1,1,21.1
Status,,50,20,5,13,1561097980,24.80,163.50778,53.803024,1,1,1,19.8
Status,,50,21,5,8,1561097980,26.50,158.66226,41.329662,1,1,1,21.5
Status,,50,22,5,5,1561097980,37.80,240.0529,64.263535,1,1,1,32.8
Status,,50,23,5,2,1561097980,37.60,150.59094,74.43217,1,1,1,32.6
Status,,50,24,6,2,1575420030,19.00,53.347687,38.750675,0,1,1,14.0
Status,,50,25,6,7,1575420030,27.50,325.74994,24.830164,1,1,1,22.5
Status,,50,26,6,8,1575420030,29.50,26.703241,40.85905,1,1,1,24.5
Status,,50,27,6,13,1575420030,28.20,242.96428,32.534176,1,1,1,23.2
