# 
# Header Description:
# 
# Version: v3.1.0.2 Platform: 14 Manufacturer: samsung Model: SM-S918B GNSS Hardware Model Name: Qualcomm GNSS GEN9
# 
# Raw,utcTimeMillis,TimeNanos,LeapSecond,TimeUncertaintyNanos,FullBiasNanos,BiasNanos,BiasUncertaintyNanos,DriftNanosPerSecond,DriftUncertaintyNanosPerSecond,HardwareClockDiscontinuityCount,Svid,TimeOffsetNanos,State,ReceivedSvTimeNanos,ReceivedSvTimeUncertaintyNanos,Cn0DbHz,PseudorangeRateMetersPerSecond,PseudorangeRateUncertaintyMetersPerSecond,AccumulatedDeltaRangeState,AccumulatedDeltaRangeMeters,AccumulatedDeltaRangeUncertaintyMeters,CarrierFrequencyHz,CarrierCycles,CarrierPhase,CarrierPhaseUncertainty,MultipathIndicator,SnrInDb,ConstellationType,AgcDb,BasebandCn0DbHz,FullInterSignalBiasNanos,FullInterSignalBiasUncertaintyNanos,SatelliteInterSignalBiasNanos,SatelliteInterSignalBiasUncertaintyNanos,CodeType,ChipsetElapsedRealtimeNanos,IsFullTracking
# 
# UncalAccel,utcTimeMillis,elapsedRealtimeNanos,UncalAccelXMps2,UncalAccelYMps2,UncalAccelZMps2,BiasXMps2,BiasYMps2,BiasZMps2
# 
# Accel,utcTimeMillis,elapsedRealtimeNanos,AccelXMps2,AccelYMps2,AccelZMps2
# 
# UncalGyro,utcTimeMillis,elapsedRealtimeNanos,UncalGyroXRadPerSec,UncalGyroYRadPerSec,UncalGyroZRadPerSec,DriftXRadPerSec,DriftYRadPerSec,DriftZRadPerSec
# 
# Gyro,utcTimeMillis,elapsedRealtimeNanos,GyroXRadPerSec,GyroYRadPerSec,GyroZRadPerSec
# 
# UncalMag,utcTimeMillis,elapsedRealtimeNanos,UncalMagXMicroT,UncalMagYMicroT,UncalMagZMicroT,BiasXMicroT,BiasYMicroT,BiasZMicroT
# 
# Mag,utcTimeMillis,elapsedRealtimeNanos,MagXMicroT,MagYMicroT,MagZMicroT
# 
# Pressure,utcTimeMillis,elapsedRealtimeNanos,PressureHpa
# 
# OrientationDeg,utcTimeMillis,elapsedRealtimeNanos,yawDeg,rollDeg,pitchDeg
# 
# Fix,Provider,LatitudeDegrees,LongitudeDegrees,AltitudeMeters,SpeedMps,AccuracyMeters,BearingDegrees,UnixTimeMillis,SpeedAccuracyMps,BearingAccuracyDegrees,elapsedRealtimeNanos,VerticalAccuracyMeters,MockLocation,NumberOfUsedSignals,VerticalSpeedAccuracyMps,SolutionType
# 
# Nav,Svid,Type,Status,MessageId,Sub-messageId,Data(Bytes)
# 
# Status,UnixTimeMillis,SignalCount,SignalIndex,ConstellationType,Svid,CarrierFrequencyHz,Cn0DbHz,AzimuthDegrees,ElevationDegrees,UsedInFix,HasAlmanacData,HasEphemerisData,BasebandCn0DbHz
# 
# Agc,utcTimeMillis,TimeNanos,LeapSecond,TimeUncertaintyNanos,FullBiasNanos,BiasNanos,BiasUncertaintyNanos,DriftNanosPerSecond,DriftUncertaintyNanosPerSecond,HardwareClockDiscontinuityCount,AgcDb,CarrierFrequencyHz,ConstellationType
# 
Status,,17,0,1,3,1575420030,31.90,320.41486,53.570724,1,1,1,26.9
Status,,17,1,1,16,1575420030,36.30,110.52842,69.89818,1,1,1,31.3
Status,,17,2,1,21,1575420030,30.80,213.37471,20.87159,1,1,1,25.8
Status,,17,3,1,26,1575420030,35.00,47.292027,47.164867,1,1,1,30.0
Status,,17,4,1,31,1575420030,28.90,24.828434,28.54999,1,1,1,23.9
Status,,17,5,2,128,1575420030,39.20,0.0,0.0,0,0,0,34.2
Status,,17,6,3,9,1600875010,28.20,327.12302,75.14408,1,1,1,23.2
Status,,17,7,3,5,1602562560,33.90,113.6854,21.627247,1,1,1,28.9
Status,,17,8,5,41,1561097980,32.20,95.16259,55.797455,1,1,1,27.2
Status,,17,9,5,37,1561097980,31.60,253.02739,59.207584,1,1,1,26.6
Status,,17,10,5,32,1561097980,31.30,348.96933,48.90278,1,1,1,26.3
Status,,17,11,5,13,1561097980,37.10,167.48961,50.962776,1,1,1,32.1
Status,,17,12,5,9,1561097980,33.40,8.183884,43.972935,1,1,1,28.4
Status,,17,13,6,30,1575420030,36.30,135.70995,71.098755,1,1,1,31.3
Status,,17,14,1,3,1176450050,32.80,320.41486,53.570724,1,1,1,27.8
Status,,17,15,1,26,1176450050,27.20,47.292027,47.164867,1,1,1,22.2
Status,,17,16,6,30,1176450050,24.20,135.70995,71.098755,1,1,1,19.2
Raw,1730962656022,912733374000000,18,0.0,-1414085140648237759,-0.023904800415039062,102375.5893111229,3.161544884533816,47.28927377102199,23,3,0.0,16399,370673952405935,21,36.9,-358.3324890136719,0.8955000042915344,16,0.0,0.0,1575420030,,,,0,0.0,1,-52.01,31.9,0.0,0.0,,,C,760698148994135,0
Raw,1730962656022,912733374000000,18,0.0,-1414085140648237759,-0.023904800415039062,102375.5893111229,3.161544884533816,47.28927377102199,23,16,0.0,16399,370673954763421,13,41.3,-110.33226776123047,0.7325000166893005,16,0.0,0.0,1575420030,,,,0,0.0,1,-52.01,36.3,0.0,0.0,,,C,760698148994135,0
Raw,1730962656022,912733374000000,18,0.0,-1414085140648237759,-0.023904800415039062,102375.5893111229,3.161544884533816,47.28927377102199,23,21,0.0,16399,370673942892213,24,35.8,239.43701171875,0.5954999923706055,16,0.0,0.0,1575420030,,,,0,0.0,1,-52.01,30.799999999999997,0.0,0.0,,,C,760698148994135,0
Raw,1730962656022,912733374000000,18,0.0,-1414085140648237759,-0.023904800415039062,102375.5893111229,3.161544884533816,47.28927377102199,23,26,0.0,16399,370673951291665,14,40.0,408.40826416015625,0.8569999933242798,16,0.0,0.0,1575420030,,,,0,0.0,1,-52.01,35.0,0.0,0.0,,,C,760698148994135,0
Raw,1730962656022,912733374000000,18,0.0,-1414085140648237759,-0.023904800415039062,102375.5893111229,3.161544884533816,47.28927377102199,23,31,0.0,16399,370673946255358,31,33.9,468.98828125,0.6795000433921814,16,0.0,0.0,1575420030,,,,0,0.0,1,-52.01,28.9,0.0,0.0,,,C,760698148994135,0
Raw,1730962656022,912733374000000,18,0.0,-1414085140648237759,-0.023904800415039062,102375.5893111229,3.161544884533816,47.28927377102199,23,9,0.0,49359,35855957940429,31,32.2,177.4644012451172,1.1629999876022339,16,0.0,0.0,1600875010,,,,0,0.0,3,-55.02,28.200000000000003,3802.63623046875,18.55632972717285,,,C,760698148994135,0
Raw,1730962656022,912733374000000,18,0.0,-1414085140648237759,-0.023904800415039062,102375.5893111229,3.161544884533816,47.28927377102199,23,5,0.0,49359,35855947527792,17,37.9,316.37396240234375,0.968000054359436,16,0.0,0.0,1602562560,,,,0,0.0,3,-55.02,33.9,3802.63623046875,18.55632972717285,,,C,760698148994135,0
Raw,1730962656022,912733374000000,18,0.0,-1414085140648237759,-0.023904800415039062,102375.5893111229,3.161544884533816,47.28927377102199,23,41,0.0,16399,370659946581865,19,36.5,83.52758026123047,0.934499979019165,16,0.0,0.0,1561097980,,,,0,0.0,5,-60.72,32.2,-1544.6295166015625,16.840097427368164,,,I,760698148994135,0
Raw,1730962656022,912733374000000,18,0.0,-1414085140648237759,-0.023904800415039062,102375.5893111229,3.161544884533816,47.28927377102199,23,37,0.0,16399,370659947233494,21,35.9,-145.14344787597656,1.0380001068115234,16,0.0,0.0,1561097980,,,,0,0.0,5,-60.72,31.599999999999998,-1544.6295166015625,16.840097427368164,,,I,760698148994135,0
Raw,1730962656022,912733374000000,18,0.0,-1414085140648237759,-0.023904800415039062,102375.5893111229,3.161544884533816,47.28927377102199,23,32,0.0,16399,370659945408720,21,35.6,-400.0854797363281,1.0410000085830688,16,0.0,0.0,1561097980,,,,0,0.0,5,-60.72,31.3,-1544.6295166015625,16.840097427368164,,,I,760698148994135,0
Raw,1730962656022,912733374000000,18,0.0,-1414085140648237759,-0.023904800415039062,102375.5893111229,3.161544884533816,47.28927377102199,23,13,0.0,16399,370659899595579,12,41.4,211.32986450195312,0.8600000143051147,16,0.0,0.0,1561097980,,,,0,0.0,5,-60.72,37.1,-1544.6295166015625,16.840097427368164,,,I,760698148994135,0
Raw,1730962656022,912733374000000,18,0.0,-1414085140648237759,-0.023904800415039062,102375.5893111229,3.161544884533816,47.28927377102199,23,9,0.0,16399,370659894986669,17,37.7,110.2210693359375,0.9125000238418579,16,0.0,0.0,1561097980,,,,0,0.0,5,-60.72,33.400000000000006,-1544.6295166015625,16.840097427368164,,,I,760698148994135,0
Raw,1730962656022,912733374000000,18,0.0,-1414085140648237759,-0.023904800415039062,102375.5893111229,3.161544884533816,47.28927377102199,23,30,0.0,23567,370673943005648,13,40.6,-156.07887268066406,0.7400000095367432,16,0.0,0.0,1575420030,,,,0,0.0,6,-55.77,36.300000000000004,-1466.881591796875,18.683883666992188,,,C,760698148994135,0
Raw,1730962656022,912733374000000,18,0.0,-1414085140648237759,-0.023904800415039062,102375.5893111229,3.161544884533816,47.28927377102199,23,3,0.0,81935,370673952405823,5,37.8,-357.9824523925781,0.840499997138977,16,0.0,0.0,1176450050,,,,0,0.0,1,-40.65,32.8,21.17101287841797,5.249935626983643,,,Q,760698148994135,0
Raw,1730962656022,912733374000000,18,0.0,-1414085140648237759,-0.023904800415039062,102375.5893111229,3.161544884533816,47.28927377102199,23,26,0.0,81935,370673951291580,8,32.2,408.3492126464844,1.1119999885559082,16,0.0,0.0,1176450050,,,,0,0.0,1,-40.65,27.200000000000003,21.17101287841797,5.249935626983643,,,Q,760698148994135,0
Raw,1730962656022,912733374000000,18,0.0,-1414085140648237759,-0.023904800415039062,102375.5893111229,3.161544884533816,47.28927377102199,23,30,0.0,81935,370673943005605,11,29.5,-156.2987823486328,1.24399995803833,16,0.0,0.0,1176450050,,,,0,0.0,6,-40.65,24.2,-1453.06982421875,204776.453125,,,Q,760698148994135,0
Agc,1730962656022,912733374000000,18,0.0,-1414085140648237759,-0.023904800415039062,102375.5893111229,3.161544884533816,47.28927377102199,23,-52.01,1575420000,1
Agc,1730962656022,912733374000000,18,0.0,-1414085140648237759,-0.023904800415039062,102375.5893111229,3.161544884533816,47.28927377102199,23,-52.01,1575420000,4
Agc,1730962656022,912733374000000,18,0.0,-1414085140648237759,-0.023904800415039062,102375.5893111229,3.161544884533816,47.28927377102199,23,-55.02,1602000000,3
Agc,1730962656022,912733374000000,18,0.0,-1414085140648237759,-0.023904800415039062,102375.5893111229,3.161544884533816,47.28927377102199,23,-60.72,1561098000,5
Agc,1730962656022,912733374000000,18,0.0,-1414085140648237759,-0.023904800415039062,102375.5893111229,3.161544884533816,47.28927377102199,23,-55.77,1575420000,6
Agc,1730962656022,912733374000000,18,0.0,-1414085140648237759,-0.023904800415039062,102375.5893111229,3.161544884533816,47.28927377102199,23,-40.65,1176450000,1
Agc,1730962656022,912733374000000,18,0.0,-1414085140648237759,-0.023904800415039062,102375.5893111229,3.161544884533816,47.28927377102199,23,-40.65,1176450000,4
Agc,1730962656022,912733374000000,18,0.0,-1414085140648237759,-0.023904800415039062,102375.5893111229,3.161544884533816,47.28927377102199,23,-40.65,1176450000,6
Agc,1730962656022,912733374000000,18,0.0,-1414085140648237759,-0.023904800415039062,102375.5893111229,3.161544884533816,47.28927377102199,23,-40.65,1176450000,5
Agc,1730962656022,912733374000000,18,0.0,-1414085140648237759,-0.023904800415039062,102375.5893111229,3.161544884533816,47.28927377102199,23,-55.77,1575420000,5
Status,,67,0,1,2,1575420030,26.00,231.07205,21.408396,1,1,1,21.0
Status,,67,1,1,3,1575420030,28.00,320.41077,53.57486,1,1,1,23.0
Status,,67,2,1,16,1575420030,38.10,110.51421,69.89968,1,1,1,33.1
Status,,67,3,1,21,1575420030,25.70,213.37096,20.86958,1,1,1,20.7
Status,,67,4,1,26,1575420030,35.20,47.28819,47.161335,1,1,1,30.2
Status,,67,5,1,27,1575420030,34.50,150.2821,18.52925,1,1,1,29.5
Status,,67,6,1,28,1575420030,23.20,44.787586,5.765237,0,1,1,18.2
Status,,67,7,1,31,1575420030,25.20,24.831503,28.547249,1,1,1,20.2
Status,,67,8,1,32,1575420030,24.50,97.21837,10.730169,0,1,1,19.5
Status,,67,9,4,194,1575420030,27.20,65.70091,24.814365,0,1,1,22.2
Status,,67,10,4,196,1575420030,30.60,109.07192,30.884066,1,1,1,25.6
Status,,67,11,2,128,1575420030,43.30,0.0,0.0,0,0,0,38.3
Status,,67,12,3,9,1600875010,37.10,327.13586,75.13979,1,1,1,32.1
Status,,67,13,3,16,1601437440,24.50,21.641247,24.221199,0,1,1,19.5
Status,,67,14,3,5,1602562560,28.10,113.690346,21.625498,1,1,1,23.1
Status,,67,15,3,7,1604812540,26.70,344.13815,20.847593,0,1,1,21.7
Status,,67,16,5,60,1561097980,38.00,169.72472,73.68563,0,1,0,33.0
Status,,67,17,5,59,1561097980,27.70,96.981125,18.499268,0,1,0,22.7
Status,,67,18,5,41,1561097980,38.40,95.17056,55.796524,1,1,1,33.4
Status,,67,19,5,40,1561097980,29.00,118.26989,27.304054,1,1,1,24.0
Status,,67,20,5,39,1561097980,26.90,33.017056,27.199888,0,1,1,21.9
Status,,67,21,5,38,1561097980,37.60,157.31683,27.582657,1,1,1,32.6
Status,,67,22,5,37,1561097980,32.90,253.0353,59.209408,1,1,1,27.9
Status,,67,23,5,32,1561097980,41.90,348.9711,48.90665,1,1,1,36.9
Status,,67,24,5,23,1561097980,30.70,15.40097,55.47278,1,1,1,25.7
Status,,67,25,5,13,1561097980,38.30,167.49214,50.96075,1,1,1,33.3
Status,,67,26,5,10,1561097980,33.80,142.76762,37.98738,1,1,1,28.8
Status,,67,27,5,9,1561097980,33.10,8.184728,43.972034,1,1,1,28.1
Status,,67,28,5,8,1561097980,33.20,161.87648,38.793938,0,1,1,28.2
Status,,67,29,5,7,1561097980,30.30,127.55761,37.579254,1,1,1,25.3
Status,,67,30,5,3,1561097980,39.80,109.75008,48.991634,1,1,1,34.8
Status,,67,31,5,2,1561097980,39.30,150.94962,74.27327,0,1,1,34.3
Status,,67,32,6,2,1575420030,31.50,48.31398,35.553696,0,1,1,26.5
Status,,67,33,6,3,1575420030,20.90,85.95887,17.947979,0,1,1,15.9
Status,,67,34,6,7,1575420030,24.10,330.14102,26.912586,1,1,1,19.1
Status,,67,35,6,8,1575420030,30.80,33.14671,42.002533,0,1,1,25.8
Status,,67,36,6,13,1575420030,25.70,237.3505,29.63018,0,1,1,20.7
Status,,67,37,6,15,1575420030,24.90,183.05147,16.21029,1,1,1,19.9
Status,,67,38,6,27,1575420030,32.10,200.36176,29.508913,1,1,1,27.1
Status,,67,39,6,30,1575420030,41.30,135.7016,71.10185,1,1,1,36.3
Status,,67,40,1,3,1176450050,37.70,320.41077,53.57486,1,1,1,32.7
Status,,67,41,1,26,1176450050,25.10,47.28819,47.161335,1,1,1,20.1
Status,,67,42,1,27,1176450050,21.70,150.2821,18.52925,0,1,1,16.7
Status,,67,43,4,196,1176450050,26.60,109.07192,30.884066,0,1,1,21.6
Status,,67,44,6,2,1176450050,24.40,48.31398,35.553696,0,1,1,19.4
Status,,67,45,6,7,1176450050,22.40,330.14102,26.912586,1,1,1,17.4
Status,,67,46,6,8,1176450050,22.80,33.14671,42.002533,1,1,1,17.8
Status,,67,47,6,13,1176450050,26.40,237.3505,29.63018,1,1,1,21.4
Status,,67,48,6,15,1176450050,20.00,183.05147,16.21029,0,1,1,15.0
Status,,67,49,6,27,1176450050,22.20,200.36176,29.508913,0,1,1,17.2
Status,,67,50,6,30,1176450050,25.80,135.7016,71.10185,1,1,1,20.8
Status,,67,51,5,23,1176450050,23.60,15.40097,55.47278,0,1,1,18.6
Status,,67,52,5,32,1176450050,35.80,348.9711,48.90665,1,1,1,30.8
Status,,67,53,5,37,1176450050,22.60,253.0353,59.209408,0,1,1,17.6
Status,,67,54,5,38,1176450050,26.40,157.31683,27.582657,0,1,1,21.4
Status,,67,55,5,39,1176450050,22.70,33.017056,27.199888,0,1,1,17.7
Status,,67,56,5,40,1176450050,22.10,118.26989,27.304054,0,1,1,17.1
Status,,67,57,5,41,1176450050,25.30,95.17056,55.796524,1,1,1,20.3
Status,,67,58,5,23,1575420030,31.00,15.40097,55.47278,0,1,1,26.0
Status,,67,59,5,25,1575420030,20.90,37.075798,7.5686455,0,1,1,15.9
Status,,67,60,5,28,1575420030,20.60,164.5106,7.719414,0,1,1,15.6
Status,,67,61,5,32,1575420030,40.40,348.9711,48.90665,1,1,1,35.4
Status,,67,62,5,37,1575420030,31.10,253.0353,59.209408,0,1,1,26.1
Status,,67,63,5,38,1575420030,37.80,157.31683,27.582657,1,1,1,32.8
Status,,67,64,5,39,1575420030,25.80,33.017056,27.199888,0,1,1,20.8
Status,,67,65,5,40,1575420030,28.60,118.26989,27.304054,1,1,1,23.6
Status,,67,66,5,41,1575420030,37.00,95.17056,55.796524,0,1,1,32.0
Raw,1730962657422,912734774000000,18,0.0,-1414085140648236589,-0.7446870803833008,50.21944525651634,1.9409132431348002,12.346932835518892,23,2,0.0,16399,370675343387790,40,31.0,222.36767578125,0.7489999532699585,16,0.0,0.0,1575420030,,,,0,0.0,1,-52.01,26.0,0.0,0.0,,,C,760699549510020,0
Raw,1730962657422,912734774000000,18,0.0,-1414085140648236589,-0.7446870803833008,50.21944525651634,1.9409132431348002,12.346932835518892,23,3,0.0,16399,370675352407557,31,33.0,-357.9423828125,0.6255000233650208,16,0.0,0.0,1575420030,,,,0,0.0,1,-52.01,28.0,0.0,0.0,,,C,760699549510020,0
Raw,1730962657422,912734774000000,18,0.0,-1414085140648236589,-0.7446870803833008,50.21944525651634,1.9409132431348002,12.346932835518892,23,16,0.0,16399,370675354763950,11,43.1,-110.41255950927734,0.029198337346315384,16,0.0,0.0,1575420030,,,,0,0.0,1,-52.01,38.1,0.0,0.0,,,C,760699549510020,0
Raw,1730962657422,912734774000000,18,0.0,-1414085140648236589,-0.7446870803833008,50.21944525651634,1.9409132431348002,12.346932835518892,23,21,0.0,16399,370675342890985,46,30.7,238.7139129638672,0.8104999661445618,16,0.0,0.0,1575420030,,,,0,0.0,1,-52.01,25.7,0.0,0.0,,,C,760699549510020,0
Raw,1730962657422,912734774000000,18,0.0,-1414085140648236589,-0.7446870803833008,50.21944525651634,1.9409132431348002,12.346932835518892,23,26,0.0,16399,370675351289714,14,40.2,408.4425964355469,0.6073766946792603,16,0.0,0.0,1575420030,,,,0,0.0,1,-52.01,35.2,0.0,0.0,,,C,760699549510020,0
Raw,1730962657422,912734774000000,18,0.0,-1414085140648236589,-0.7446870803833008,50.21944525651634,1.9409132431348002,12.346932835518892,23,27,0.0,16399,370675342669507,16,39.5,-364.0218200683594,0.054905232042074203,16,0.0,0.0,1575420030,,,,0,0.0,1,-52.01,34.5,0.0,0.0,,,C,760699549510020,0
Raw,1730962657422,912734774000000,18,0.0,-1414085140648236589,-0.7446870803833008,50.21944525651634,1.9409132431348002,12.346932835518892,23,28,0.0,16399,370675337881235,61,28.2,439.69256591796875,1.0469999313354492,16,0.0,0.0,1575420030,,,,0,0.0,1,-52.01,23.2,0.0,0.0,,,C,760699549510020,0
Raw,1730962657422,912734774000000,18,0.0,-1414085140648236589,-0.7446870803833008,50.21944525651634,1.9409132431348002,12.346932835518892,23,31,0.0,16399,370675346253177,46,30.2,468.6361999511719,0.8044999837875366,16,0.0,0.0,1575420030,,,,0,0.0,1,-52.01,25.2,0.0,0.0,,,C,760699549510020,0
Raw,1730962657422,912734774000000,18,0.0,-1414085140648236589,-0.7446870803833008,50.21944525651634,1.9409132431348002,12.346932835518892,23,32,0.0,16399,370675339932377,53,29.5,234.46083068847656,0.949999988079071,16,0.0,0.0,1575420030,,,,0,0.0,1,-52.01,24.5,0.0,0.0,,,C,760699549510020,0
Raw,1730962657422,912734774000000,18,0.0,-1414085140648236589,-0.7446870803833008,50.21944525651634,1.9409132431348002,12.346932835518892,23,194,0.0,16399,370675284529879,35,32.2,119.94210052490234,0.7774999737739563,16,0.0,0.0,1575420030,,,,0,0.0,4,-52.01,27.200000000000003,0.0,0.0,,,C,760699549510020,0
Raw,1730962657422,912734774000000,18,0.0,-1414085140648236589,-0.7446870803833008,50.21944525651634,1.9409132431348002,12.346932835518892,23,196,0.0,16399,370675296324158,24,35.6,-191.59169006347656,2.3790273666381836,16,0.0,0.0,1575420030,,,,0,0.0,4,-52.01,30.6,0.0,0.0,,,C,760699549510020,0
Raw,1730962657422,912734774000000,18,0.0,-1414085140648236589,-0.7446870803833008,50.21944525651634,1.9409132431348002,12.346932835518892,23,9,0.0,49359,35857357939660,12,41.1,177.12295532226562,0.025378355756402016,16,0.0,0.0,1600875010,,,,0,0.0,3,-55.05,37.1,3802.9921875,11.319950103759766,,,C,760699549510020,0
Raw,1730962657422,912734774000000,18,0.0,-1414085140648236589,-0.7446870803833008,50.21944525651634,1.9409132431348002,12.346932835518892,23,16,0.0,49359,35857348080095,53,28.5,728.478271484375,1.0334999561309814,16,0.0,0.0,1601437440,,,,0,0.0,3,-55.05,24.5,3802.9921875,11.319950103759766,,,C,760699549510020,0
Raw,1730962657422,912734774000000,18,0.0,-1414085140648236589,-0.7446870803833008,50.21944525651634,1.9409132431348002,12.346932835518892,23,5,0.0,49359,35857347526173,31,32.1,315.6163024902344,0.6829999685287476,16,0.0,0.0,1602562560,,,,0,0.0,3,-55.05,28.1,3802.9921875,11.319950103759766,,,C,760699549510020,0
Raw,1730962657422,912734774000000,18,0.0,-1414085140648236589,-0.7446870803833008,50.21944525651634,1.9409132431348002,12.346932835518892,23,7,0.0,49359,35857347048167,40,30.7,-606.8844604492188,0.9020000100135803,16,0.0,0.0,1604812540,,,,0,0.0,3,-55.05,26.7,3802.9921875,11.319950103759766,,,C,760699549510020,0
Raw,1730962657422,912734774000000,18,0.0,-1414085140648236589,-0.7446870803833008,50.21944525651634,1.9409132431348002,12.346932835518892,23,60,0.0,16399,370661302199886,11,42.3,5.329095840454102,1.4071999788284302,16,0.0,0.0,1561097980,,,,0,0.0,5,-60.7,38.0,-1546.54345703125,9.634908676147461,,,I,760699549510020,0
Raw,1730962657422,912734774000000,18,0.0,-1414085140648236589,-0.7446870803833008,50.21944525651634,1.9409132431348002,12.346932835518892,23,59,0.0,16399,370661289777029,35,32.0,0.3744770288467407,3.79259991645813,16,0.0,0.0,1561097980,,,,0,0.0,5,-60.7,27.7,-1546.54345703125,9.634908676147461,,,I,760699549510020,0
Raw,1730962657422,912734774000000,18,0.0,-1414085140648236589,-0.7446870803833008,50.21944525651634,1.9409132431348002,12.346932835518892,23,41,0.0,16399,370661346581467,11,42.7,83.27474975585938,0.04125979170203209,16,0.0,0.0,1561097980,,,,0,0.0,5,-60.7,38.400000000000006,-1546.54345703125,9.634908676147461,,,I,760699549510020,0
Raw,1730962657422,912734774000000,18,0.0,-1414085140648236589,-0.7446870803833008,50.21944525651634,1.9409132431348002,12.346932835518892,23,40,0.0,16399,370661292020633,27,33.3,-291.8712158203125,0.6255000233650208,16,0.0,0.0,1561097980,,,,0,0.0,5,-60.7,28.999999999999996,-1546.54345703125,9.634908676147461,,,I,760699549510020,0
Raw,1730962657422,912734774000000,18,0.0,-1414085140648236589,-0.7446870803833008,50.21944525651634,1.9409132431348002,12.346932835518892,23,39,0.0,16399,370661292501892,40,31.2,53.7326545715332,0.8495000004768372,16,0.0,0.0,1561097980,,,,0,0.0,5,-60.7,26.9,-1546.54345703125,9.634908676147461,,,I,760699549510020,0
Raw,1730962657422,912734774000000,18,0.0,-1414085140648236589,-0.7446870803833008,50.21944525651634,1.9409132431348002,12.346932835518892,23,38,0.0,16399,370661293241852,12,41.9,249.73153686523438,0.031566355377435684,16,0.0,0.0,1561097980,,,,0,0.0,5,-60.7,37.6,-1546.54345703125,9.634908676147461,,,I,760699549510020,0
Raw,1730962657422,912734774000000,18,0.0,-1414085140648236589,-0.7446870803833008,50.21944525651634,1.9409132431348002,12.346932835518892,23,37,0.0,16399,370661347234196,19,37.2,-145.12908935546875,4.091773986816406,16,0.0,0.0,1561097980,,,,0,0.0,5,-60.7,32.900000000000006,-1546.54345703125,9.634908676147461,,,I,760699549510020,0
Raw,1730962657422,912734774000000,18,0.0,-1414085140648236589,-0.7446870803833008,50.21944525651634,1.9409132431348002,12.346932835518892,23,32,0.0,16399,370661345410567,8,46.2,-399.4701843261719,0.040743377059698105,16,0.0,0.0,1561097980,,,,0,0.0,5,-60.7,41.900000000000006,-1546.54345703125,9.634908676147461,,,I,760699549510020,0
Raw,1730962657422,912734774000000,18,0.0,-1414085140648236589,-0.7446870803833008,50.21944525651634,1.9409132431348002,12.346932835518892,23,23,0.0,16399,370661346585789,24,35.0,360.5448913574219,4.72014856338501,16,0.0,0.0,1561097980,,,,0,0.0,5,-60.7,30.7,-1546.54345703125,9.634908676147461,,,I,760699549510020,0
Raw,1730962657422,912734774000000,18,0.0,-1414085140648236589,-0.7446870803833008,50.21944525651634,1.9409132431348002,12.346932835518892,23,13,0.0,16399,370661299594597,11,42.6,211.11441040039062,0.05175979062914848,16,0.0,0.0,1561097980,,,,0,0.0,5,-60.7,38.300000000000004,-1546.54345703125,9.634908676147461,,,I,760699549510020,0
Raw,1730962657422,912734774000000,18,0.0,-1414085140648236589,-0.7446870803833008,50.21944525651634,1.9409132431348002,12.346932835518892,23,10,0.0,16399,370661295033844,17,38.1,-213.6494140625,0.03693927824497223,16,0.0,0.0,1561097980,,,,0,0.0,5,-60.7,33.800000000000004,-1546.54345703125,9.634908676147461,,,I,760699549510020,0
Raw,1730962657422,912734774000000,18,0.0,-1414085140648236589,-0.7446870803833008,50.21944525651634,1.9409132431348002,12.346932835518892,23,9,0.0,16399,370661294986164,17,37.4,109.65764617919922,1.190676212310791,16,0.0,0.0,1561097980,,,,0,0.0,5,-60.7,33.1,-1546.54345703125,9.634908676147461,,,I,760699549510020,0
Raw,1730962657422,912734774000000,18,0.0,-1414085140648236589,-0.7446870803833008,50.21944525651634,1.9409132431348002,12.346932835518892,23,8,0.0,16399,370661295532774,17,37.5,251.44790649414062,0.15993928909301758,16,0.0,0.0,1561097980,,,,0,0.0,5,-60.7,33.2,-1546.54345703125,9.634908676147461,,,I,760699549510020,0
Raw,1730962657422,912734774000000,18,0.0,-1414085140648236589,-0.7446870803833008,50.21944525651634,1.9409132431348002,12.346932835518892,23,7,0.0,16399,370661295077743,24,34.6,-232.0665740966797,0.6738190650939941,16,0.0,0.0,1561097980,,,,0,0.0,5,-60.7,30.3,-1546.54345703125,9.634908676147461,,,I,760699549510020,0
Raw,1730962657422,912734774000000,18,0.0,-1414085140648236589,-0.7446870803833008,50.21944525651634,1.9409132431348002,12.346932835518892,23,3,0.0,16399,370661299081672,10,44.1,2.233003616333008,0.17162740230560303,16,0.0,0.0,1561097980,,,,0,0.0,5,-60.7,39.800000000000004,-1546.54345703125,9.634908676147461,,,I,760699549510020,0
Raw,1730962657422,912734774000000,18,0.0,-1414085140648236589,-0.7446870803833008,50.21944525651634,1.9409132431348002,12.346932835518892,23,2,0.0,16399,370661302923318,10,43.6,4.049249649047852,0.8812459111213684,16,0.0,0.0,1561097980,,,,0,0.0,5,-60.7,39.300000000000004,-1546.54345703125,9.634908676147461,,,I,760699549510020,0
Raw,1730962657422,912734774000000,18,0.0,-1414085140648236589,-0.7446870803833008,50.21944525651634,1.9409132431348002,12.346932835518892,23,2,0.0,23567,370675337590906,21,35.8,327.02703857421875,0.1961054801940918,16,0.0,0.0,1575420030,,,,0,0.0,6,-55.79,31.499999999999996,-1465.1737060546875,10.130147933959961,,,C,760699549510020,0
Raw,1730962657422,912734774000000,18,0.0,-1414085140648236589,-0.7446870803833008,50.21944525651634,1.9409132431348002,12.346932835518892,23,3,0.0,23567,370675331991747,92,25.2,100.67486572265625,1.2939999103546143,16,0.0,0.0,1575420030,,,,0,0.0,6,-55.79,20.9,-1465.1737060546875,10.130147933959961,,,C,760699549510020,0
Raw,1730962657422,912734774000000,18,0.0,-1414085140648236589,-0.7446870803833008,50.21944525651634,1.9409132431348002,12.346932835518892,23,7,0.0,23567,370675334810819,53,28.4,-237.89459228515625,2.4215331077575684,16,0.0,0.0,1575420030,,,,0,0.0,6,-55.79,24.099999999999998,-1465.1737060546875,10.130147933959961,,,C,760699549510020,0
Raw,1730962657422,912734774000000,18,0.0,-1414085140648236589,-0.7446870803833008,50.21944525651634,1.9409132431348002,12.346932835518892,23,8,0.0,23567,370675338643459,24,35.1,-99.73011016845703,5.558280944824219,16,0.0,0.0,1575420030,,,,0,0.0,6,-55.79,30.8,-1465.1737060546875,10.130147933959961,,,C,760699549510020,0
Raw,1730962657422,912734774000000,18,0.0,-1414085140648236589,-0.7446870803833008,50.21944525651634,1.9409132431348002,12.346932835518892,23,13,0.0,23567,370675335760578,46,30.0,306.2640686035156,1.7472115755081177,16,0.0,0.0,1575420030,,,,0,0.0,6,-55.79,25.7,-1465.1737060546875,10.130147933959961,,,C,760699549510020,0
Raw,1730962657422,912734774000000,18,0.0,-1414085140648236589,-0.7446870803833008,50.21944525651634,1.9409132431348002,12.346932835518892,23,15,0.0,23567,370675331498821,53,29.2,406.69873046875,1.652548909187317,16,0.0,0.0,1575420030,,,,0,0.0,6,-55.79,24.9,-1465.1737060546875,10.130147933959961,,,C,760699549510020,0
Raw,1730962657422,912734774000000,18,0.0,-1414085140648236589,-0.7446870803833008,50.21944525651634,1.9409132431348002,12.346932835518892,23,27,0.0,23567,370675335279049,19,36.4,-512.73681640625,1.6035637855529785,16,0.0,0.0,1575420030,,,,0,0.0,6,-55.79,32.1,-1465.1737060546875,10.130147933959961,,,C,760699549510020,0
Raw,1730962657422,912734774000000,18,0.0,-1414085140648236589,-0.7446870803833008,50.21944525651634,1.9409132431348002,12.346932835518892,23,30,0.0,23567,370675343006383,8,45.6,-156.31971740722656,0.03470025584101677,16,0.0,0.0,1575420030,,,,0,0.0,6,-55.79,41.300000000000004,-1465.1737060546875,10.130147933959961,,,C,760699549510020,0
Raw,1730962657422,912734774000000,18,0.0,-1414085140648236589,-0.7446870803833008,50.21944525651634,1.9409132431348002,12.346932835518892,23,3,0.0,81935,370675352407498,3,42.7,-358.034912109375,0.029540225863456726,16,0.0,0.0,1176450050,,,,0,0.0,1,-40.19,37.7,21.16521453857422,5.255616664886475,,,Q,760699549510020,0
Raw,1730962657422,912734774000000,18,0.0,-1414085140648236589,-0.7446870803833008,50.21944525651634,1.9409132431348002,12.346932835518892,23,26,0.0,81935,370675351289663,10,30.1,408.4292907714844,1.6062157154083252,16,0.0,0.0,1176450050,,,,0,0.0,1,-40.19,25.1,21.16521453857422,5.255616664886475,,,Q,760699549510020,0
Raw,1730962657422,912734774000000,18,0.0,-1414085140648236589,-0.7446870803833008,50.21944525651634,1.9409132431348002,12.346932835518892,23,27,0.0,81935,370675342669390,16,26.7,-363.29559326171875,1.3344999551773071,16,0.0,0.0,1176450050,,,,0,0.0,1,-40.19,21.7,21.16521453857422,5.255616664886475,,,Q,760699549510020,0
Raw,1730962657422,912734774000000,18,0.0,-1414085140648236589,-0.7446870803833008,50.21944525651634,1.9409132431348002,12.346932835518892,23,196,0.0,16399,370675296324099,9,31.6,-191.39158630371094,0.9388561248779297,16,0.0,0.0,1176450050,,,,0,0.0,4,-40.19,26.6,21.16521453857422,5.255616664886475,,,Q,760699549510020,0
Raw,1730962657422,912734774000000,18,0.0,-1414085140648236589,-0.7446870803833008,50.21944525651634,1.9409132431348002,12.346932835518892,23,2,0.0,81935,370675337590821,11,29.7,327.18646240234375,1.1269999742507935,16,0.0,0.0,1176450050,,,,0,0.0,6,-40.19,24.4,-1451.3773193359375,108.2654037475586,,,Q,760699549510020,0
Raw,1730962657422,912734774000000,18,0.0,-1414085140648236589,-0.7446870803833008,50.21944525651634,1.9409132431348002,12.346932835518892,23,7,0.0,81935,370675334810759,14,27.7,-237.23216247558594,1.0325000286102295,16,0.0,0.0,1176450050,,,,0,0.0,6,-40.19,22.4,-1451.3773193359375,108.2654037475586,,,Q,760699549510020,0
Raw,1730962657422,912734774000000,18,0.0,-1414085140648236589,-0.7446870803833008,50.21944525651634,1.9409132431348002,12.346932835518892,23,8,0.0,81935,370675338643399,14,28.1,-99.70146942138672,0.9584999680519104,16,0.0,0.0,1176450050,,,,0,0.0,6,-40.19,22.8,-1451.3773193359375,108.2654037475586,,,Q,760699549510020,0
Raw,1730962657422,912734774000000,18,0.0,-1414085140648236589,-0.7446870803833008,50.21944525651634,1.9409132431348002,12.346932835518892,23,13,0.0,81935,370675335760491,9,31.7,306.4745178222656,0.08287201821804047,16,0.0,0.0,1176450050,,,,0,0.0,6,-40.19,26.4,-1451.3773193359375,108.2654037475586,,,Q,760699549510020,0
Raw,1730962657422,912734774000000,18,0.0,-1414085140648236589,-0.7446870803833008,50.21944525651634,1.9409132431348002,12.346932835518892,23,15,0.0,81935,370675331498736,18,25.3,407.22796630859375,1.437999963760376,16,0.0,0.0,1176450050,,,,0,0.0,6,-40.19,20.0,-1451.3773193359375,108.2654037475586,,,Q,760699549510020,0
Raw,1730962657422,912734774000000,18,0.0,-1414085140648236589,-0.7446870803833008,50.21944525651634,1.9409132431348002,12.346932835518892,23,27,0.0,81935,370675335278965,14,27.5,-512.5738525390625,1.2740000486373901,16,0.0,0.0,1176450050,,,,0,0.0,6,-40.19,22.2,-1451.3773193359375,108.2654037475586,,,Q,760699549510020,0
Raw,1730962657422,912734774000000,18,0.0,-1414085140648236589,-0.7446870803833008,50.21944525651634,1.9409132431348002,12.346932835518892,23,30,0.0,81935,370675343006330,10,31.1,-156.27288818359375,0.8297315835952759,16,0.0,0.0,1176450050,,,,0,0.0,6,-40.19,25.8,-1451.3773193359375,108.2654037475586,,,Q,760699549510020,0
Raw,1730962657422,912734774000000,18,0.0,-1414085140648236589,-0.7446870803833008,50.21944525651634,1.9409132431348002,12.346932835518892,23,23,0.0,16399,370661346585732,12,28.1,360.32684326171875,1.1805000305175781,16,0.0,0.0,1176450050,,,,0,0.0,5,-40.19,23.6,-1508.5152587890625,105.97884368896484,,,Q,760699549510020,0
Raw,1730962657422,912734774000000,18,0.0,-1414085140648236589,-0.7446870803833008,50.21944525651634,1.9409132431348002,12.346932835518892,23,32,0.0,16399,370661345410491,4,40.3,-399.50244140625,0.08174140751361847,16,0.0,0.0,1176450050,,,,0,0.0,5,-40.19,35.8,-1508.5152587890625,105.97884368896484,,,Q,760699549510020,0
Raw,1730962657422,912734774000000,18,0.0,-1414085140648236589,-0.7446870803833008,50.21944525651634,1.9409132431348002,12.346932835518892,23,37,0.0,16399,370661347234130,14,27.1,-145.59600830078125,1.2620000839233398,16,0.0,0.0,1176450050,,,,0,0.0,5,-40.19,22.6,-1508.5152587890625,105.97884368896484,,,Q,760699549510020,0
Raw,1730962657422,912734774000000,18,0.0,-1414085140648236589,-0.7446870803833008,50.21944525651634,1.9409132431348002,12.346932835518892,23,38,0.0,16399,370661293241766,9,30.9,249.7848358154297,0.31987202167510986,16,0.0,0.0,1176450050,,,,0,0.0,5,-40.19,26.4,-1508.5152587890625,105.97884368896484,,,Q,760699549510020,0
Raw,1730962657422,912734774000000,18,0.0,-1414085140648236589,-0.7446870803833008,50.21944525651634,1.9409132431348002,12.346932835518892,23,39,0.0,16399,370661292501850,14,27.2,54.07450866699219,1.2695000171661377,16,0.0,0.0,1176450050,,,,0,0.0,5,-40.19,22.7,-1508.5152587890625,105.97884368896484,,,Q,760699549510020,0
Raw,1730962657422,912734774000000,18,0.0,-1414085140648236589,-0.7446870803833008,50.21944525651634,1.9409132431348002,12.346932835518892,23,40,0.0,16399,370661292020558,14,26.6,-291.85455322265625,1.3494999408721924,16,0.0,0.0,1176450050,,,,0,0.0,5,-40.19,22.1,-1508.5152587890625,105.97884368896484,,,Q,760699549510020,0
Raw,1730962657422,912734774000000,18,0.0,-1414085140648236589,-0.7446870803833008,50.21944525651634,1.9409132431348002,12.346932835518892,23,41,0.0,16399,370661346581363,10,29.8,83.20301055908203,2.4231996536254883,16,0.0,0.0,1176450050,,,,0,0.0,5,-40.19,25.3,-1508.5152587890625,105.97884368896484,,,Q,760699549510020,0
Raw,1730962657422,912734774000000,18,0.0,-1414085140648236589,-0.7446870803833008,50.21944525651634,1.9409132431348002,12.346932835518892,23,23,0.0,16399,370661346585765,6,38.0,360.2244873046875,2.4781293869018555,16,0.0,0.0,1575420030,,,,0,0.0,5,-55.79,31.0,-1556.411376953125,103.47049713134766,,,P,760699549510020,0
Raw,1730962657422,912734774000000,18,0.0,-1414085140648236589,-0.7446870803833008,50.21944525651634,1.9409132431348002,12.346932835518892,23,25,0.0,16399,370661334939827,18,27.9,559.46337890625,1.3224999904632568,16,0.0,0.0,1575420030,,,,0,0.0,5,-55.79,20.9,-1556.411376953125,103.47049713134766,,,P,760699549510020,0
Raw,1730962657422,912734774000000,18,0.0,-1414085140648236589,-0.7446870803833008,50.21944525651634,1.9409132431348002,12.346932835518892,23,28,0.0,16399,370661334790989,18,27.6,12.00753116607666,1.412500023841858,16,0.0,0.0,1575420030,,,,0,0.0,5,-55.79,20.6,-1556.411376953125,103.47049713134766,,,P,760699549510020,0
Raw,1730962657422,912734774000000,18,0.0,-1414085140648236589,-0.7446870803833008,50.21944525651634,1.9409132431348002,12.346932835518892,23,32,0.0,16399,370661345410579,2,47.4,-399.4679870605469,0.0893092006444931,16,0.0,0.0,1575420030,,,,0,0.0,5,-55.79,40.4,-1556.411376953125,103.47049713134766,,,P,760699549510020,0
Raw,1730962657422,912734774000000,18,0.0,-1414085140648236589,-0.7446870803833008,50.21944525651634,1.9409132431348002,12.346932835518892,23,37,0.0,16399,370661347234214,6,38.1,-144.97598266601562,0.7669864892959595,16,0.0,0.0,1575420030,,,,0,0.0,5,-55.79,31.1,-1556.411376953125,103.47049713134766,,,P,760699549510020,0
Raw,1730962657422,912734774000000,18,0.0,-1414085140648236589,-0.7446870803833008,50.21944525651634,1.9409132431348002,12.346932835518892,23,38,0.0,16399,370661293241865,3,44.8,249.72116088867188,0.0884975716471672,16,0.0,0.0,1575420030,,,,0,0.0,5,-55.79,37.8,-1556.411376953125,103.47049713134766,,,P,760699549510020,0
Raw,1730962657422,912734774000000,18,0.0,-1414085140648236589,-0.7446870803833008,50.21944525651634,1.9409132431348002,12.346932835518892,23,39,0.0,16399,370661292501901,10,32.8,53.645416259765625,0.21374328434467316,16,0.0,0.0,1575420030,,,,0,0.0,5,-55.79,25.799999999999997,-1556.411376953125,103.47049713134766,,,P,760699549510020,0
Raw,1730962657422,912734774000000,18,0.0,-1414085140648236589,-0.7446870803833008,50.21944525651634,1.9409132431348002,12.346932835518892,23,40,0.0,16399,370661292020640,8,35.6,-292.10992431640625,0.09270638227462769,16,0.0,0.0,1575420030,,,,0,0.0,5,-55.79,28.6,-1556.411376953125,103.47049713134766,,,P,760699549510020,0
Raw,1730962657422,912734774000000,18,0.0,-1414085140648236589,-0.7446870803833008,50.21944525651634,1.9409132431348002,12.346932835518892,23,41,0.0,16399,370661346581481,3,44.0,83.31053924560547,0.18299756944179535,16,0.0,0.0,1575420030,,,,0,0.0,5,-55.79,37.0,-1556.411376953125,103.47049713134766,,,P,760699549510020,0
Agc,1730962657422,912734774000000,18,0.0,-1414085140648236589,-0.7446870803833008,50.21944525651634,1.9409132431348002,12.346932835518892,23,-52.01,1575420000,1
Agc,1730962657422,912734774000000,18,0.0,-1414085140648236589,-0.7446870803833008,50.21944525651634,1.9409132431348002,12.346932835518892,23,-52.01,1575420000,4
Agc,1730962657422,912734774000000,18,0.0,-1414085140648236589,-0.7446870803833008,50.21944525651634,1.9409132431348002,12.346932835518892,23,-55.05,1602000000,3
Agc,1730962657422,912734774000000,18,0.0,-1414085140648236589,-0.7446870803833008,50.21944525651634,1.9409132431348002,12.346932835518892,23,-60.7,1561098000,5
Agc,1730962657422,912734774000000,18,0.0,-1414085140648236589,-0.7446870803833008,50.21944525651634,1.9409132431348002,12.346932835518892,23,-55.79,1575420000,6
Agc,1730962657422,912734774000000,18,0.0,-1414085140648236589,-0.7446870803833008,50.21944525651634,1.9409132431348002,12.346932835518892,23,-40.19,1176450000,1
Agc,1730962657422,912734774000000,18,0.0,-1414085140648236589,-0.7446870803833008,50.21944525651634,1.9409132431348002,12.346932835518892,23,-40.19,1176450000,4
Agc,1730962657422,912734774000000,18,0.0,-1414085140648236589,-0.7446870803833008,50.21944525651634,1.9409132431348002,12.346932835518892,23,-40.19,1176450000,6
Agc,1730962657422,912734774000000,18,0.0,-1414085140648236589,-0.7446870803833008,50.21944525651634,1.9409132431348002,12.346932835518892,23,-40.19,1176450000,5
Agc,1730962657422,912734774000000,18,0.0,-1414085140648236589,-0.7446870803833008,50.21944525651634,1.9409132431348002,12.346932835518892,23,-55.79,1575420000,5
Status,,70,0,1,2,1575420030,26.80,231.07205,21.408396,1,1,1,21.8
Status,,70,1,1,3,1575420030,33.70,320.41077,53.57486,1,1,1,28.7
Status,,70,2,1,16,1575420030,39.10,110.51421,69.89968,1,1,1,34.1
Status,,70,3,1,21,1575420030,30.50,213.37096,20.86958,1,1,1,25.5
Status,,70,4,1,26,1575420030,32.20,47.28819,47.161335,1,1,1,27.2
Status,,70,5,1,27,1575420030,33.30,150.2821,18.52925,1,1,1,28.3
Status,,70,6,1,28,1575420030,23.20,44.787586,5.765237,1,1,1,18.2
Status,,70,7,1,31,1575420030,29.90,24.831503,28.547249,1,1,1,24.9
Status,,70,8,1,32,1575420030,25.60,97.21837,10.730169,1,1,1,20.6
Status,,70,9,4,194,1575420030,23.00,65.70091,24.814365,1,1,1,18.0
Status,,70,10,4,196,1575420030,32.30,109.07192,30.884066,1,1,1,27.3
Status,,70,11,2,128,1575420030,44.90,0.0,0.0,0,0,0,39.9
Status,,70,12,3,9,1600875010,37.20,327.13586,75.13979,1,1,1,32.2
Status,,70,13,3,16,1601437440,26.20,21.641247,24.221199,1,1,1,21.2
Status,,70,14,3,5,1602562560,30.20,113.690346,21.625498,1,1,1,25.2
Status,,70,15,3,7,1604812540,25.10,344.13815,20.847593,1,1,1,20.1
Status,,70,16,5,60,1561097980,35.60,169.72472,73.68563,0,1,0,30.6
Status,,70,17,5,59,1561097980,27.70,96.981125,18.499268,0,1,0,22.7
Status,,70,18,5,41,1561097980,37.30,95.17056,55.796524,1,1,1,32.3
Status,,70,19,5,40,1561097980,32.20,118.26989,27.304054,1,1,1,27.2
Status,,70,20,5,39,1561097980,26.80,33.017056,27.199888,0,1,1,21.8
Status,,70,21,5,38,1561097980,40.00,157.31683,27.582657,1,1,1,35.0
Status,,70,22,5,37,1561097980,33.20,253.0353,59.209408,1,1,1,28.2
Status,,70,23,5,32,1561097980,38.70,348.9711,48.90665,1,1,1,33.7
Status,,70,24,5,23,1561097980,29.90,15.40097,55.47278,1,1,1,24.9
Status,,70,25,5,13,1561097980,35.60,167.49214,50.96075,1,1,1,30.6
Status,,70,26,5,10,1561097980,38.10,142.76762,37.98738,1,1,1,33.1
Status,,70,27,5,9,1561097980,35.30,8.184728,43.972034,1,1,1,30.3
Status,,70,28,5,8,1561097980,36.00,161.87648,38.793938,1,1,1,31.0
Status,,70,29,5,7,1561097980,35.40,127.55761,37.579254,1,1,1,30.4
Status,,70,30,5,5,1561097980,28.00,239.84267,64.203926,0,1,1,23.0
Status,,70,31,5,3,1561097980,36.20,109.75008,48.991634,1,1,1,31.2
Status,,70,32,5,2,1561097980,41.10,150.94962,74.27327,1,1,1,36.1
Status,,70,33,5,1,1561097980,26.80,96.66891,13.60663,0,1,1,21.8
Status,,70,34,6,2,1575420030,32.50,48.31398,35.553696,1,1,1,27.5
Status,,70,35,6,3,1575420030,22.90,85.95887,17.947979,1,1,1,17.9
Status,,70,36,6,7,1575420030,22.90,330.14102,26.912586,1,1,1,17.9
Status,,70,37,6,8,1575420030,27.80,33.14671,42.002533,1,1,1,22.8
Status,,70,38,6,13,1575420030,29.70,237.3505,29.63018,1,1,1,24.7
Status,,70,39,6,15,1575420030,24.70,183.05147,16.21029,1,1,1,19.7
Status,,70,40,6,27,1575420030,32.00,200.36176,29.508913,1,1,1,27.0
Status,,70,41,6,30,1575420030,38.10,135.7016,71.10185,1,1,1,33.1
Status,,70,42,1,3,1176450050,35.20,320.41077,53.57486,1,1,1,30.2
Status,,70,43,1,4,1176450050,19.80,325.7033,21.218945,0,1,1,14.8
Status,,70,44,1,26,1176450050,29.50,47.28819,47.161335,1,1,1,24.5
Status,,70,45,1,27,1176450050,24.80,150.2821,18.52925,1,1,1,19.8
Status,,70,46,4,196,1176450050,25.50,109.07192,30.884066,1,1,1,20.5
Status,,70,47,6,2,1176450050,25.20,48.31398,35.553696,1,1,1,20.2
Status,,70,48,6,7,1176450050,22.40,330.14102,26.912586,1,1,1,17.4
Status,,70,49,6,8,1176450050,24.70,33.14671,42.002533,1,1,1,19.7
Status,,70,50,6,13,1176450050,23.40,237.3505,29.63018,1,1,1,18.4
Status,,70,51,6,15,1176450050,20.00,183.05147,16.21029,1,1,1,15.0
Status,,70,52,6,27,1176450050,24.40,200.36176,29.508913,1,1,1,19.4
Status,,70,53,6,30,1176450050,20.70,135.7016,71.10185,1,1,1,15.7
Status,,70,54,5,23,1176450050,23.30,15.40097,55.47278,1,1,1,18.3
Status,,70,55,5,32,1176450050,33.00,348.9711,48.90665,1,1,1,28.0
Status,,70,56,5,37,1176450050,22.70,253.0353,59.209408,1,1,1,17.7
Status,,70,57,5,38,1176450050,29.60,157.31683,27.582657,1,1,1,24.6
Status,,70,58,5,39,1176450050,20.50,33.017056,27.199888,1,1,1,15.5
Status,,70,59,5,40,1176450050,22.70,118.26989,27.304054,1,1,1,17.7
Status,,70,60,5,41,1176450050,22.00,95.17056,55.796524,1,1,1,17.0
Status,,70,61,5,23,1575420030,28.70,15.40097,55.47278,0,1,1,23.7
Status,,70,62,5,25,1575420030,20.90,37.075798,7.5686455,1,1,1,15.9
Status,,70,63,5,28,1575420030,20.60,164.5106,7.719414,1,1,1,15.6
Status,,70,64,5,32,1575420030,34.70,348.9711,48.90665,1,1,1,29.7
Status,,70,65,5,37,1575420030,33.20,253.0353,59.209408,1,1,1,28.2
Status,,70,66,5,38,1575420030,38.90,157.31683,27.582657,1,1,1,33.9
Status,,70,67,5,39,1575420030,23.70,33.017056,27.199888,0,1,1,18.7
Status,,70,68,5,40,1575420030,28.40,118.26989,27.304054,1,1,1,23.4
Status,,70,69,5,41,1575420030,35.20,95.17056,55.796524,1,1,1,30.2
Raw,1730962658422,912735774000000,18,0.0,-1414085140648236578,-0.5390138626098633,33.065043680835515,2.280746799273028,9.719701563702573,23,2,0.0,16399,370676343387052,40,31.8,221.76824951171875,0.7489999532699585,16,0.0,0.0,1575420030,,,,0,0.0,1,-52.03,26.8,0.0,0.0,,,C,760700557245177,0
Raw,1730962658422,912735774000000,18,0.0,-1414085140648236578,-0.5390138626098633,33.065043680835515,2.280746799273028,9.719701563702573,23,3,0.0,16399,370676352408733,17,38.7,-358.0789489746094,1.7539374828338623,16,0.0,0.0,1575420030,,,,0,0.0,1,-52.03,33.7,0.0,0.0,,,C,760700557245177,0
Raw,1730962658422,912735774000000,18,0.0,-1414085140648236578,-0.5390138626098633,33.065043680835515,2.280746799273028,9.719701563702573,23,16,0.0,16399,370676354764321,10,44.1,-110.20096588134766,0.02839910425245762,16,0.0,0.0,1575420030,,,,0,0.0,1,-52.03,39.1,0.0,0.0,,,C,760700557245177,0
Raw,1730962658422,912735774000000,18,0.0,-1414085140648236578,-0.5390138626098633,33.065043680835515,2.280746799273028,9.719701563702573,23,21,0.0,16399,370676342890298,24,35.5,239.42198181152344,1.829146385192871,16,0.0,0.0,1575420030,,,,0,0.0,1,-52.03,30.5,0.0,0.0,,,C,760700557245177,0
Raw,1730962658422,912735774000000,18,0.0,-1414085140648236578,-0.5390138626098633,33.065043680835515,2.280746799273028,9.719701563702573,23,26,0.0,16399,370676351288371,19,37.2,408.54852294921875,2.3362326622009277,16,0.0,0.0,1575420030,,,,0,0.0,1,-52.03,32.2,0.0,0.0,,,C,760700557245177,0
Raw,1730962658422,912735774000000,18,0.0,-1414085140648236578,-0.5390138626098633,33.065043680835515,2.280746799273028,9.719701563702573,23,27,0.0,16399,370676342670738,17,38.3,-364.0501403808594,0.6271753907203674,16,0.0,0.0,1575420030,,,,0,0.0,1,-52.03,33.3,0.0,0.0,,,C,760700557245177,0
Raw,1730962658422,912735774000000,18,0.0,-1414085140648236578,-0.5390138626098633,33.065043680835515,2.280746799273028,9.719701563702573,23,31,0.0,16399,370676346251667,27,34.9,468.6457214355469,0.5945000052452087,16,0.0,0.0,1575420030,,,,0,0.0,1,-52.03,29.9,0.0,0.0,,,C,760700557245177,0
Raw,1730962658422,912735774000000,18,0.0,-1414085140648236578,-0.5390138626098633,33.065043680835515,2.280746799273028,9.719701563702573,23,32,0.0,16399,370676339931552,46,30.6,234.28005981445312,0.8149999976158142,16,0.0,0.0,1575420030,,,,0,0.0,1,-52.03,25.6,0.0,0.0,,,C,760700557245177,0
Raw,1730962658422,912735774000000,18,0.0,-1414085140648236578,-0.5390138626098633,33.065043680835515,2.280746799273028,9.719701563702573,23,194,0.0,16399,370676284529551,61,28.0,119.34268188476562,0.9375,16,0.0,0.0,1575420030,,,,0,0.0,4,-52.03,23.0,0.0,0.0,,,C,760700557245177,0
Raw,1730962658422,912735774000000,18,0.0,-1414085140648236578,-0.5390138626098633,33.065043680835515,2.280746799273028,9.719701563702573,23,196,0.0,16399,370676296324823,19,37.3,-191.35858154296875,1.1869707107543945,16,0.0,0.0,1575420030,,,,0,0.0,4,-52.03,32.3,0.0,0.0,,,C,760700557245177,0
Raw,1730962658422,912735774000000,18,0.0,-1414085140648236578,-0.5390138626098633,33.065043680835515,2.280746799273028,9.719701563702573,23,9,0.0,49359,35858357939064,12,41.2,177.36871337890625,0.025378355756402016,16,0.0,0.0,1600875010,,,,0,0.0,3,-55.03,37.2,3802.994873046875,11.350627899169922,,,C,760700557245177,0
Raw,1730962658422,912735774000000,18,0.0,-1414085140648236578,-0.5390138626098633,33.065043680835515,2.280746799273028,9.719701563702573,23,16,0.0,49359,35858348077629,40,30.2,728.5156860351562,0.8014999628067017,16,0.0,0.0,1601437440,,,,0,0.0,3,-55.03,26.2,3802.994873046875,11.350627899169922,,,C,760700557245177,0
Raw,1730962658422,912735774000000,18,0.0,-1414085140648236578,-0.5390138626098633,33.065043680835515,2.280746799273028,9.719701563702573,23,5,0.0,49359,35858347525263,24,34.2,316.0317687988281,1.230140209197998,16,0.0,0.0,1602562560,,,,0,0.0,3,-55.03,30.200000000000003,3802.994873046875,11.350627899169922,,,C,760700557245177,0
Raw,1730962658422,912735774000000,18,0.0,-1414085140648236578,-0.5390138626098633,33.065043680835515,2.280746799273028,9.719701563702573,23,7,0.0,49359,35858347050258,46,29.1,-606.6416625976562,0.8629999756813049,16,0.0,0.0,1604812540,,,,0,0.0,3,-55.03,25.1,3802.994873046875,11.350627899169922,,,C,760700557245177,0
Raw,1730962658422,912735774000000,18,0.0,-1414085140648236578,-0.5390138626098633,33.065043680835515,2.280746799273028,9.719701563702573,23,60,0.0,16399,370662302199854,14,39.9,9.62117862701416,1.4881000518798828,16,0.0,0.0,1561097980,,,,0,0.0,5,-60.72,35.6,-1546.93408203125,9.464508056640625,,,I,760700557245177,0
Raw,1730962658422,912735774000000,18,0.0,-1414085140648236578,-0.5390138626098633,33.065043680835515,2.280746799273028,9.719701563702573,23,41,0.0,16399,370662346581196,12,41.6,83.6318359375,1.7704217433929443,16,0.0,0.0,1561097980,,,,0,0.0,5,-60.72,37.300000000000004,-1546.93408203125,9.464508056640625,,,I,760700557245177,0
Raw,1730962658422,912735774000000,18,0.0,-1414085140648236578,-0.5390138626098633,33.065043680835515,2.280746799273028,9.719701563702573,23,40,0.0,16399,370662292021611,19,36.5,-291.7997131347656,0.6275629997253418,16,0.0,0.0,1561097980,,,,0,0.0,5,-60.72,32.2,-1546.93408203125,9.464508056640625,,,I,760700557245177,0
Raw,1730962658422,912735774000000,18,0.0,-1414085140648236578,-0.5390138626098633,33.065043680835515,2.280746799273028,9.719701563702573,23,39,0.0,16399,370662292501778,40,31.1,55.096126556396484,0.7354999780654907,16,0.0,0.0,1561097980,,,,0,0.0,5,-60.72,26.8,-1546.93408203125,9.464508056640625,,,I,760700557245177,0
Raw,1730962658422,912735774000000,18,0.0,-1414085140648236578,-0.5390138626098633,33.065043680835515,2.280746799273028,9.719701563702573,23,38,0.0,16399,370662293241016,9,44.3,249.72061157226562,0.029357902705669403,16,0.0,0.0,1561097980,,,,0,0.0,5,-60.72,40.0,-1546.93408203125,9.464508056640625,,,I,760700557245177,0
Raw,1730962658422,912735774000000,18,0.0,-1414085140648236578,-0.5390138626098633,33.065043680835515,2.280746799273028,9.719701563702573,23,37,0.0,16399,370662347234681,17,37.5,-145.13116455078125,1.2011761665344238,16,0.0,0.0,1561097980,,,,0,0.0,5,-60.72,33.2,-1546.93408203125,9.464508056640625,,,I,760700557245177,0
Raw,1730962658422,912735774000000,18,0.0,-1414085140648236578,-0.5390138626098633,33.065043680835515,2.280746799273028,9.719701563702573,23,32,0.0,16399,370662345411884,11,43.0,-399.3282470703125,0.042759791016578674,16,0.0,0.0,1561097980,,,,0,0.0,5,-60.72,38.7,-1546.93408203125,9.464508056640625,,,I,760700557245177,0
Raw,1730962658422,912735774000000,18,0.0,-1414085140648236578,-0.5390138626098633,33.065043680835515,2.280746799273028,9.719701563702573,23,23,0.0,16399,370662346584538,27,34.2,360.4389343261719,0.5945000052452087,16,0.0,0.0,1561097980,,,,0,0.0,5,-60.72,29.900000000000002,-1546.93408203125,9.464508056640625,,,I,760700557245177,0
Raw,1730962658422,912735774000000,18,0.0,-1414085140648236578,-0.5390138626098633,33.065043680835515,2.280746799273028,9.719701563702573,23,13,0.0,16399,370662299593893,14,39.9,211.2078094482422,0.05458277091383934,16,0.0,0.0,1561097980,,,,0,0.0,5,-60.72,35.6,-1546.93408203125,9.464508056640625,,,I,760700557245177,0
Raw,1730962658422,912735774000000,18,0.0,-1414085140648236578,-0.5390138626098633,33.065043680835515,2.280746799273028,9.719701563702573,23,10,0.0,16399,370662295034559,11,42.4,-213.6507110595703,0.027759790420532227,16,0.0,0.0,1561097980,,,,0,0.0,5,-60.72,38.1,-1546.93408203125,9.464508056640625,,,I,760700557245177,0
Raw,1730962658422,912735774000000,18,0.0,-1414085140648236578,-0.5390138626098633,33.065043680835515,2.280746799273028,9.719701563702573,23,9,0.0,16399,370662294985773,14,39.6,109.8599624633789,0.6082012057304382,16,0.0,0.0,1561097980,,,,0,0.0,5,-60.72,35.300000000000004,-1546.93408203125,9.464508056640625,,,I,760700557245177,0
Raw,1730962658422,912735774000000,18,0.0,-1414085140648236578,-0.5390138626098633,33.065043680835515,2.280746799273028,9.719701563702573,23,8,0.0,16399,370662295531922,13,40.3,251.47857666015625,0.029468942433595657,16,0.0,0.0,1561097980,,,,0,0.0,5,-60.72,36.0,-1546.93408203125,9.464508056640625,,,I,760700557245177,0
Raw,1730962658422,912735774000000,18,0.0,-1414085140648236578,-0.5390138626098633,33.065043680835515,2.280746799273028,9.719701563702573,23,7,0.0,16399,370662295078527,14,39.7,-231.96826171875,0.030582770705223083,16,0.0,0.0,1561097980,,,,0,0.0,5,-60.72,35.400000000000006,-1546.93408203125,9.464508056640625,,,I,760700557245177,0
Raw,1730962658422,912735774000000,18,0.0,-1414085140648236578,-0.5390138626098633,33.065043680835515,2.280746799273028,9.719701563702573,23,5,0.0,16399,370662300847465,31,32.3,1.2386547327041626,4.451099872589111,16,0.0,0.0,1561097980,,,,0,0.0,5,-60.72,27.999999999999996,-1546.93408203125,9.464508056640625,,,I,760700557245177,0
Raw,1730962658422,912735774000000,18,0.0,-1414085140648236578,-0.5390138626098633,33.065043680835515,2.280746799273028,9.719701563702573,23,3,0.0,16399,370662299081672,13,40.5,-0.9505955576896667,1.360700011253357,16,0.0,0.0,1561097980,,,,0,0.0,5,-60.72,36.2,-1546.93408203125,9.464508056640625,,,I,760700557245177,0
Raw,1730962658422,912735774000000,18,0.0,-1414085140648236578,-0.5390138626098633,33.065043680835515,2.280746799273028,9.719701563702573,23,2,0.0,16399,370662302923304,8,45.4,4.1684722900390625,0.06099554896354675,16,0.0,0.0,1561097980,,,,0,0.0,5,-60.72,41.1,-1546.93408203125,9.464508056640625,,,I,760700557245177,0
Raw,1730962658422,912735774000000,18,0.0,-1414085140648236578,-0.5390138626098633,33.065043680835515,2.280746799273028,9.719701563702573,23,1,0.0,16399,370662287805269,40,31.1,-11.04227066040039,5.0630998611450195,16,0.0,0.0,1561097980,,,,0,0.0,5,-60.72,26.8,-1546.93408203125,9.464508056640625,,,I,760700557245177,0
Raw,1730962658422,912735774000000,18,0.0,-1414085140648236578,-0.5390138626098633,33.065043680835515,2.280746799273028,9.719701563702573,23,2,0.0,23567,370676337589792,19,36.8,327.18597412109375,0.8360795974731445,16,0.0,0.0,1575420030,,,,0,0.0,6,-55.79,32.5,-1465.5977783203125,9.946356773376465,,,C,760700557245177,0
Raw,1730962658422,912735774000000,18,0.0,-1414085140648236578,-0.5390138626098633,33.065043680835515,2.280746799273028,9.719701563702573,23,3,0.0,23567,370676331991461,70,27.2,101.0744857788086,1.0040000677108765,16,0.0,0.0,1575420030,,,,0,0.0,6,-55.79,22.9,-1465.5977783203125,9.946356773376465,,,C,760700557245177,0
Raw,1730962658422,912735774000000,18,0.0,-1414085140648236578,-0.5390138626098633,33.065043680835515,2.280746799273028,9.719701563702573,23,7,0.0,23567,370676334811573,70,27.2,-238.00030517578125,1.0084999799728394,16,0.0,0.0,1575420030,,,,0,0.0,6,-55.79,22.9,-1465.5977783203125,9.946356773376465,,,C,760700557245177,0
Raw,1730962658422,912735774000000,18,0.0,-1414085140648236578,-0.5390138626098633,33.065043680835515,2.280746799273028,9.719701563702573,23,8,0.0,23567,370676338643738,35,32.1,-99.03816986083984,3.895972967147827,16,0.0,0.0,1575420030,,,,0,0.0,6,-55.79,27.8,-1465.5977783203125,9.946356773376465,,,C,760700557245177,0
Raw,1730962658422,912735774000000,18,0.0,-1414085140648236578,-0.5390138626098633,33.065043680835515,2.280746799273028,9.719701563702573,23,13,0.0,23567,370676335759550,27,34.0,305.9209899902344,3.123582363128662,16,0.0,0.0,1575420030,,,,0,0.0,6,-55.79,29.7,-1465.5977783203125,9.946356773376465,,,C,760700557245177,0
Raw,1730962658422,912735774000000,18,0.0,-1414085140648236578,-0.5390138626098633,33.065043680835515,2.280746799273028,9.719701563702573,23,15,0.0,23567,370676331497494,53,29.0,406.5447692871094,2.4170329570770264,16,0.0,0.0,1575420030,,,,0,0.0,6,-55.79,24.7,-1465.5977783203125,9.946356773376465,,,C,760700557245177,0
Raw,1730962658422,912735774000000,18,0.0,-1414085140648236578,-0.5390138626098633,33.065043680835515,2.280746799273028,9.719701563702573,23,27,0.0,23567,370676335280765,19,36.3,-512.8485717773438,3.1325318813323975,16,0.0,0.0,1575420030,,,,0,0.0,6,-55.79,31.999999999999996,-1465.5977783203125,9.946356773376465,,,C,760700557245177,0
Raw,1730962658422,912735774000000,18,0.0,-1414085140648236578,-0.5390138626098633,33.065043680835515,2.280746799273028,9.719701563702573,23,30,0.0,23567,370676343006896,11,42.4,-156.14181518554688,0.03669833764433861,16,0.0,0.0,1575420030,,,,0,0.0,6,-55.79,38.1,-1465.5977783203125,9.946356773376465,,,C,760700557245177,0
Raw,1730962658422,912735774000000,18,0.0,-1414085140648236578,-0.5390138626098633,33.065043680835515,2.280746799273028,9.719701563702573,23,3,0.0,81935,370676352408688,4,40.2,-357.6556091308594,0.03224140405654907,16,0.0,0.0,1176450050,,,,0,0.0,1,-40.09,35.2,21.16162872314453,5.256112575531006,,,Q,760700557245177,0
Raw,1730962658422,912735774000000,18,0.0,-1414085140648236578,-0.5390138626098633,33.065043680835515,2.280746799273028,9.719701563702573,23,4,0.0,81935,370676343931214,20,24.8,-358.9635314941406,2.2960000038146973,16,0.0,0.0,1176450050,,,,0,0.0,1,-40.09,19.8,21.16162872314453,5.256112575531006,,,Q,760700557245177,0
Raw,1730962658422,912735774000000,18,0.0,-1414085140648236578,-0.5390138626098633,33.065043680835515,2.280746799273028,9.719701563702573,23,26,0.0,81935,370676351288291,7,34.5,408.6338806152344,0.03359547629952431,16,0.0,0.0,1176450050,,,,0,0.0,1,-40.09,29.5,21.16162872314453,5.256112575531006,,,Q,760700557245177,0
Raw,1730962658422,912735774000000,18,0.0,-1414085140648236578,-0.5390138626098633,33.065043680835515,2.280746799273028,9.719701563702573,23,27,0.0,81935,370676342670610,11,29.8,-364.893798828125,5.519240379333496,16,0.0,0.0,1176450050,,,,0,0.0,1,-40.09,24.8,21.16162872314453,5.256112575531006,,,Q,760700557245177,0
Raw,1730962658422,912735774000000,18,0.0,-1414085140648236578,-0.5390138626098633,33.065043680835515,2.280746799273028,9.719701563702573,23,196,0.0,16399,370676296324736,10,30.5,-191.50523376464844,0.08474752306938171,16,0.0,0.0,1176450050,,,,0,0.0,4,-40.09,25.5,21.16162872314453,5.256112575531006,,,Q,760700557245177,0
Raw,1730962658422,912735774000000,18,0.0,-1414085140648236578,-0.5390138626098633,33.065043680835515,2.280746799273028,9.719701563702573,23,2,0.0,81935,370676337589726,10,30.5,327.2635498046875,1.6452157497406006,16,0.0,0.0,1176450050,,,,0,0.0,6,-40.09,25.2,-1451.8148193359375,74.52338409423828,,,Q,760700557245177,0
Raw,1730962658422,912735774000000,18,0.0,-1414085140648236578,-0.5390138626098633,33.065043680835515,2.280746799273028,9.719701563702573,23,8,0.0,81935,370676338643743,11,30.0,-99.1055679321289,1.7208197116851807,16,0.0,0.0,1176450050,,,,0,0.0,6,-40.09,24.7,-1451.8148193359375,74.52338409423828,,,Q,760700557245177,0
Raw,1730962658422,912735774000000,18,0.0,-1414085140648236578,-0.5390138626098633,33.065043680835515,2.280746799273028,9.719701563702573,23,13,0.0,81935,370676335759467,12,28.7,306.87664794921875,0.9539999961853027,16,0.0,0.0,1176450050,,,,0,0.0,6,-40.09,23.4,-1451.8148193359375,74.52338409423828,,,Q,760700557245177,0
Raw,1730962658422,912735774000000,18,0.0,-1414085140648236578,-0.5390138626098633,33.065043680835515,2.280746799273028,9.719701563702573,23,27,0.0,81935,370676335280691,11,29.7,-512.8575439453125,0.9518356323242188,16,0.0,0.0,1176450050,,,,0,0.0,6,-40.09,24.4,-1451.8148193359375,74.52338409423828,,,Q,760700557245177,0
Raw,1730962658422,912735774000000,18,0.0,-1414085140648236578,-0.5390138626098633,33.065043680835515,2.280746799273028,9.719701563702573,23,30,0.0,81935,370676343006860,18,26.0,-155.96749877929688,1.065999984741211,16,0.0,0.0,1176450050,,,,0,0.0,6,-40.09,20.7,-1451.8148193359375,74.52338409423828,,,Q,760700557245177,0
Raw,1730962658422,912735774000000,18,0.0,-1414085140648236578,-0.5390138626098633,33.065043680835515,2.280746799273028,9.719701563702573,23,23,0.0,16399,370662346584533,12,27.8,360.76007080078125,1.0505000352859497,16,0.0,0.0,1176450050,,,,0,0.0,5,-40.09,23.3,-1508.908447265625,72.18852233886719,,,Q,760700557245177,0
Raw,1730962658422,912735774000000,18,0.0,-1414085140648236578,-0.5390138626098633,33.065043680835515,2.280746799273028,9.719701563702573,23,32,0.0,16399,370662345411824,5,37.5,-399.2810363769531,0.08561479300260544,16,0.0,0.0,1176450050,,,,0,0.0,5,-40.09,33.0,-1508.908447265625,72.18852233886719,,,Q,760700557245177,0
Raw,1730962658422,912735774000000,18,0.0,-1414085140648236578,-0.5390138626098633,33.065043680835515,2.280746799273028,9.719701563702573,23,37,0.0,16399,370662347234607,14,27.2,-144.9716796875,1.0520000457763672,16,0.0,0.0,1176450050,,,,0,0.0,5,-40.09,22.7,-1508.908447265625,72.18852233886719,,,Q,760700557245177,0
Raw,1730962658422,912735774000000,18,0.0,-1414085140648236578,-0.5390138626098633,33.065043680835515,2.280746799273028,9.719701563702573,23,38,0.0,16399,370662293240935,7,34.1,249.74468994140625,0.09659547358751297,16,0.0,0.0,1176450050,,,,0,0.0,5,-40.09,29.6,-1508.908447265625,72.18852233886719,,,Q,760700557245177,0
Raw,1730962658422,912735774000000,18,0.0,-1414085140648236578,-0.5390138626098633,33.065043680835515,2.280746799273028,9.719701563702573,23,39,0.0,16399,370662292501677,18,25.0,54.31659698486328,1.2294999361038208,16,0.0,0.0,1176450050,,,,0,0.0,5,-40.09,20.5,-1508.908447265625,72.18852233886719,,,Q,760700557245177,0
Raw,1730962658422,912735774000000,18,0.0,-1414085140648236578,-0.5390138626098633,33.065043680835515,2.280746799273028,9.719701563702573,23,40,0.0,16399,370662292021531,14,27.2,-292.0329284667969,1.059499979019165,16,0.0,0.0,1176450050,,,,0,0.0,5,-40.09,22.7,-1508.908447265625,72.18852233886719,,,Q,760700557245177,0
Raw,1730962658422,912735774000000,18,0.0,-1414085140648236578,-0.5390138626098633,33.065043680835515,2.280746799273028,9.719701563702573,23,41,0.0,16399,370662346581096,14,26.5,83.63456726074219,1.1304999589920044,16,0.0,0.0,1176450050,,,,0,0.0,5,-40.09,22.0,-1508.908447265625,72.18852233886719,,,Q,760700557245177,0
Raw,1730962658422,912735774000000,18,0.0,-1414085140648236578,-0.5390138626098633,33.065043680835515,2.280746799273028,9.719701563702573,23,23,0.0,16399,370662346584572,8,35.7,360.3839416503906,0.6695873737335205,16,0.0,0.0,1575420030,,,,0,0.0,5,-55.79,28.700000000000003,-1556.7611083984375,69.6666030883789,,,P,760700557245177,0
