# 
# Header Description:
# 
# Version: v3.1.0.3 Platform: 14 Manufacturer: samsung Model: SM-M346B GNSS Hardware Model Name: S.LSI,K050,SPOTNAV_4.11.0_25_E17P
# 
# Raw,utcTimeMillis,TimeNanos,LeapSecond,TimeUncertaintyNanos,FullBiasNanos,BiasNanos,BiasUncertaintyNanos,DriftNanosPerSecond,DriftUncertaintyNanosPerSecond,HardwareClockDiscontinuityCount,Svid,TimeOffsetNanos,State,ReceivedSvTimeNanos,ReceivedSvTimeUncertaintyNanos,Cn0DbHz,PseudorangeRateMetersPerSecond,PseudorangeRateUncertaintyMetersPerSecond,AccumulatedDeltaRangeState,AccumulatedDeltaRangeMeters,AccumulatedDeltaRangeUncertaintyMeters,CarrierFrequencyHz,CarrierCycles,CarrierPhase,CarrierPhaseUncertainty,MultipathIndicator,SnrInDb,ConstellationType,AgcDb,BasebandCn0DbHz,FullInterSignalBiasNanos,FullInterSignalBiasUncertaintyNanos,SatelliteInterSignalBiasNanos,SatelliteInterSignalBiasUncertaintyNanos,CodeType,ChipsetElapsedRealtimeNanos,IsFullTracking
# 
# UncalAccel,utcTimeMillis,elapsedRealtimeNanos,UncalAccelXMps2,UncalAccelYMps2,UncalAccelZMps2,BiasXMps2,BiasYMps2,BiasZMps2
# 
# Accel,utcTimeMillis,elapsedRealtimeNanos,AccelXMps2,AccelYMps2,AccelZMps2
# 
# UncalGyro,utcTimeMillis,elapsedRealtimeNanos,UncalGyroXRadPerSec,UncalGyroYRadPerSec,UncalGyroZRadPerSec,DriftXRadPerSec,DriftYRadPerSec,DriftZRadPerSec
# 
# Gyro,utcTimeMillis,elapsedRealtimeNanos,GyroXRadPerSec,GyroYRadPerSec,GyroZRadPerSec
# 
# UncalMag,utcTimeMillis,elapsedRealtimeNanos,UncalMagXMicroT,UncalMagYMicroT,UncalMagZMicroT,BiasXMicroT,BiasYMicroT,BiasZMicroT
# 
# Mag,utcTimeMillis,elapsedRealtimeNanos,MagXMicroT,MagYMicroT,MagZMicroT
# 
# Pressure,utcTimeMillis,elapsedRealtimeNanos,PressureHpa
# 
# OrientationDeg,utcTimeMillis,elapsedRealtimeNanos,yawDeg,rollDeg,pitchDeg
# 
# Fix,Provider,LatitudeDegrees,LongitudeDegrees,AltitudeMeters,SpeedMps,AccuracyMeters,BearingDegrees,UnixTimeMillis,SpeedAccuracyMps,BearingAccuracyDegrees,elapsedRealtimeNanos,VerticalAccuracyMeters,MockLocation,NumberOfUsedSignals,VerticalSpeedAccuracyMps,SolutionType
# 
# Nav,Svid,Type,Status,MessageId,Sub-messageId,Data(Bytes)
# 
# Status,UnixTimeMillis,SignalCount,SignalIndex,ConstellationType,Svid,CarrierFrequencyHz,Cn0DbHz,AzimuthDegrees,ElevationDegrees,UsedInFix,HasAlmanacData,HasEphemerisData,BasebandCn0DbHz
# 
# Agc,utcTimeMillis,TimeNanos,LeapSecond,TimeUncertaintyNanos,FullBiasNanos,BiasNanos,BiasUncertaintyNanos,DriftNanosPerSecond,DriftUncertaintyNanosPerSecond,HardwareClockDiscontinuityCount,AgcDb,CarrierFrequencyHz,ConstellationType
# 
Fix,FLP,12.9283631000,77.5201879000,751.0999755859375,0.10623313,18.0,2.9717562,1730968852443,0.44,180.0,1732709706855751,3.077543,0,,,
Raw,1730968851000,1835173621,18,0.0,-1415004067164873472,0.0,50.034610748291016,39.681968688964844,0.0,0,8,0.0,15,376868927962808,10,41.900001525878906,-397.9476623535156,0.07344246655702591,19,-7954.815324618568,0.1470780074596405,1575420030,,,,0,,1,1.2999999523162842,36.900001525878906,0.0,0.0,0.0,0.0,C,1863753334030021,
Raw,1730968851000,1835173621,18,0.0,-1415004067164873472,0.0,50.034610748291016,39.681968688964844,0.0,0,4,0.0,15,376868929932145,24,26.700000762939453,-344.0874938964844,0.21236379444599152,16,0.0,0.1501624435186386,1575420030,,,,0,,1,1.2999999523162842,21.700000762939453,0.0,0.0,0.0,0.0,C,1863753334030021,
Raw,1730968851000,1835173621,18,0.0,-1415004067164873472,0.0,50.034610748291016,39.681968688964844,0.0,0,27,0.0,15,376868926906910,29,24.399999618530273,-116.97957611083984,0.2657030522823334,16,0.0,0.18787862360477448,1575420030,,,,0,,1,1.2999999523162842,19.399999618530273,0.0,0.0,0.0,0.0,C,1863753334030021,
Raw,1730968851000,1835173621,18,0.0,-1415004067164873472,0.0,50.034610748291016,39.681968688964844,0.0,0,11,0.0,239,42050927716954,14,34.599998474121094,-234.71849060058594,0.11413440108299255,16,0.0,0.08070443570613861,1602000000,,,,0,,3,1.2999999523162842,29.600000381469727,0.0,0.0,0.0,0.0,C,1863753334030021,
Raw,1730968851000,1835173621,18,0.0,-1415004067164873472,0.0,50.034610748291016,39.681968688964844,0.0,0,13,0.0,47,376854871720157,16,32.20000076293945,319.1795654296875,0.13516435027122498,16,0.0,0.09557471424341202,1561097980,,,,0,,5,1.2999999523162842,27.200000762939453,0.0,0.0,0.0,0.0,C,1863753334030021,
Raw,1730968851000,1835173621,18,0.0,-1415004067164873472,0.0,50.034610748291016,39.681968688964844,0.0,0,41,0.0,47,376854917564622,18,30.600000381469727,555.5264282226562,0.1525878757238388,16,0.0,0.1078948900103569,1561097980,,,,0,,5,1.2999999523162842,25.600000381469727,0.0,0.0,0.0,0.0,C,1863753334030021,
Raw,1730968851000,1835173621,18,0.0,-1415004067164873472,0.0,50.034610748291016,39.681968688964844,0.0,0,9,0.0,47,376854871932266,19,29.799999237060547,-21.94542121887207,0.16259105503559113,16,0.0,0.11496813595294952,1561097980,,,,0,,5,1.2999999523162842,24.799999237060547,0.0,0.0,0.0,0.0,C,1863753334030021,
Raw,1730968851000,1835173621,18,0.0,-1415004067164873472,0.0,50.034610748291016,39.681968688964844,0.0,0,6,0.0,47,376854872812517,20,29.100000381469727,-36.74531173706055,0.17217335104942322,16,0.0,0.12174377590417862,1561097980,,,,0,,5,1.2999999523162842,24.100000381469727,0.0,0.0,0.0,0.0,C,1863753334030021,
Raw,1730968851000,1835173621,18,0.0,-1415004067164873472,0.0,50.034610748291016,39.681968688964844,0.0,0,9,0.0,239,42050926295938,21,28.5,588.2932739257812,0.18107740581035614,16,0.0,0.12803983688354492,1600875010,,,,0,,3,1.2999999523162842,23.5,0.0,0.0,0.0,0.0,C,1863753334030021,
Raw,1730968851000,1835173621,18,0.0,-1415004067164873472,0.0,50.034610748291016,39.681968688964844,0.0,0,7,0.0,47,376854876955426,22,27.5,-130.36126708984375,0.1975308656692505,16,0.0,0.1396740823984146,1561097980,,,,0,,5,1.2999999523162842,22.5,0.0,0.0,0.0,0.0,C,1863753334030021,
Raw,1730968851000,1835173621,18,0.0,-1415004067164873472,0.0,50.034610748291016,39.681968688964844,0.0,0,23,0.0,47,376854915529675,21,28.5,429.83837890625,0.18107740581035614,16,0.0,0.12803983688354492,1561097980,,,,0,,5,1.2999999523162842,23.5,0.0,0.0,0.0,0.0,C,1863753334030021,
Raw,1730968851000,1835173621,18,0.0,-1415004067164873472,0.0,50.034610748291016,39.681968688964844,0.0,0,6,0.0,239,42050931493951,21,28.100000381469727,462.6776428222656,0.18740276992321014,16,0.0,0.13251249492168427,1599750020,,,,0,,3,1.2999999523162842,23.100000381469727,0.0,0.0,0.0,0.0,C,1863753334030021,
Raw,1730968851000,1835173621,18,0.0,-1415004067164873472,0.0,50.034610748291016,39.681968688964844,0.0,0,30,0.0,3072,18833667,23,27.399999618530273,330.8809509277344,0.19929847121238708,16,0.0,0.14092394709587097,1575420030,,,,0,,6,1.2999999523162842,22.399999618530273,0.0,0.0,0.0,0.0,C,1863753334030021,
Raw,1730968851000,1835173621,18,0.0,-1415004067164873472,0.0,50.034610748291016,39.681968688964844,0.0,0,32,0.0,47,376854927312779,22,28.0,89.01380920410156,0.18903592228889465,16,0.0,0.13366730511188507,1561097980,,,,0,,5,1.2999999523162842,23.0,0.0,0.0,0.0,0.0,C,1863753334030021,
Raw,1730968851000,1835173621,18,0.0,-1415004067164873472,0.0,50.034610748291016,39.681968688964844,0.0,0,27,0.0,47,376854914736194,24,26.799999237060547,-259.93719482421875,0.21042001247406006,16,0.0,0.1487879902124405,1561097980,,,,0,,5,1.2999999523162842,21.799999237060547,0.0,0.0,0.0,0.0,C,1863753334030021,
Raw,1730968851000,1835173621,18,0.0,-1415004067164873472,0.0,50.034610748291016,39.681968688964844,0.0,0,8,0.0,47,376854867172948,25,25.899999618530273,322.83831787109375,0.2289324849843979,16,0.0,0.16187815368175507,1561097980,,,,0,,5,1.2999999523162842,20.899999618530273,0.0,0.0,0.0,0.0,C,1863753334030021,
Raw,1730968851000,1835173621,18,0.0,-1415004067164873472,0.0,50.034610748291016,39.681968688964844,0.0,0,7,0.0,239,42050935567387,26,25.600000381469727,-244.08750915527344,0.235648974776268,16,0.0,0.16662739217281342,1604812540,,,,0,,3,1.2999999523162842,20.600000381469727,0.0,0.0,0.0,0.0,C,1863753334030021,
Raw,1730968851000,1835173621,18,0.0,-1415004067164873472,0.0,50.034610748291016,39.681968688964844,0.0,0,27,0.0,3072,20564687,28,24.799999237060547,-143.8731231689453,0.25507602095603943,16,0.0,0.18036425113677979,1575420030,,,,0,,6,1.2999999523162842,19.799999237060547,0.0,0.0,0.0,0.0,C,1863753334030021,
Raw,1730968851000,1835173621,18,0.0,-1415004067164873472,0.0,50.034610748291016,39.681968688964844,0.0,0,8,0.0,3072,17479392,32,23.0,71.90638732910156,0.3086419701576233,16,0.0,0.21824073791503906,1575420030,,,,0,,6,1.2999999523162842,18.0,0.0,0.0,0.0,0.0,C,1863753334030021,
Fix,GPS,12.9283329891,77.5202382635,714.0,0.049999997,16.5,0.0,1730968851000,0.41,180.0,1732709922764790,29.0,0,,,
Fix,FLP,12.9283538000,77.5202033000,751.0999755859375,0.06697283,17.25,,1730968852660,0.41,,1732709922764790,3.0797021,0,,,
Raw,1730968852000,2835126336,18,0.0,-1415004067164873728,0.0,50.034610748291016,37.91593933105469,0.0,0,8,0.0,15,376869927916853,10,42.0,-398.27935791015625,0.07304602116346359,17,-8352.924301121646,0.14679767191410065,1575420030,,,,0,,1,1.2999999523162842,37.0,0.0,0.0,0.0,0.0,C,1863754791406966,
Raw,1730968852000,2835126336,18,0.0,-1415004067164873728,0.0,50.034610748291016,37.91593933105469,0.0,0,27,0.0,15,376869926859947,24,26.399999618530273,-116.93025970458984,0.21835967898368835,16,0.0,0.15440212190151215,1575420030,,,,0,,1,1.2999999523162842,21.399999618530273,0.0,0.0,0.0,0.0,C,1863754791406966,
Raw,1730968852000,2835126336,18,0.0,-1415004067164873728,0.0,50.034610748291016,37.91593933105469,0.0,0,4,0.0,15,376869929886095,24,26.5,-343.85589599609375,0.21633315086364746,16,0.0,0.15296916663646698,1575420030,,,,0,,1,1.2999999523162842,21.5,0.0,0.0,0.0,0.0,C,1863754791406966,
Raw,1730968852000,2835126336,18,0.0,-1415004067164873728,0.0,50.034610748291016,37.91593933105469,0.0,0,7,0.0,15,376869919933030,31,23.299999237060547,-94.36563110351562,0.2986055314540863,16,0.0,0.21114397048950195,1575420030,,,,0,,1,1.2999999523162842,18.299999237060547,0.0,0.0,0.0,0.0,C,1863754791406966,
Raw,1730968852000,2835126336,18,0.0,-1415004067164873728,0.0,50.034610748291016,37.91593933105469,0.0,0,11,0.0,239,42051927670460,14,34.900001525878906,-234.81317138671875,0.11185558140277863,16,0.0,0.0790930837392807,1602000000,,,,0,,3,1.2999999523162842,29.899999618530273,0.0,0.0,0.0,0.0,C,1863754791406966,
Raw,1730968852000,2835126336,18,0.0,-1415004067164873728,0.0,50.034610748291016,37.91593933105469,0.0,0,13,0.0,47,376855871671797,15,33.400001525878906,318.8730163574219,0.12398333847522736,19,-8589.469595174181,0.18368837237358093,1561097980,,,,0,,5,1.2999999523162842,28.399999618530273,0.0,0.0,0.0,0.0,C,1863754791406966,
Raw,1730968852000,2835126336,18,0.0,-1415004067164873728,0.0,50.034610748291016,37.91593933105469,0.0,0,41,0.0,47,376855917515447,17,31.799999237060547,555.1657104492188,0.13922923803329468,16,0.0,0.0984489917755127,1561097980,,,,0,,5,1.2999999523162842,26.799999237060547,0.0,0.0,0.0,0.0,C,1863754791406966,
Raw,1730968852000,2835126336,18,0.0,-1415004067164873728,0.0,50.034610748291016,37.91593933105469,0.0,0,6,0.0,47,376855872765360,19,29.899999618530273,-38.21314239501953,0.16128772497177124,16,0.0,0.11404655128717422,1561097980,,,,0,,5,1.2999999523162842,24.899999618530273,0.0,0.0,0.0,0.0,C,1863754791406966,
Raw,1730968852000,2835126336,18,0.0,-1415004067164873728,0.0,50.034610748291016,37.91593933105469,0.0,0,194,0.0,15,376869859767551,20,29.399999618530273,124.80610656738281,0.1679656058549881,16,0.0,0.11876848340034485,1575420030,,,,0,,4,1.2999999523162842,24.399999618530273,0.0,0.0,0.0,0.0,C,1863754791406966,
Raw,1730968852000,2835126336,18,0.0,-1415004067164873728,0.0,50.034610748291016,37.91593933105469,0.0,0,9,0.0,47,376855871885048,19,29.899999618530273,-22.153635025024414,0.16128772497177124,16,0.0,0.11404655128717422,1561097980,,,,0,,5,1.2999999523162842,24.899999618530273,0.0,0.0,0.0,0.0,C,1863754791406966,
Raw,1730968852000,2835126336,18,0.0,-1415004067164873728,0.0,50.034610748291016,37.91593933105469,0.0,0,9,0.0,239,42051926246649,19,29.5,587.7324829101562,0.16659724712371826,16,0.0,0.11780091375112534,1600875010,,,,0,,3,1.2999999523162842,24.5,0.0,0.0,0.0,0.0,C,1863754791406966,
Raw,1730968852000,2835126336,18,0.0,-1415004067164873728,0.0,50.034610748291016,37.91593933105469,0.0,0,30,0.0,3072,18785256,20,28.899999618530273,330.20269775390625,0.1750669777393341,16,0.0,0.12378986179828644,1575420030,,,,0,,6,1.2999999523162842,23.899999618530273,0.0,0.0,0.0,0.0,C,1863754791406966,
Raw,1730968852000,2835126336,18,0.0,-1415004067164873728,0.0,50.034610748291016,37.91593933105469,0.0,0,7,0.0,47,376855876908589,20,28.899999618530273,-131.08726501464844,0.1750669777393341,16,0.0,0.12378986179828644,1561097980,,,,0,,5,1.2999999523162842,23.899999618530273,0.0,0.0,0.0,0.0,C,1863754791406966,
Raw,1730968852000,2835126336,18,0.0,-1415004067164873728,0.0,50.034610748291016,37.91593933105469,0.0,0,23,0.0,47,376855915480973,21,28.399999618530273,429.52569580078125,0.18262839317321777,16,0.0,0.12913653254508972,1561097980,,,,0,,5,1.2999999523162842,23.399999618530273,0.0,0.0,0.0,0.0,C,1863754791406966,
Raw,1730968852000,2835126336,18,0.0,-1415004067164873728,0.0,50.034610748291016,37.91593933105469,0.0,0,6,0.0,239,42051931445118,21,28.100000381469727,462.5986328125,0.18740276992321014,16,0.0,0.13251249492168427,1599750020,,,,0,,3,1.2999999523162842,23.100000381469727,0.0,0.0,0.0,0.0,C,1863754791406966,
Raw,1730968852000,2835126336,18,0.0,-1415004067164873728,0.0,50.034610748291016,37.91593933105469,0.0,0,32,0.0,47,376855927265199,22,27.799999237060547,88.29439544677734,0.19236689805984497,16,0.0,0.1360226273536682,1561097980,,,,0,,5,1.2999999523162842,22.799999237060547,0.0,0.0,0.0,0.0,C,1863754791406966,
Raw,1730968852000,2835126336,18,0.0,-1415004067164873728,0.0,50.034610748291016,37.91593933105469,0.0,0,27,0.0,47,376855914689756,24,26.799999237060547,-261.3779602050781,0.21042001247406006,16,0.0,0.1487879902124405,1561097980,,,,0,,5,1.2999999523162842,21.799999237060547,0.0,0.0,0.0,0.0,C,1863754791406966,
Raw,1730968852000,2835126336,18,0.0,-1415004067164873728,0.0,50.034610748291016,37.91593933105469,0.0,0,8,0.0,47,376855867124553,25,25.799999237060547,323.0122375488281,0.23113907873630524,16,0.0,0.16343843936920166,1561097980,,,,0,,5,1.2999999523162842,20.799999237060547,0.0,0.0,0.0,0.0,C,1863754791406966,
Raw,1730968852000,2835126336,18,0.0,-1415004067164873728,0.0,50.034610748291016,37.91593933105469,0.0,0,40,0.0,47,376855875029471,30,23.899999618530273,-178.08721923828125,0.2799473702907562,16,0.0,0.19795078039169312,1561097980,,,,0,,5,1.2999999523162842,18.899999618530273,0.0,0.0,0.0,0.0,C,1863754791406966,
Raw,1730968852000,2835126336,18,0.0,-1415004067164873728,0.0,50.034610748291016,37.91593933105469,0.0,0,27,0.0,3072,20517867,25,25.799999237060547,-144.49497985839844,0.23113907873630524,16,0.0,0.16343843936920166,1575420030,,,,0,,6,1.2999999523162842,20.799999237060547,0.0,0.0,0.0,0.0,C,1863754791406966,
Raw,1730968852000,2835126336,18,0.0,-1415004067164873728,0.0,50.034610748291016,37.91593933105469,0.0,0,7,0.0,239,42051935520826,26,25.600000381469727,-244.16627502441406,0.235648974776268,16,0.0,0.16662739217281342,1604812540,,,,0,,3,1.2999999523162842,20.600000381469727,0.0,0.0,0.0,0.0,C,1863754791406966,
Raw,1730968852000,2835126336,18,0.0,-1415004067164873728,0.0,50.034610748291016,37.91593933105469,0.0,0,8,0.0,3072,17431887,29,24.100000381469727,71.4665756225586,0.27411526441574097,16,0.0,0.19382689893245697,1575420030,,,,0,,6,1.2999999523162842,19.100000381469727,0.0,0.0,0.0,0.0,C,1863754791406966,
Raw,1730968852000,2835126336,18,0.0,-1415004067164873728,0.0,50.034610748291016,37.91593933105469,0.0,0,7,0.0,3072,18612082,31,23.600000381469727,-285.90557861328125,0.28905072808265686,16,0.0,0.20438776910305023,1575420030,,,,0,,6,1.2999999523162842,18.600000381469727,0.0,0.0,0.0,0.0,C,1863754791406966,
Fix,GPS,12.9283394013,77.5202129502,727.0,0.099999994,14.5,0.0,1730968852000,0.39,180.0,1732710941965404,27.0,0,,,
Fix,FLP,12.9283487000,77.5202070000,751.0999755859375,0.09415518,16.333,,1730968853678,0.39,,1732710941965404,3.0898943,0,,,
Raw,1730968853000,3835126397,18,0.0,-1415004067164873728,0.0,50.034610748291016,35.82692337036133,0.0,0,8,0.0,15,376870927918237,10,42.0,-398.6824035644531,0.07304602116346359,17,-8751.421867616998,0.14679767191410065,1575420030,,,,0,,1,1.2999999523162842,37.0,0.0,0.0,0.0,0.0,C,1863756363207284,
Raw,1730968853000,3835126397,18,0.0,-1415004067164873728,0.0,50.034610748291016,35.82692337036133,0.0,0,27,0.0,15,376870926860351,22,27.700000762939453,-117.53084564208984,0.19406546652317047,16,0.0,0.13722369074821472,1575420030,,,,0,,1,1.2999999523162842,22.700000762939453,0.0,0.0,0.0,0.0,C,1863756363207284,
Raw,1730968853000,3835126397,18,0.0,-1415004067164873728,0.0,50.034610748291016,35.82692337036133,0.0,0,4,0.0,15,376870929887299,24,26.299999237060547,-344.0688171386719,0.22041483223438263,16,0.0,0.15585532784461975,1575420030,,,,0,,1,1.2999999523162842,21.299999237060547,0.0,0.0,0.0,0.0,C,1863756363207284,
Raw,1730968853000,3835126397,18,0.0,-1415004067164873728,0.0,50.034610748291016,35.82692337036133,0.0,0,7,0.0,15,376870919933456,30,23.799999237060547,-94.80626678466797,0.28293347358703613,16,0.0,0.20006226003170013,1575420030,,,,0,,1,1.2999999523162842,18.799999237060547,0.0,0.0,0.0,0.0,C,1863756363207284,
Raw,1730968853000,3835126397,18,0.0,-1415004067164873728,0.0,50.034610748291016,35.82692337036133,0.0,0,16,0.0,15,376870926820320,34,22.5,593.3607788085938,0.3265306055545807,16,0.0,0.23088979721069336,1575420030,,,,0,,1,1.2999999523162842,17.5,0.0,0.0,0.0,0.0,C,1863756363207284,
Raw,1730968853000,3835126397,18,0.0,-1415004067164873728,0.0,50.034610748291016,35.82692337036133,0.0,0,13,0.0,47,376856871670802,14,34.599998474121094,318.1805114746094,0.11413440108299255,17,-8271.099399219005,0.17672418057918549,1561097980,,,,0,,5,1.2999999523162842,29.600000381469727,0.0,0.0,0.0,0.0,C,1863756363207284,
Raw,1730968853000,3835126397,18,0.0,-1415004067164873728,0.0,50.034610748291016,35.82692337036133,0.0,0,11,0.0,239,42052927671389,14,34.79999923706055,-235.19784545898438,0.11260754615068436,16,0.0,0.07962479442358017,1602000000,,,,0,,3,1.2999999523162842,29.799999237060547,0.0,0.0,0.0,0.0,C,1863756363207284,
Raw,1730968853000,3835126397,18,0.0,-1415004067164873728,0.0,50.034610748291016,35.82692337036133,0.0,0,41,0.0,47,376856917513642,15,33.29999923706055,554.4373779296875,0.12486109882593155,19,-5487.0257639953925,0.18430903553962708,1561097980,,,,0,,5,1.2999999523162842,28.299999237060547,0.0,0.0,0.0,0.0,C,1863756363207284,
Raw,1730968853000,3835126397,18,0.0,-1415004067164873728,0.0,50.034610748291016,35.82692337036133,0.0,0,194,0.0,15,376870859767191,17,31.399999618530273,124.43291473388672,0.14348027110099792,16,0.0,0.10145489871501923,1575420030,,,,0,,4,1.2999999523162842,26.399999618530273,0.0,0.0,0.0,0.0,C,1863756363207284,
Raw,1730968853000,3835126397,18,0.0,-1415004067164873728,0.0,50.034610748291016,35.82692337036133,0.0,0,6,0.0,47,376856872765524,18,30.5,-38.07304382324219,0.15378700196743011,16,0.0,0.10874278843402863,1561097980,,,,0,,5,1.2999999523162842,25.5,0.0,0.0,0.0,0.0,C,1863756363207284,
Raw,1730968853000,3835126397,18,0.0,-1415004067164873728,0.0,50.034610748291016,35.82692337036133,0.0,0,30,0.0,3072,18784203,19,30.200000762939453,329.56927490234375,0.15747039020061493,16,0.0,0.11134731024503708,1575420030,,,,0,,6,1.2999999523162842,25.200000762939453,0.0,0.0,0.0,0.0,C,1863756363207284,
Raw,1730968853000,3835126397,18,0.0,-1415004067164873728,0.0,50.034610748291016,35.82692337036133,0.0,0,23,0.0,47,376856915479598,20,29.0,428.98162841796875,0.1736111044883728,16,0.0,0.12276041507720947,1561097980,,,,0,,5,1.2999999523162842,24.0,0.0,0.0,0.0,0.0,C,1863756363207284,
Raw,1730968853000,3835126397,18,0.0,-1415004067164873728,0.0,50.034610748291016,35.82692337036133,0.0,0,9,0.0,239,42052926244759,19,29.700000762939453,587.6022338867188,0.16391023993492126,16,0.0,0.1159009337425232,1600875010,,,,0,,3,1.2999999523162842,24.700000762939453,0.0,0.0,0.0,0.0,C,1863756363207284,
Raw,1730968853000,3835126397,18,0.0,-1415004067164873728,0.0,50.034610748291016,35.82692337036133,0.0,0,7,0.0,47,376856876909071,20,28.899999618530273,-131.4686279296875,0.1750669777393341,16,0.0,0.12378986179828644,1561097980,,,,0,,5,1.2999999523162842,23.899999618530273,0.0,0.0,0.0,0.0,C,1863756363207284,
Raw,1730968853000,3835126397,18,0.0,-1415004067164873728,0.0,50.034610748291016,35.82692337036133,0.0,0,32,0.0,47,376856927264986,22,28.0,88.5596694946289,0.18903592228889465,16,0.0,0.13366730511188507,1561097980,,,,0,,5,1.2999999523162842,23.0,0.0,0.0,0.0,0.0,C,1863756363207284,
Raw,1730968853000,3835126397,18,0.0,-1415004067164873728,0.0,50.034610748291016,35.82692337036133,0.0,0,8,0.0,47,376856867123513,22,27.799999237060547,321.9010314941406,0.19236689805984497,16,0.0,0.1360226273536682,1561097980,,,,0,,5,1.2999999523162842,22.799999237060547,0.0,0.0,0.0,0.0,C,1863756363207284,
Raw,1730968853000,3835126397,18,0.0,-1415004067164873728,0.0,50.034610748291016,35.82692337036133,0.0,0,9,0.0,47,376856871885192,19,29.700000762939453,-23.315223693847656,0.16391023993492126,16,0.0,0.1159009337425232,1561097980,,,,0,,5,1.2999999523162842,24.700000762939453,0.0,0.0,0.0,0.0,C,1863756363207284,
Raw,1730968853000,3835126397,18,0.0,-1415004067164873728,0.0,50.034610748291016,35.82692337036133,0.0,0,7,0.0,3072,18613136,23,27.100000381469727,-286.5898132324219,0.20474600791931152,16,0.0,0.1447758972644806,1575420030,,,,0,,6,1.2999999523162842,22.100000381469727,0.0,0.0,0.0,0.0,C,1863756363207284,
Raw,1730968853000,3835126397,18,0.0,-1415004067164873728,0.0,50.034610748291016,35.82692337036133,0.0,0,8,0.0,3072,17431707,24,26.5,71.97711944580078,0.21633315086364746,16,0.0,0.15296916663646698,1575420030,,,,0,,6,1.2999999523162842,21.5,0.0,0.0,0.0,0.0,C,1863756363207284,
Raw,1730968853000,3835126397,18,0.0,-1415004067164873728,0.0,50.034610748291016,35.82692337036133,0.0,0,6,0.0,239,42052931443602,22,27.899999618530273,461.71051025390625,0.19069050252437592,16,0.0,0.13483725488185883,1599750020,,,,0,,3,1.2999999523162842,22.899999618530273,0.0,0.0,0.0,0.0,C,1863756363207284,
Raw,1730968853000,3835126397,18,0.0,-1415004067164873728,0.0,50.034610748291016,35.82692337036133,0.0,0,27,0.0,47,376856914690685,24,26.700000762939453,-262.40203857421875,0.21236379444599152,16,0.0,0.1501624435186386,1561097980,,,,0,,5,1.2999999523162842,21.700000762939453,0.0,0.0,0.0,0.0,C,1863756363207284,
Raw,1730968853000,3835126397,18,0.0,-1415004067164873728,0.0,50.034610748291016,35.82692337036133,0.0,0,40,0.0,47,376856875030081,25,26.100000381469727,-178.675048828125,0.22461310029029846,16,0.0,0.1588239222764969,1561097980,,,,0,,5,1.2999999523162842,21.100000381469727,0.0,0.0,0.0,0.0,C,1863756363207284,
Raw,1730968853000,3835126397,18,0.0,-1415004067164873728,0.0,50.034610748291016,35.82692337036133,0.0,0,39,0.0,47,376856870663574,27,25.200000762939453,-76.26239013671875,0.24507398903369904,16,0.0,0.17329181730747223,1561097980,,,,0,,5,1.2999999523162842,20.200000762939453,0.0,0.0,0.0,0.0,C,1863756363207284,
Raw,1730968853000,3835126397,18,0.0,-1415004067164873728,0.0,50.034610748291016,35.82692337036133,0.0,0,7,0.0,239,42052935521677,26,25.5,-243.18495178222656,0.23795360326766968,16,0.0,0.1682569980621338,1604812540,,,,0,,3,1.2999999523162842,20.5,0.0,0.0,0.0,0.0,C,1863756363207284,
Raw,1730968853000,3835126397,18,0.0,-1415004067164873728,0.0,50.034610748291016,35.82692337036133,0.0,0,27,0.0,3072,20518355,26,25.600000381469727,-144.19271850585938,0.235648974776268,16,0.0,0.16662739217281342,1575420030,,,,0,,6,1.2999999523162842,20.600000381469727,0.0,0.0,0.0,0.0,C,1863756363207284,
Raw,1730968853000,3835126397,18,0.0,-1415004067164873728,0.0,50.034610748291016,35.82692337036133,0.0,0,37,0.0,47,376856923553334,27,25.0,229.18850708007812,0.25,16,0.0,0.1767749935388565,1561097980,,,,0,,5,1.2999999523162842,20.0,0.0,0.0,0.0,0.0,C,1863756363207284,
Raw,1730968853000,3835126397,18,0.0,-1415004067164873728,0.0,50.034610748291016,35.82692337036133,0.0,0,10,0.0,47,376856876827292,34,22.299999237060547,-143.78150939941406,0.3341241180896759,16,0.0,0.23625916242599487,1561097980,,,,0,,5,1.2999999523162842,17.299999237060547,0.0,0.0,0.0,0.0,C,1863756363207284,
Raw,1730968853000,3835126397,18,0.0,-1415004067164873728,0.0,50.034610748291016,35.82692337036133,0.0,0,20,0.0,47,376856920242433,23,27.0,-469.3962707519531,0.20661157369613647,16,0.0,0.14609503746032715,1561097980,,,,0,,5,1.2999999523162842,22.0,0.0,0.0,0.0,0.0,C,1863756363207284,
Raw,1730968853000,3835126397,18,0.0,-1415004067164873728,0.0,50.034610748291016,35.82692337036133,0.0,0,28,0.0,47,376856915515122,37,21.399999618530273,-227.86375427246094,0.37180250883102417,16,0.0,0.26290154457092285,1561097980,,,,0,,5,1.2999999523162842,16.399999618530273,0.0,0.0,0.0,0.0,C,1863756363207284,
Fix,GPS,12.9283432569,77.5201169774,731.0,0.14,13.5,0.0,1730968853000,0.65,180.0,1732711951545134,22.0,0,,,
Fix,FLP,12.9283470000,77.5201700000,751.0999755859375,0.12353529,15.625,359.39145,1730968854689,0.65,180.0,1732711951545134,3.0999901,0,,,
Raw,1730968853999,4835126459,18,0.0,-1415004067164873472,0.0,10.030095100402832,35.279029846191406,0.0,0,8,0.0,15,376871927919613,10,41.900001525878906,-398.5579833984375,0.07344246655702591,17,-9149.959723115273,0.1470780074596405,1575420030,,,,0,,1,1.2999999523162842,36.900001525878906,0.0,0.0,0.0,0.0,C,1863757845653121,
Raw,1730968853999,4835126459,18,0.0,-1415004067164873472,0.0,10.030095100402832,35.279029846191406,0.0,0,27,0.0,15,376871926860846,22,27.600000381469727,-117.3590316772461,0.19578666985034943,16,0.0,0.13844075798988342,1575420030,,,,0,,1,1.2999999523162842,22.600000381469727,0.0,0.0,0.0,0.0,C,1863757845653121,
Raw,1730968853999,4835126459,18,0.0,-1415004067164873472,0.0,10.030095100402832,35.279029846191406,0.0,0,4,0.0,15,376871929888500,25,26.100000381469727,-343.8155517578125,0.22461310029029846,16,0.0,0.1588239222764969,1575420030,,,,0,,1,1.2999999523162842,21.100000381469727,0.0,0.0,0.0,0.0,C,1863757845653121,
Raw,1730968853999,4835126459,18,0.0,-1415004067164873472,0.0,10.030095100402832,35.279029846191406,0.0,0,7,0.0,15,376871919933846,28,24.600000381469727,-94.39991760253906,0.2603082060813904,16,0.0,0.18406392633914948,1575420030,,,,0,,1,1.2999999523162842,19.600000381469727,0.0,0.0,0.0,0.0,C,1863757845653121,
Raw,1730968853999,4835126459,18,0.0,-1415004067164873472,0.0,10.030095100402832,35.279029846191406,0.0,0,16,0.0,15,376871926818384,32,23.0,593.3434448242188,0.3086419701576233,16,0.0,0.21824073791503906,1575420030,,,,0,,1,1.2999999523162842,18.0,0.0,0.0,0.0,0.0,C,1863757845653121,
Raw,1730968853999,4835126459,18,0.0,-1415004067164873472,0.0,10.030095100402832,35.279029846191406,0.0,0,23,0.0,47,376857915478225,16,32.400001525878906,428.88482666015625,0.13319836556911469,16,0.0,0.09418456256389618,1561097980,,,,0,,5,1.2999999523162842,27.399999618530273,0.0,0.0,0.0,0.0,C,1863757845653121,
Raw,1730968853999,4835126459,18,0.0,-1415004067164873472,0.0,10.030095100402832,35.279029846191406,0.0,0,13,0.0,47,376857871669806,14,34.79999923706055,318.24853515625,0.11260754615068436,17,-7952.81029905469,0.17564454674720764,1561097980,,,,0,,5,1.2999999523162842,29.799999237060547,0.0,0.0,0.0,0.0,C,1863757845653121,
Raw,1730968853999,4835126459,18,0.0,-1415004067164873472,0.0,10.030095100402832,35.279029846191406,0.0,0,41,0.0,47,376857917511829,15,33.900001525878906,554.6513671875,0.1197303757071495,17,-4932.344176170416,0.18068109452724457,1561097980,,,,0,,5,1.2999999523162842,28.899999618530273,0.0,0.0,0.0,0.0,C,1863757845653121,
Raw,1730968853999,4835126459,18,0.0,-1415004067164873472,0.0,10.030095100402832,35.279029846191406,0.0,0,20,0.0,47,376857920244050,16,33.0,-469.1878356933594,0.12755101919174194,19,-52952.360974511925,0.18621107935905457,1561097980,,,,0,,5,1.2999999523162842,28.0,0.0,0.0,0.0,0.0,C,1863757845653121,
Raw,1730968853999,4835126459,18,0.0,-1415004067164873472,0.0,10.030095100402832,35.279029846191406,0.0,0,11,0.0,239,42053927672060,14,34.599998474121094,-235.09344482421875,0.11413440108299255,16,0.0,0.08070443570613861,1602000000,,,,0,,3,1.2999999523162842,29.600000381469727,0.0,0.0,0.0,0.0,C,1863757845653121,
Raw,1730968853999,4835126459,18,0.0,-1415004067164873472,0.0,10.030095100402832,35.279029846191406,0.0,0,194,0.0,15,376871859766821,17,32.0,124.17684173583984,0.13717420399188995,19,-38794.381425437634,0.19214272499084473,1575420030,,,,0,,4,1.2999999523162842,27.0,0.0,0.0,0.0,0.0,C,1863757845653121,
Raw,1730968853999,4835126459,18,0.0,-1415004067164873472,0.0,10.030095100402832,35.279029846191406,0.0,0,37,0.0,47,376857923552628,19,30.100000381469727,229.37667846679688,0.15872763097286224,16,0.0,0.11223630607128143,1561097980,,,,0,,5,1.2999999523162842,25.100000381469727,0.0,0.0,0.0,0.0,C,1863757845653121,
Raw,1730968853999,4835126459,18,0.0,-1415004067164873472,0.0,10.030095100402832,35.279029846191406,0.0,0,9,0.0,239,42053926242830,18,30.299999237060547,586.9414672851562,0.15622803568840027,16,0.0,0.11046884208917618,1600875010,,,,0,,3,1.2999999523162842,25.299999237060547,0.0,0.0,0.0,0.0,C,1863757845653121,
Raw,1730968853999,4835126459,18,0.0,-1415004067164873472,0.0,10.030095100402832,35.279029846191406,0.0,0,6,0.0,47,376857872765713,18,30.600000381469727,-38.330238342285156,0.1525878757238388,16,0.0,0.1078948900103569,1561097980,,,,0,,5,1.2999999523162842,25.600000381469727,0.0,0.0,0.0,0.0,C,1863757845653121,
Raw,1730968853999,4835126459,18,0.0,-1415004067164873472,0.0,10.030095100402832,35.279029846191406,0.0,0,32,0.0,47,376857927264742,19,29.600000381469727,88.93275451660156,0.16524554789066315,16,0.0,0.11684512346982956,1561097980,,,,0,,5,1.2999999523162842,24.600000381469727,0.0,0.0,0.0,0.0,C,1863757845653121,
Raw,1730968853999,4835126459,18,0.0,-1415004067164873472,0.0,10.030095100402832,35.279029846191406,0.0,0,8,0.0,47,376857867122491,20,29.299999237060547,321.8243713378906,0.16935087740421295,16,0.0,0.11974800378084183,1561097980,,,,0,,5,1.2999999523162842,24.299999237060547,0.0,0.0,0.0,0.0,C,1863757845653121,
Raw,1730968853999,4835126459,18,0.0,-1415004067164873472,0.0,10.030095100402832,35.279029846191406,0.0,0,7,0.0,3072,18614137,21,28.100000381469727,-287.4908142089844,0.18740276992321014,16,0.0,0.13251249492168427,1575420030,,,,0,,6,1.2999999523162842,23.100000381469727,0.0,0.0,0.0,0.0,C,1863757845653121,
Raw,1730968853999,4835126459,18,0.0,-1415004067164873472,0.0,10.030095100402832,35.279029846191406,0.0,0,9,0.0,47,376857871885324,19,29.5,-24.69692039489746,0.16659724712371826,16,0.0,0.11780091375112534,1561097980,,,,0,,5,1.2999999523162842,24.5,0.0,0.0,0.0,0.0,C,1863757845653121,
Raw,1730968853999,4835126459,18,0.0,-1415004067164873472,0.0,10.030095100402832,35.279029846191406,0.0,0,8,0.0,3072,17431522,23,27.200000762939453,72.76084899902344,0.2029055953025818,16,0.0,0.1434745490550995,1575420030,,,,0,,6,1.2999999523162842,22.200000762939453,0.0,0.0,0.0,0.0,C,1863757845653121,
Raw,1730968853999,4835126459,18,0.0,-1415004067164873472,0.0,10.030095100402832,35.279029846191406,0.0,0,10,0.0,47,376857876827839,25,26.100000381469727,-143.8475799560547,0.22461310029029846,16,0.0,0.1588239222764969,1561097980,,,,0,,5,1.2999999523162842,21.100000381469727,0.0,0.0,0.0,0.0,C,1863757845653121,
Raw,1730968853999,4835126459,18,0.0,-1415004067164873472,0.0,10.030095100402832,35.279029846191406,0.0,0,27,0.0,47,376857914691570,24,26.600000381469727,-262.1986389160156,0.21433469653129578,16,0.0,0.15155605971813202,1561097980,,,,0,,5,1.2999999523162842,21.600000381469727,0.0,0.0,0.0,0.0,C,1863757845653121,
Raw,1730968853999,4835126459,18,0.0,-1415004067164873472,0.0,10.030095100402832,35.279029846191406,0.0,0,39,0.0,47,376857870663925,26,25.700000762939453,-76.53174591064453,0.23337766528129578,16,0.0,0.16502134501934052,1561097980,,,,0,,5,1.2999999523162842,20.700000762939453,0.0,0.0,0.0,0.0,C,1863757845653121,
Raw,1730968853999,4835126459,18,0.0,-1415004067164873472,0.0,10.030095100402832,35.279029846191406,0.0,0,40,0.0,47,376857875030821,25,26.0,-179.8123321533203,0.22675736248493195,16,0.0,0.16034013032913208,1561097980,,,,0,,5,1.2999999523162842,21.0,0.0,0.0,0.0,0.0,C,1863757845653121,
Raw,1730968853999,4835126459,18,0.0,-1415004067164873472,0.0,10.030095100402832,35.279029846191406,0.0,0,7,0.0,239,42053935522609,26,25.299999237060547,-243.84323120117188,0.24266545474529266,16,0.0,0.1715887486934662,1604812540,,,,0,,3,1.2999999523162842,20.299999237060547,0.0,0.0,0.0,0.0,C,1863757845653121,
Raw,1730968853999,4835126459,18,0.0,-1415004067164873472,0.0,10.030095100402832,35.279029846191406,0.0,0,27,0.0,3072,20518846,26,25.399999618530273,-144.0309295654297,0.24029220640659332,16,0.0,0.16991062462329865,1575420030,,,,0,,6,1.2999999523162842,20.399999618530273,0.0,0.0,0.0,0.0,C,1863757845653121,
Raw,1730968853999,4835126459,18,0.0,-1415004067164873472,0.0,10.030095100402832,35.279029846191406,0.0,0,196,0.0,15,376871876599994,31,23.399999618530273,-34.245147705078125,0.29536861181259155,16,0.0,0.20885515213012695,1575420030,,,,0,,4,1.2999999523162842,18.399999618530273,0.0,0.0,0.0,0.0,C,1863757845653121,
Raw,1730968853999,4835126459,18,0.0,-1415004067164873472,0.0,10.030095100402832,35.279029846191406,0.0,0,13,0.0,3072,7468155,37,21.5,212.88330078125,0.36730945110321045,16,0.0,0.25972452759742737,1575420030,,,,0,,6,1.2999999523162842,16.5,0.0,0.0,0.0,0.0,C,1863757845653121,
Raw,1730968853999,4835126459,18,0.0,-1415004067164873472,0.0,10.030095100402832,35.279029846191406,0.0,0,28,0.0,47,376857915515955,37,21.399999618530273,-228.2995147705078,0.37180250883102417,16,0.0,0.26290154457092285,1561097980,,,,0,,5,1.2999999523162842,16.399999618530273,0.0,0.0,0.0,0.0,C,1863757845653121,
Fix,GPS,12.9283481603,77.5201432966,737.0,0.07,11.0,0.0,1730968854000,0.55,180.0,1732712948154711,19.0,0,,,
Fix,FLP,12.9283481000,77.5201566000,751.0999755859375,0.08336007,14.7,,1730968855686,0.55,,1732712948154711,3.109956,0,,,
Raw,1730968854999,5835126520,18,0.0,-1415004067164873472,0.0,10.030095100402832,35.376983642578125,0.0,0,8,0.0,15,376872927921009,10,41.70000076293945,-398.56634521484375,0.07424511015415192,25,-9548.516584765952,0.0524987168610096,1575420030,,,,0,,1,1.2999999523162842,36.70000076293945,0.0,0.0,0.0,0.0,C,1863759469620440,
Raw,1730968854999,5835126520,18,0.0,-1415004067164873472,0.0,10.030095100402832,35.376983642578125,0.0,0,27,0.0,15,376872926861411,23,27.399999618530273,-117.80950927734375,0.19929847121238708,16,0.0,0.14092394709587097,1575420030,,,,0,,1,1.2999999523162842,22.399999618530273,0.0,0.0,0.0,0.0,C,1863759469620440,
Raw,1730968854999,5835126520,18,0.0,-1415004067164873472,0.0,10.030095100402832,35.376983642578125,0.0,0,7,0.0,15,376872919934273,26,25.399999618530273,-95.07186889648438,0.24029220640659332,16,0.0,0.16991062462329865,1575420030,,,,0,,1,1.2999999523162842,20.399999618530273,0.0,0.0,0.0,0.0,C,1863759469620440,
Raw,1730968854999,5835126520,18,0.0,-1415004067164873472,0.0,10.030095100402832,35.376983642578125,0.0,0,4,0.0,15,376872929889693,25,26.0,-344.0129089355469,0.22675736248493195,16,0.0,0.16034013032913208,1575420030,,,,0,,1,1.2999999523162842,21.0,0.0,0.0,0.0,0.0,C,1863759469620440,
Raw,1730968854999,5835126520,18,0.0,-1415004067164873472,0.0,10.030095100402832,35.376983642578125,0.0,0,16,0.0,15,376872926816517,28,24.5,593.827880859375,0.26298487186431885,16,0.0,0.18595659732818604,1575420030,,,,0,,1,1.2999999523162842,19.5,0.0,0.0,0.0,0.0,C,1863759469620440,
Raw,1730968854999,5835126520,18,0.0,-1415004067164873472,0.0,10.030095100402832,35.376983642578125,0.0,0,9,0.0,15,376872924603471,36,21.899999618530273,-534.908203125,0.35012781620025635,16,0.0,0.24757537245750427,1575420030,,,,0,,1,1.2999999523162842,16.899999618530273,0.0,0.0,0.0,0.0,C,1863759469620440,
Raw,1730968854999,5835126520,18,0.0,-1415004067164873472,0.0,10.030095100402832,35.376983642578125,0.0,0,23,0.0,47,376858915476844,12,37.29999923706055,429.0917053222656,0.0958506315946579,19,-8884.380255501805,0.16379572451114655,1561097980,,,,0,,5,1.2999999523162842,32.29999923706055,0.0,0.0,0.0,0.0,C,1863759469620440,
Raw,1730968854999,5835126520,18,0.0,-1415004067164873472,0.0,10.030095100402832,35.376983642578125,0.0,0,13,0.0,47,376858871668797,14,35.0,318.09442138671875,0.1111111119389534,17,-7634.650969026625,0.17458641529083252,1561097980,,,,0,,5,1.2999999523162842,30.0,0.0,0.0,0.0,0.0,C,1863759469620440,
Raw,1730968854999,5835126520,18,0.0,-1415004067164873472,0.0,10.030095100402832,35.376983642578125,0.0,0,20,0.0,47,376858920245689,14,34.5,-469.2980651855469,0.11490950733423233,17,-53421.62231830107,0.1772722601890564,1561097980,,,,0,,5,1.2999999523162842,29.5,0.0,0.0,0.0,0.0,C,1863759469620440,
Raw,1730968854999,5835126520,18,0.0,-1415004067164873472,0.0,10.030095100402832,35.376983642578125,0.0,0,41,0.0,47,376858917510054,15,33.900001525878906,554.6574096679688,0.1197303757071495,17,-4377.6787005426595,0.18068109452724457,1561097980,,,,0,,5,1.2999999523162842,28.899999618530273,0.0,0.0,0.0,0.0,C,1863759469620440,
Raw,1730968854999,5835126520,18,0.0,-1415004067164873472,0.0,10.030095100402832,35.376983642578125,0.0,0,11,0.0,239,42054927672944,15,34.29999923706055,-235.12217712402344,0.11648360639810562,16,0.0,0.08236555755138397,1602000000,,,,0,,3,1.2999999523162842,29.299999237060547,0.0,0.0,0.0,0.0,C,1863759469620440,
Raw,1730968854999,5835126520,18,0.0,-1415004067164873472,0.0,10.030095100402832,35.376983642578125,0.0,0,194,0.0,15,376872859766505,16,32.20000076293945,124.177001953125,0.13516435027122498,25,-38670.17601424974,0.09557471424341202,1575420030,,,,0,,4,1.2999999523162842,27.200000762939453,0.0,0.0,0.0,0.0,C,1863759469620440,
Raw,1730968854999,5835126520,18,0.0,-1415004067164873472,0.0,10.030095100402832,35.376983642578125,0.0,0,32,0.0,47,376858927264491,17,31.299999237060547,88.54203033447266,0.14457345008850098,16,0.0,0.10222788900136948,1561097980,,,,0,,5,1.2999999523162842,26.299999237060547,0.0,0.0,0.0,0.0,C,1863759469620440,
Raw,1730968854999,5835126520,18,0.0,-1415004067164873472,0.0,10.030095100402832,35.376983642578125,0.0,0,37,0.0,47,376858923551910,17,31.399999618530273,230.35498046875,0.14348027110099792,16,0.0,0.10145489871501923,1561097980,,,,0,,5,1.2999999523162842,26.399999618530273,0.0,0.0,0.0,0.0,C,1863759469620440,
Raw,1730968854999,5835126520,18,0.0,-1415004067164873472,0.0,10.030095100402832,35.376983642578125,0.0,0,9,0.0,239,42054926240981,17,31.200000762939453,587.1319580078125,0.14567914605140686,16,0.0,0.10300972312688828,1600875010,,,,0,,3,1.2999999523162842,26.200000762939453,0.0,0.0,0.0,0.0,C,1863759469620440,
Raw,1730968854999,5835126520,18,0.0,-1415004067164873472,0.0,10.030095100402832,35.376983642578125,0.0,0,8,0.0,47,376858867121480,19,30.200000762939453,321.6051940917969,0.15747039020061493,16,0.0,0.11134731024503708,1561097980,,,,0,,5,1.2999999523162842,25.200000762939453,0.0,0.0,0.0,0.0,C,1863759469620440,
Raw,1730968854999,5835126520,18,0.0,-1415004067164873472,0.0,10.030095100402832,35.376983642578125,0.0,0,6,0.0,47,376858872765913,18,30.600000381469727,-38.92926788330078,0.1525878757238388,16,0.0,0.1078948900103569,1561097980,,,,0,,5,1.2999999523162842,25.600000381469727,0.0,0.0,0.0,0.0,C,1863759469620440,
Raw,1730968854999,5835126520,18,0.0,-1415004067164873472,0.0,10.030095100402832,35.376983642578125,0.0,0,7,0.0,3072,18615111,21,28.100000381469727,-286.6537780761719,0.18740276992321014,16,0.0,0.13251249492168427,1575420030,,,,0,,6,1.2999999523162842,23.100000381469727,0.0,0.0,0.0,0.0,C,1863759469620440,
Raw,1730968854999,5835126520,18,0.0,-1415004067164873472,0.0,10.030095100402832,35.376983642578125,0.0,0,8,0.0,3072,17431320,23,27.399999618530273,71.3660659790039,0.19929847121238708,16,0.0,0.14092394709587097,1575420030,,,,0,,6,1.2999999523162842,22.399999618530273,0.0,0.0,0.0,0.0,C,1863759469620440,
Raw,1730968854999,5835126520,18,0.0,-1415004067164873472,0.0,10.030095100402832,35.376983642578125,0.0,0,10,0.0,47,376858876828370,24,26.799999237060547,-143.88729858398438,0.21042001247406006,16,0.0,0.1487879902124405,1561097980,,,,0,,5,1.2999999523162842,21.799999237060547,0.0,0.0,0.0,0.0,C,1863759469620440,
Raw,1730968854999,5835126520,18,0.0,-1415004067164873472,0.0,10.030095100402832,35.376983642578125,0.0,0,27,0.0,47,376858914692547,24,26.5,-262.5388488769531,0.21633315086364746,16,0.0,0.15296916663646698,1561097980,,,,0,,5,1.2999999523162842,21.5,0.0,0.0,0.0,0.0,C,1863759469620440,
Raw,1730968854999,5835126520,18,0.0,-1415004067164873472,0.0,10.030095100402832,35.376983642578125,0.0,0,39,0.0,47,376858870664208,26,25.700000762939453,-76.96226501464844,0.23337766528129578,16,0.0,0.16502134501934052,1561097980,,,,0,,5,1.2999999523162842,20.700000762939453,0.0,0.0,0.0,0.0,C,1863759469620440,
Raw,1730968854999,5835126520,18,0.0,-1415004067164873472,0.0,10.030095100402832,35.376983642578125,0.0,0,40,0.0,47,376858875031420,25,25.899999618530273,-179.58056640625,0.2289324849843979,16,0.0,0.16187815368175507,1561097980,,,,0,,5,1.2999999523162842,20.899999618530273,0.0,0.0,0.0,0.0,C,1863759469620440,
Raw,1730968854999,5835126520,18,0.0,-1415004067164873472,0.0,10.030095100402832,35.376983642578125,0.0,0,7,0.0,239,42054935523449,27,25.100000381469727,-244.6891632080078,0.2475186139345169,16,0.0,0.17502041161060333,1604812540,,,,0,,3,1.2999999523162842,20.100000381469727,0.0,0.0,0.0,0.0,C,1863759469620440,
Raw,1730968854999,5835126520,18,0.0,-1415004067164873472,0.0,10.030095100402832,35.376983642578125,0.0,0,196,0.0,15,376872876600228,31,23.600000381469727,-34.10288619995117,0.28905072808265686,16,0.0,0.20438776910305023,1575420030,,,,0,,4,1.2999999523162842,18.600000381469727,0.0,0.0,0.0,0.0,C,1863759469620440,
Raw,1730968854999,5835126520,18,0.0,-1415004067164873472,0.0,10.030095100402832,35.376983642578125,0.0,0,27,0.0,3072,20519469,27,25.100000381469727,-143.6019744873047,0.2475186139345169,16,0.0,0.17502041161060333,1575420030,,,,0,,6,1.2999999523162842,20.100000381469727,0.0,0.0,0.0,0.0,C,1863759469620440,
Raw,1730968854999,5835126520,18,0.0,-1415004067164873472,0.0,10.030095100402832,35.376983642578125,0.0,0,13,0.0,3072,7467565,33,22.600000381469727,213.03199768066406,0.32283055782318115,16,0.0,0.22827348113059998,1575420030,,,,0,,6,1.2999999523162842,17.600000381469727,0.0,0.0,0.0,0.0,C,1863759469620440,
Raw,1730968854999,5835126520,18,0.0,-1415004067164873472,0.0,10.030095100402832,35.376983642578125,0.0,0,28,0.0,47,376858915516664,37,21.399999618530273,-229.1590576171875,0.37180250883102417,16,0.0,0.26290154457092285,1561097980,,,,0,,5,1.2999999523162842,16.399999618530273,0.0,0.0,0.0,0.0,C,1863759469620440,
Raw,1730968854999,5835126520,18,0.0,-1415004067164873472,0.0,10.030095100402832,35.376983642578125,0.0,0,16,0.0,47,376858870769983,43,20.0,-61.24276351928711,0.4444444477558136,16,0.0,0.3142666816711426,1561097980,,,,0,,5,1.2999999523162842,15.0,0.0,0.0,0.0,0.0,C,1863759469620440,
Fix,GPS,12.9283489566,77.5201696996,735.0,0.0,10.0,,1730968855000,0.5,,1732713939270287,17.0,0,,,
Fix,FLP,12.9283489000,77.5201634000,751.0999755859375,0.08341086,13.916,,1730968856676,0.5,,1732713939270287,3.1198673,0,,,
Raw,1730968855999,6835126520,18,0.0,-1415004067164873472,0.0,10.030095100402832,35.43060302734375,0.0,0,8,0.0,15,376873927922347,10,41.5,-398.5035705566406,0.07506098598241806,25,-9947.037901278803,0.05307562276721001,1575420030,,,,0,,1,1.2999999523162842,36.5,0.0,0.0,0.0,0.0,C,1863760922347339,
Raw,1730968855999,6835126520,18,0.0,-1415004067164873472,0.0,10.030095100402832,35.43060302734375,0.0,0,16,0.0,15,376873926814500,26,25.700000762939453,593.2923583984375,0.23337766528129578,16,0.0,0.16502134501934052,1575420030,,,,0,,1,1.2999999523162842,20.700000762939453,0.0,0.0,0.0,0.0,C,1863760922347339,
Raw,1730968855999,6835126520,18,0.0,-1415004067164873472,0.0,10.030095100402832,35.43060302734375,0.0,0,27,0.0,15,376873926861733,23,27.200000762939453,-116.42597198486328,0.2029055953025818,16,0.0,0.1434745490550995,1575420030,,,,0,,1,1.2999999523162842,22.200000762939453,0.0,0.0,0.0,0.0,C,1863760922347339,
Raw,1730968855999,6835126520,18,0.0,-1415004067164873472,0.0,10.030095100402832,35.43060302734375,0.0,0,7,0.0,15,376873919934561,25,25.799999237060547,-95.19733428955078,0.23113907873630524,16,0.0,0.16343843936920166,1575420030,,,,0,,1,1.2999999523162842,20.799999237060547,0.0,0.0,0.0,0.0,C,1863760922347339,
Raw,1730968855999,6835126520,18,0.0,-1415004067164873472,0.0,10.030095100402832,35.43060302734375,0.0,0,4,0.0,15,376873929890764,25,25.899999618530273,-344.4652404785156,0.2289324849843979,16,0.0,0.16187815368175507,1575420030,,,,0,,1,1.2999999523162842,20.899999618530273,0.0,0.0,0.0,0.0,C,1863760922347339,
Raw,1730968855999,6835126520,18,0.0,-1415004067164873472,0.0,10.030095100402832,35.43060302734375,0.0,0,31,0.0,15,376873915823258,32,23.0,318.00775146484375,0.3086419701576233,16,0.0,0.21824073791503906,1575420030,,,,0,,1,1.2999999523162842,18.0,0.0,0.0,0.0,0.0,C,1863760922347339,
Raw,1730968855999,6835126520,18,0.0,-1415004067164873472,0.0,10.030095100402832,35.43060302734375,0.0,0,9,0.0,15,376873924605261,35,22.200000762939453,-535.0927124023438,0.33802053332328796,16,0.0,0.23901431262493134,1575420030,,,,0,,1,1.2999999523162842,17.200000762939453,0.0,0.0,0.0,0.0,C,1863760922347339,
Raw,1730968855999,6835126520,18,0.0,-1415004067164873472,0.0,10.030095100402832,35.43060302734375,0.0,0,23,0.0,47,376859915475431,12,37.099998474121094,428.8632507324219,0.09704875946044922,17,-8455.452091081956,0.16464293003082275,1561097980,,,,0,,5,1.2999999523162842,32.099998474121094,0.0,0.0,0.0,0.0,C,1863760922347339,
Raw,1730968855999,6835126520,18,0.0,-1415004067164873472,0.0,10.030095100402832,35.43060302734375,0.0,0,13,0.0,47,376859871667736,14,35.0,318.1258850097656,0.1111111119389534,17,-7316.513948269057,0.17458641529083252,1561097980,,,,0,,5,1.2999999523162842,30.0,0.0,0.0,0.0,0.0,C,1863760922347339,
Raw,1730968855999,6835126520,18,0.0,-1415004067164873472,0.0,10.030095100402832,35.43060302734375,0.0,0,20,0.0,47,376859920247253,14,34.5,-469.33056640625,0.11490950733423233,19,-53890.92979197673,0.1772722601890564,1561097980,,,,0,,5,1.2999999523162842,29.5,0.0,0.0,0.0,0.0,C,1863760922347339,
Raw,1730968855999,6835126520,18,0.0,-1415004067164873472,0.0,10.030095100402832,35.43060302734375,0.0,0,41,0.0,47,376859917508242,15,34.0,554.7132568359375,0.11890606582164764,17,-3822.981385250474,0.18009822070598602,1561097980,,,,0,,5,1.2999999523162842,29.0,0.0,0.0,0.0,0.0,C,1863760922347339,
Raw,1730968855999,6835126520,18,0.0,-1415004067164873472,0.0,10.030095100402832,35.43060302734375,0.0,0,32,0.0,47,376859927264211,16,32.400001525878906,88.87892150878906,0.13319836556911469,19,-12366.331603749728,0.19020430743694305,1561097980,,,,0,,5,1.2999999523162842,27.399999618530273,0.0,0.0,0.0,0.0,C,1863760922347339,
Raw,1730968855999,6835126520,18,0.0,-1415004067164873472,0.0,10.030095100402832,35.43060302734375,0.0,0,9,0.0,239,42055926238982,17,31.700000762939453,586.8412475585938,0.14027409255504608,16,0.0,0.09918781369924545,1600875010,,,,0,,3,1.2999999523162842,26.700000762939453,0.0,0.0,0.0,0.0,C,1863760922347339,
Raw,1730968855999,6835126520,18,0.0,-1415004067164873472,0.0,10.030095100402832,35.43060302734375,0.0,0,194,0.0,15,376873859766072,16,32.20000076293945,124.24401092529297,0.13516435027122498,25,-38545.94487463105,0.09557471424341202,1575420030,,,,0,,4,1.2999999523162842,27.200000762939453,0.0,0.0,0.0,0.0,C,1863760922347339,
Raw,1730968855999,6835126520,18,0.0,-1415004067164873472,0.0,10.030095100402832,35.43060302734375,0.0,0,37,0.0,47,376859923551183,17,31.399999618530273,229.8723602294922,0.14348027110099792,16,0.0,0.10145489871501923,1561097980,,,,0,,5,1.2999999523162842,26.399999618530273,0.0,0.0,0.0,0.0,C,1863760922347339,
Raw,1730968855999,6835126520,18,0.0,-1415004067164873472,0.0,10.030095100402832,35.43060302734375,0.0,0,8,0.0,47,376859867120454,18,30.799999237060547,321.8430480957031,0.15023136138916016,16,0.0,0.10622859746217728,1561097980,,,,0,,5,1.2999999523162842,25.799999237060547,0.0,0.0,0.0,0.0,C,1863760922347339,
Raw,1730968855999,6835126520,18,0.0,-1415004067164873472,0.0,10.030095100402832,35.43060302734375,0.0,0,6,0.0,47,376859872766018,18,30.5,-38.58723449707031,0.15378700196743011,16,0.0,0.10874278843402863,1561097980,,,,0,,5,1.2999999523162842,25.5,0.0,0.0,0.0,0.0,C,1863760922347339,
Raw,1730968855999,6835126520,18,0.0,-1415004067164873472,0.0,10.030095100402832,35.43060302734375,0.0,0,7,0.0,3072,18616151,21,28.200000762939453,-287.26300048828125,0.18579070270061493,16,0.0,0.1313726007938385,1575420030,,,,0,,6,1.2999999523162842,23.200000762939453,0.0,0.0,0.0,0.0,C,1863760922347339,
Raw,1730968855999,6835126520,18,0.0,-1415004067164873472,0.0,10.030095100402832,35.43060302734375,0.0,0,10,0.0,47,376859876828828,23,27.399999618530273,-143.91514587402344,0.19929847121238708,16,0.0,0.14092394709587097,1561097980,,,,0,,5,1.2999999523162842,22.399999618530273,0.0,0.0,0.0,0.0,C,1863760922347339,
Raw,1730968855999,6835126520,18,0.0,-1415004067164873472,0.0,10.030095100402832,35.43060302734375,0.0,0,11,0.0,239,42055927673736,16,32.79999923706055,-235.20870971679688,0.12939289212226868,16,0.0,0.09149371087551117,1602000000,,,,0,,3,1.2999999523162842,27.799999237060547,0.0,0.0,0.0,0.0,C,1863760922347339,
Raw,1730968855999,6835126520,18,0.0,-1415004067164873472,0.0,10.030095100402832,35.43060302734375,0.0,0,8,0.0,3072,17431090,22,27.600000381469727,70.88664245605469,0.19578666985034943,16,0.0,0.13844075798988342,1575420030,,,,0,,6,1.2999999523162842,22.600000381469727,0.0,0.0,0.0,0.0,C,1863760922347339,
Raw,1730968855999,6835126520,18,0.0,-1415004067164873472,0.0,10.030095100402832,35.43060302734375,0.0,0,27,0.0,47,376859914693394,24,26.399999618530273,-262.2186584472656,0.21835967898368835,16,0.0,0.15440212190151215,1561097980,,,,0,,5,1.2999999523162842,21.399999618530273,0.0,0.0,0.0,0.0,C,1863760922347339,
Raw,1730968855999,6835126520,18,0.0,-1415004067164873472,0.0,10.030095100402832,35.43060302734375,0.0,0,9,0.0,47,376859871885542,25,26.100000381469727,-23.705629348754883,0.22461310029029846,16,0.0,0.1588239222764969,1561097980,,,,0,,5,1.2999999523162842,21.100000381469727,0.0,0.0,0.0,0.0,C,1863760922347339,
Raw,1730968855999,6835126520,18,0.0,-1415004067164873472,0.0,10.030095100402832,35.43060302734375,0.0,0,39,0.0,47,376859870664461,26,25.600000381469727,-76.3025894165039,0.235648974776268,16,0.0,0.16662739217281342,1561097980,,,,0,,5,1.2999999523162842,20.600000381469727,0.0,0.0,0.0,0.0,C,1863760922347339,
Raw,1730968855999,6835126520,18,0.0,-1415004067164873472,0.0,10.030095100402832,35.43060302734375,0.0,0,40,0.0,47,376859875032033,26,25.700000762939453,-178.4215545654297,0.23337766528129578,16,0.0,0.16502134501934052,1561097980,,,,0,,5,1.2999999523162842,20.700000762939453,0.0,0.0,0.0,0.0,C,1863760922347339,
Raw,1730968855999,6835126520,18,0.0,-1415004067164873472,0.0,10.030095100402832,35.43060302734375,0.0,0,196,0.0,15,376873876600345,28,24.5,-35.043128967285156,0.26298487186431885,16,0.0,0.18595659732818604,1575420030,,,,0,,4,1.2999999523162842,19.5,0.0,0.0,0.0,0.0,C,1863760922347339,
Raw,1730968855999,6835126520,18,0.0,-1415004067164873472,0.0,10.030095100402832,35.43060302734375,0.0,0,7,0.0,239,42055935524291,27,24.899999618530273,-246.51318359375,0.252518892288208,16,0.0,0.17855611443519592,1604812540,,,,0,,3,1.2999999523162842,19.899999618530273,0.0,0.0,0.0,0.0,C,1863760922347339,
Raw,1730968855999,6835126520,18,0.0,-1415004067164873472,0.0,10.030095100402832,35.43060302734375,0.0,0,13,0.0,3072,7466888,32,23.200000762939453,213.23805236816406,0.3018958866596222,16,0.0,0.21347057819366455,1575420030,,,,0,,6,1.2999999523162842,18.200000762939453,0.0,0.0,0.0,0.0,C,1863760922347339,
Raw,1730968855999,6835126520,18,0.0,-1415004067164873472,0.0,10.030095100402832,35.43060302734375,0.0,0,27,0.0,3072,20519934,28,24.799999237060547,-142.88128662109375,0.25507602095603943,16,0.0,0.18036425113677979,1575420030,,,,0,,6,1.2999999523162842,19.799999237060547,0.0,0.0,0.0,0.0,C,1863760922347339,
Raw,1730968855999,6835126520,18,0.0,-1415004067164873472,0.0,10.030095100402832,35.43060302734375,0.0,0,28,0.0,47,376859915517549,37,21.600000381469727,-229.64027404785156,0.3628973662853241,16,0.0,0.25660473108291626,1561097980,,,,0,,5,1.2999999523162842,16.600000381469727,0.0,0.0,0.0,0.0,C,1863760922347339,
Raw,1730968855999,6835126520,18,0.0,-1415004067164873472,0.0,10.030095100402832,35.43060302734375,0.0,0,16,0.0,47,376859870770231,41,20.399999618530273,-61.665340423583984,0.4216562807559967,16,0.0,0.2981531620025635,1561097980,,,,0,,5,1.2999999523162842,15.399999618530273,0.0,0.0,0.0,0.0,C,1863760922347339,
Raw,1730968855999,6835126520,18,0.0,-1415004067164873472,0.0,10.030095100402832,35.43060302734375,0.0,0,3,0.0,3072,5541861,60,17.299999237060547,342.091064453125,0.6609821915626526,16,0.0,0.46738049387931824,1575420030,,,,0,,6,1.2999999523162842,12.300000190734863,0.0,0.0,0.0,0.0,C,1863760922347339,
Fix,GPS,12.9283489566,77.5201696996,735.0,0.0,9.0,,1730968856000,0.27,,1732714951181209,15.0,0,,,
Fix,FLP,12.9283493000,77.5201669000,751.0999755859375,0.082723066,11.6,,1730968857689,0.27,,1732714951181209,3.1299863,0,,,
Raw,1730968857000,7835126581,18,0.0,-1415004067164873472,0.0,10.030095100402832,35.251487731933594,0.0,0,8,0.0,15,376874927923752,10,41.400001525878906,-398.742431640625,0.07547397166490555,25,-10345.706646723935,0.05336764454841614,1575420030,,,,0,,1,1.2999999523162842,36.400001525878906,0.0,0.0,0.0,0.0,C,1863762072446559,
Raw,1730968857000,7835126581,18,0.0,-1415004067164873472,0.0,10.030095100402832,35.251487731933594,0.0,0,16,0.0,15,376874926812573,23,27.299999237060547,594.0560302734375,0.20108991861343384,16,0.0,0.14219067990779877,1575420030,,,,0,,1,1.2999999523162842,22.299999237060547,0.0,0.0,0.0,0.0,C,1863762072446559,
Raw,1730968857000,7835126581,18,0.0,-1415004067164873472,0.0,10.030095100402832,35.251487731933594,0.0,0,27,0.0,15,376874926862121,23,27.0,-117.39898681640625,0.20661157369613647,16,0.0,0.14609503746032715,1575420030,,,,0,,1,1.2999999523162842,22.0,0.0,0.0,0.0,0.0,C,1863762072446559,
Raw,1730968857000,7835126581,18,0.0,-1415004067164873472,0.0,10.030095100402832,35.251487731933594,0.0,0,7,0.0,15,376874919934955,25,25.799999237060547,-94.73556518554688,0.23113907873630524,16,0.0,0.16343843936920166,1575420030,,,,0,,1,1.2999999523162842,20.799999237060547,0.0,0.0,0.0,0.0,C,1863762072446559,
Raw,1730968857000,7835126581,18,0.0,-1415004067164873472,0.0,10.030095100402832,35.251487731933594,0.0,0,4,0.0,15,376874929892040,25,25.799999237060547,-345.2184753417969,0.23113907873630524,16,0.0,0.16343843936920166,1575420030,,,,0,,1,1.2999999523162842,20.799999237060547,0.0,0.0,0.0,0.0,C,1863762072446559,
Raw,1730968857000,7835126581,18,0.0,-1415004067164873472,0.0,10.030095100402832,35.251487731933594,0.0,0,31,0.0,15,376874915822220,29,24.200000762939453,318.18328857421875,0.2712673544883728,16,0.0,0.1918131411075592,1575420030,,,,0,,1,1.2999999523162842,19.200000762939453,0.0,0.0,0.0,0.0,C,1863762072446559,
Raw,1730968857000,7835126581,18,0.0,-1415004067164873472,0.0,10.030095100402832,35.251487731933594,0.0,0,9,0.0,15,376874924607077,34,22.5,-535.1224975585938,0.3265306055545807,16,0.0,0.23088979721069336,1575420030,,,,0,,1,1.2999999523162842,17.5,0.0,0.0,0.0,0.0,C,1863762072446559,
Raw,1730968857000,7835126581,18,0.0,-1415004067164873472,0.0,10.030095100402832,35.251487731933594,0.0,0,20,0.0,47,376860920248880,14,34.70000076293945,-469.3559265136719,0.11336711049079895,17,-54360.269599036066,0.1761816293001175,1561097980,,,,0,,5,1.2999999523162842,29.700000762939453,0.0,0.0,0.0,0.0,C,1863762072446559,
Raw,1730968857000,7835126581,18,0.0,-1415004067164873472,0.0,10.030095100402832,35.251487731933594,0.0,0,13,0.0,47,376860871666761,14,35.0,317.8781433105469,0.1111111119389534,25,-6998.453483286227,0.07856667041778564,1561097980,,,,0,,5,1.2999999523162842,30.0,0.0,0.0,0.0,0.0,C,1863762072446559,
Raw,1730968857000,7835126581,18,0.0,-1415004067164873472,0.0,10.030095100402832,35.251487731933594,0.0,0,23,0.0,47,376860915474051,13,36.70000076293945,428.64532470703125,0.09951337426900864,25,-8026.71245716259,0.07036590576171875,1561097980,,,,0,,5,1.2999999523162842,31.700000762939453,0.0,0.0,0.0,0.0,C,1863762072446559,
Raw,1730968857000,7835126581,18,0.0,-1415004067164873472,0.0,10.030095100402832,35.251487731933594,0.0,0,41,0.0,47,376860917506468,15,34.0,554.4719848632812,0.11890606582164764,25,-3268.338254924719,0.08407847583293915,1561097980,,,,0,,5,1.2999999523162842,29.0,0.0,0.0,0.0,0.0,C,1863762072446559,
Raw,1730968857000,7835126581,18,0.0,-1415004067164873472,0.0,10.030095100402832,35.251487731933594,0.0,0,32,0.0,47,376860927263971,16,32.900001525878906,88.86508178710938,0.12846700847148895,17,-12277.4900555122,0.18685877323150635,1561097980,,,,0,,5,1.2999999523162842,27.899999618530273,0.0,0.0,0.0,0.0,C,1863762072446559,
Raw,1730968857000,7835126581,18,0.0,-1415004067164873472,0.0,10.030095100402832,35.251487731933594,0.0,0,9,0.0,239,42056926237109,17,32.0,586.9382934570312,0.13717420399188995,16,0.0,0.09699588268995285,1600875010,,,,0,,3,1.2999999523162842,27.0,0.0,0.0,0.0,0.0,C,1863762072446559,
Raw,1730968857000,7835126581,18,0.0,-1415004067164873472,0.0,10.030095100402832,35.251487731933594,0.0,0,6,0.0,47,376860872766189,18,30.899999618530273,-37.76972961425781,0.1490735113620758,16,0.0,0.1054098829627037,1561097980,,,,0,,5,1.2999999523162842,25.899999618530273,0.0,0.0,0.0,0.0,C,1863762072446559,
Raw,1730968857000,7835126581,18,0.0,-1415004067164873472,0.0,10.030095100402832,35.251487731933594,0.0,0,37,0.0,47,376860923550468,17,31.299999237060547,229.5740509033203,0.14457345008850098,16,0.0,0.10222788900136948,1561097980,,,,0,,5,1.2999999523162842,26.299999237060547,0.0,0.0,0.0,0.0,C,1863762072446559,
Raw,1730968857000,7835126581,18,0.0,-1415004067164873472,0.0,10.030095100402832,35.251487731933594,0.0,0,8,0.0,47,376860867119420,18,30.799999237060547,321.8135070800781,0.15023136138916016,16,0.0,0.10622859746217728,1561097980,,,,0,,5,1.2999999523162842,25.799999237060547,0.0,0.0,0.0,0.0,C,1863762072446559,
Raw,1730968857000,7835126581,18,0.0,-1415004067164873472,0.0,10.030095100402832,35.251487731933594,0.0,0,11,0.0,239,42056927674687,16,32.20000076293945,-235.06936645507812,0.13516435027122498,16,0.0,0.09557471424341202,1602000000,,,,0,,3,1.2999999523162842,27.200000762939453,0.0,0.0,0.0,0.0,C,1863762072446559,
Raw,1730968857000,7835126581,18,0.0,-1415004067164873472,0.0,10.030095100402832,35.251487731933594,0.0,0,10,0.0,47,376860876829352,21,28.299999237060547,-143.9234161376953,0.18419939279556274,16,0.0,0.13024738430976868,1561097980,,,,0,,5,1.2999999523162842,23.299999237060547,0.0,0.0,0.0,0.0,C,1863762072446559,
Raw,1730968857000,7835126581,18,0.0,-1415004067164873472,0.0,10.030095100402832,35.251487731933594,0.0,0,27,0.0,47,376860914694356,23,27.299999237060547,-260.9090576171875,0.20108991861343384,16,0.0,0.14219067990779877,1561097980,,,,0,,5,1.2999999523162842,22.299999237060547,0.0,0.0,0.0,0.0,C,1863762072446559,
Raw,1730968857000,7835126581,18,0.0,-1415004067164873472,0.0,10.030095100402832,35.251487731933594,0.0,0,7,0.0,3072,18617124,21,28.200000762939453,-286.46051025390625,0.18579070270061493,16,0.0,0.1313726007938385,1575420030,,,,0,,6,1.2999999523162842,23.200000762939453,0.0,0.0,0.0,0.0,C,1863762072446559,
Raw,1730968857000,7835126581,18,0.0,-1415004067164873472,0.0,10.030095100402832,35.251487731933594,0.0,0,8,0.0,3072,17430993,22,27.600000381469727,70.41742706298828,0.19578666985034943,16,0.0,0.13844075798988342,1575420030,,,,0,,6,1.2999999523162842,22.600000381469727,0.0,0.0,0.0,0.0,C,1863762072446559,
Raw,1730968857000,7835126581,18,0.0,-1415004067164873472,0.0,10.030095100402832,35.251487731933594,0.0,0,39,0.0,47,376860870664753,25,25.799999237060547,-76.56404113769531,0.23113907873630524,16,0.0,0.16343843936920166,1561097980,,,,0,,5,1.2999999523162842,20.799999237060547,0.0,0.0,0.0,0.0,C,1863762072446559,
Raw,1730968857000,7835126581,18,0.0,-1415004067164873472,0.0,10.030095100402832,35.251487731933594,0.0,0,9,0.0,47,376860871885660,25,26.100000381469727,-23.224754333496094,0.22461310029029846,16,0.0,0.1588239222764969,1561097980,,,,0,,5,1.2999999523162842,21.100000381469727,0.0,0.0,0.0,0.0,C,1863762072446559,
