# 
# Header Description:
# 
# Version: v3.1.0.3 Platform: 13 Manufacturer: OPPO Model: CPH2371 GNSS Hardware Model Name: MTK_MNLD_6_0_0_20040301,MNL_VER_22051902ALPS05_6.7o_00
# 
# Raw,utcTimeMillis,TimeNanos,LeapSecond,TimeUncertaintyNanos,FullBiasNanos,BiasNanos,BiasUncertaintyNanos,DriftNanosPerSecond,DriftUncertaintyNanosPerSecond,HardwareClockDiscontinuityCount,Svid,TimeOffsetNanos,State,ReceivedSvTimeNanos,ReceivedSvTimeUncertaintyNanos,Cn0DbHz,PseudorangeRateMetersPerSecond,PseudorangeRateUncertaintyMetersPerSecond,AccumulatedDeltaRangeState,AccumulatedDeltaRangeMeters,AccumulatedDeltaRangeUncertaintyMeters,CarrierFrequencyHz,CarrierCycles,CarrierPhase,CarrierPhaseUncertainty,MultipathIndicator,SnrInDb,ConstellationType,AgcDb,BasebandCn0DbHz,FullInterSignalBiasNanos,FullInterSignalBiasUncertaintyNanos,SatelliteInterSignalBiasNanos,SatelliteInterSignalBiasUncertaintyNanos,CodeType,ChipsetElapsedRealtimeNanos,IsFullTracking
# 
# UncalAccel,utcTimeMillis,elapsedRealtimeNanos,UncalAccelXMps2,UncalAccelYMps2,UncalAccelZMps2,BiasXMps2,BiasYMps2,BiasZMps2
# 
# Accel,utcTimeMillis,elapsedRealtimeNanos,AccelXMps2,AccelYMps2,AccelZMps2
# 
# UncalGyro,utcTimeMillis,elapsedRealtimeNanos,UncalGyroXRadPerSec,UncalGyroYRadPerSec,UncalGyroZRadPerSec,DriftXRadPerSec,DriftYRadPerSec,DriftZRadPerSec
# 
# Gyro,utcTimeMillis,elapsedRealtimeNanos,GyroXRadPerSec,GyroYRadPerSec,GyroZRadPerSec
# 
# UncalMag,utcTimeMillis,elapsedRealtimeNanos,UncalMagXMicroT,UncalMagYMicroT,UncalMagZMicroT,BiasXMicroT,BiasYMicroT,BiasZMicroT
# 
# Mag,utcTimeMillis,elapsedRealtimeNanos,MagXMicroT,MagYMicroT,MagZMicroT
# 
# Pressure,utcTimeMillis,elapsedRealtimeNanos,PressureHpa
# 
# OrientationDeg,utcTimeMillis,elapsedRealtimeNanos,yawDeg,rollDeg,pitchDeg
# 
# Fix,Provider,LatitudeDegrees,LongitudeDegrees,AltitudeMeters,SpeedMps,AccuracyMeters,BearingDegrees,UnixTimeMillis,SpeedAccuracyMps,BearingAccuracyDegrees,elapsedRealtimeNanos,VerticalAccuracyMeters,MockLocation,NumberOfUsedSignals,VerticalSpeedAccuracyMps,SolutionType
# 
# Nav,Svid,Type,Status,MessageId,Sub-messageId,Data(Bytes)
# 
# Status,UnixTimeMillis,SignalCount,SignalIndex,ConstellationType,Svid,CarrierFrequencyHz,Cn0DbHz,AzimuthDegrees,ElevationDegrees,UsedInFix,HasAlmanacData,HasEphemerisData,BasebandCn0DbHz
# 
# Agc,utcTimeMillis,TimeNanos,LeapSecond,TimeUncertaintyNanos,FullBiasNanos,BiasNanos,BiasUncertaintyNanos,DriftNanosPerSecond,DriftUncertaintyNanosPerSecond,HardwareClockDiscontinuityCount,AgcDb,CarrierFrequencyHz,ConstellationType
# 
Fix,GPS,12.9283866667,77.5201466667,738.4,0.0,2.5,0.0,1730968862455,1.1,179.9,2282414362000000,42.5,0,,,
Raw,1730968862456,3011000000,18,707065.2462010902,-1415004077445999872,0.0,145.9338081196956,-3782.66611010685,0.0,0,3,0.0,47,376880386996105,235,29.459999084472656,-785.4644520239829,0.14999,17,-2699.8680828101283,0.0008999999845400453,1575420030,,,,0,10.881360887005513,1,6.0,29.459999084472656,0.0,0.0,0.0,66.7128,C,,
Raw,1730968862456,3011000000,18,707065.2462010902,-1415004077445999872,0.0,145.9338081196956,-3782.66611010685,0.0,0,4,0.0,47,376880386751306,396,23.694000244140625,-1491.603481289282,0.14999,16,-4319.522483766525,0.004900000058114529,1575420030,,,,0,3.1682808692239157,1,6.0,23.694000244140625,0.0,0.0,0.0,66.7128,C,,
Raw,1730968862456,3011000000,18,707065.2462010902,-1415004077445999872,0.0,145.9338081196956,-3782.66611010685,0.0,0,8,0.0,47,376880384783927,316,25.597999572753906,-1546.814941864383,0.14999,16,-4475.091896430151,0.002025000052526593,1575420030,,,,0,5.8897013595901075,1,6.0,25.597999572753906,0.0,0.0,0.0,66.7128,C,,
Raw,1730968862456,3011000000,18,707065.2462010902,-1415004077445999872,0.0,145.9338081196956,-3782.66611010685,0.0,0,32,0.0,47,376866384115157,235,27.600000381469727,-1052.46435546875,0.14999,16,-3088.9193978273925,0.0008999999845400453,1561097980,,,,0,9.183749459902184,5,6.0,27.600000381469727,0.0,0.0,34.89377042809998,66.7128,I,,
Raw,1730968862456,3011000000,18,707065.2462010902,-1415004077445999872,0.0,145.9338081196956,-3782.66611010685,0.0,0,11,0.0,17,531840,487,0.0,-1380.4194432860047,0.14999,16,-3653.533687010949,0.009999999776482582,1602000000,,,,0,0.0,3,6.0,20.0,0.0,0.0,-14.690740643375952,66.7128,C,,
Raw,1730968862456,3011000000,18,707065.2462010902,-1415004077445999872,0.0,145.9338081196956,-3782.66611010685,0.0,0,40,0.0,47,376866331888796,316,26.899999618530273,-1334.7803955078125,0.14999,16,-3751.338938649549,0.002025000052526593,1561097980,,,,0,8.386600894748321,5,6.0,26.899999618530273,0.0,0.0,34.89377042809998,66.7128,I,,
Raw,1730968862456,3011000000,18,707065.2462010902,-1415004077445999872,0.0,145.9338081196956,-3782.66611010685,0.0,0,27,0.0,47,376880383717213,487,23.160999298095703,-1261.7628250263558,0.14999,16,-3521.155458113652,0.009999999776482582,1575420030,,,,0,2.358450361340873,1,6.0,23.160999298095703,0.0,0.0,0.0,66.7128,C,,
Fix,FLP,12.9283869000,77.5201491000,752.0999755859375,0.000012947792,2.3,,1730968863221,1.1,,2282414362000000,5.1720843,0,,,
Fix,GPS,12.9283883333,77.5201450000,738.4,0.0,2.6,0.0,1730968863455,2.7,179.9,2282415362000000,26.9,0,,,
Raw,1730968863456,4011000000,18,707038.8216704237,-1415004077445999872,0.0,94.40190658251254,-3801.13047509603,0.0,0,3,0.0,47,376881386998732,396,29.316999435424805,-791.2161897845123,0.14999,17,-3493.9653094365335,0.004900000058114529,1575420030,,,,0,10.70999375737076,1,6.0,29.316999435424805,0.0,0.0,0.0,66.7128,C,,
Raw,1730968863456,4011000000,18,707038.8216704237,-1415004077445999872,0.0,94.40190658251254,-3801.13047509603,0.0,0,4,0.0,47,376881386756290,487,20.673999786376953,-1496.8333052021023,0.14999,16,-5819.1533603621465,0.009999999776482582,1575420030,,,,0,0.0,1,6.0,20.673999786376953,0.0,0.0,0.0,66.7128,C,,
Raw,1730968863456,4011000000,18,707038.8216704237,-1415004077445999872,0.0,94.40190658251254,-3801.13047509603,0.0,0,8,0.0,47,376881384789083,487,20.865999221801758,-1550.657424552324,0.14999,16,-6029.4576457454805,0.009999999776482582,1575420030,,,,0,0.0,1,6.0,20.865999221801758,0.0,0.0,0.0,66.7128,C,,
Raw,1730968863456,4011000000,18,707038.8216704237,-1415004077445999872,0.0,94.40190658251254,-3801.13047509603,0.0,0,23,0.0,47,376867372321528,235,28.0,-726.98779296875,0.14999,16,-3323.3731859791665,0.0008999999845400453,1561097980,,,,0,9.683204345298398,5,6.0,28.0,0.0,0.0,38.204685969832106,66.7128,I,,
Raw,1730968863456,4011000000,18,707038.8216704237,-1415004077445999872,0.0,94.40190658251254,-3801.13047509603,0.0,0,16,0.0,47,376881383656611,396,17.871000289916992,-556.4171196762677,0.14999,16,-2846.0792571095985,0.004900000058114529,1575420030,,,,0,0.0,1,6.0,17.871000289916992,0.0,0.0,0.0,66.7128,C,,
Raw,1730968863456,4011000000,18,707038.8216704237,-1415004077445999872,0.0,94.40190658251254,-3801.13047509603,0.0,0,32,0.0,47,376867384118679,396,27.600000381469727,-1060.5350341796875,0.14999,16,-4150.341556711785,0.004900000058114529,1561097980,,,,0,9.183749459902184,5,6.0,27.600000381469727,0.0,0.0,38.204685969832106,66.7128,I,,
Raw,1730968863456,4011000000,18,707038.8216704237,-1415004077445999872,0.0,94.40190658251254,-3801.13047509603,0.0,0,11,0.0,17,536441,316,0.0,-1386.7087968297135,0.14999,16,-5042.413263442311,0.002025000052526593,1602000000,,,,0,4.5448756300612505,3,6.0,24.0,0.0,0.0,-20.102109773946115,66.7128,C,,
Raw,1730968863456,4011000000,18,707038.8216704237,-1415004077445999872,0.0,94.40190658251254,-3801.13047509603,0.0,0,7,0.0,17,387275,235,0.0,-1395.333065661072,0.14999,16,-4693.161201840818,0.0008999999845400453,1604812540,,,,0,7.590112906451946,3,6.0,27.0,0.0,0.0,-20.102109773946115,66.7128,C,,
Raw,1730968863456,4011000000,18,707038.8216704237,-1415004077445999872,0.0,94.40190658251254,-3801.13047509603,0.0,0,16,0.0,47,376867327628472,316,25.200000762939453,-1199.0037841796875,0.14999,16,-4590.26002941475,0.002025000052526593,1561097980,,,,0,6.3547137833366785,5,6.0,25.200000762939453,0.0,0.0,38.204685969832106,66.7128,I,,
Raw,1730968863456,4011000000,18,707038.8216704237,-1415004077445999872,0.0,94.40190658251254,-3801.13047509603,0.0,0,40,0.0,47,376867331893206,316,24.899999618530273,-1329.7230224609375,0.14999,16,-5078.254358825937,0.002025000052526593,1561097980,,,,0,5.977917323025908,5,6.0,24.899999618530273,0.0,0.0,38.204685969832106,66.7128,I,,
Raw,1730968863456,4011000000,18,707038.8216704237,-1415004077445999872,0.0,94.40190658251254,-3801.13047509603,0.0,0,27,0.0,47,376881383721420,396,22.757999420166016,-1267.3634800173686,0.14999,16,-4791.254725638282,0.004900000058114529,1575420030,,,,0,1.729609695782486,1,6.0,22.757999420166016,0.0,0.0,0.0,66.7128,C,,
Fix,FLP,12.9283881000,77.5201456000,752.0999755859375,0.00028779663,2.55,,1730968864221,2.7,,2282415362000000,5.1820846,0,,,
Fix,GPS,12.9284033333,77.5201450000,738.4,0.0,2.9,0.0,1730968865000,3.8,103.0,2282416906000000,27.8,0,,,
Raw,1730968865000,5555000000,18,707004.4228731064,-1415004077445999872,0.0,90.09224635886609,-3834.5142005817897,0.0,0,3,0.0,47,376882931002829,316,26.716999053955078,-800.3763957087441,0.14999,21,-4730.934962603862,0.002025000052526593,1575420030,,,,0,7.380541495181846,1,6.0,26.716999053955078,0.0,0.0,0.0,66.7128,C,,
Raw,1730968865000,5555000000,18,707004.4228731064,-1415004077445999872,0.0,90.09224635886609,-3834.5142005817897,0.0,0,4,0.0,47,376882930763989,487,20.91200065612793,-1504.51195223338,0.14999,16,-8144.5035344933785,0.009999999776482582,1575420030,,,,0,0.0,1,6.0,20.91200065612793,0.0,0.0,0.0,66.7128,C,,
Raw,1730968865000,5555000000,18,707004.4228731064,-1415004077445999872,0.0,90.09224635886609,-3834.5142005817897,0.0,0,8,0.0,47,376882928797059,396,25.208999633789062,-1558.2353497372576,0.14999,16,-8437.371318750344,0.004900000058114529,1575420030,,,,0,5.33148972596959,1,6.0,25.208999633789062,0.0,0.0,0.0,66.7128,C,,
Raw,1730968865000,5555000000,18,707004.4228731064,-1415004077445999872,0.0,90.09224635886609,-3834.5142005817897,0.0,0,23,0.0,47,376868916325293,74,30.399999618530273,-732.7450561523438,0.14999,16,-4458.864162155911,0.0006249999860301614,1561097980,,,,0,12.450640817681663,5,6.0,30.399999618530273,0.0,0.0,34.44451734891778,66.7128,I,,
Raw,1730968865000,5555000000,18,707004.4228731064,-1415004077445999872,0.0,90.09224635886609,-3834.5142005817897,0.0,0,16,0.0,47,376882927659479,396,24.406999588012695,-566.5648456954708,0.14999,16,-3721.943599538381,0.004900000058114529,1575420030,,,,0,4.183027198832042,1,6.0,24.406999588012695,0.0,0.0,0.0,66.7128,C,,
Raw,1730968865000,5555000000,18,707004.4228731064,-1415004077445999872,0.0,90.09224635886609,-3834.5142005817897,0.0,0,32,0.0,47,376868928124170,396,27.600000381469727,-1071.0638427734375,0.14999,16,-5803.3269333844255,0.004900000058114529,1561097980,,,,0,9.183749459902184,5,6.0,27.600000381469727,0.0,0.0,34.44451734891778,66.7128,I,,
Raw,1730968865000,5555000000,18,707004.4228731064,-1415004077445999872,0.0,90.09224635886609,-3834.5142005817897,0.0,0,9,0.0,17,83880,316,0.0,-576.0981138946215,0.14999,16,-5096.892606225213,0.002025000052526593,1600875010,,,,0,1.6103919363977415,3,6.0,24.0,0.0,0.0,-18.432289158832777,66.7128,C,,
Raw,1730968865000,5555000000,18,707004.4228731064,-1415004077445999872,0.0,90.09224635886609,-3834.5142005817897,0.0,0,11,0.0,17,543655,316,0.0,-1394.4824487747592,0.14999,16,-7197.673574146491,0.002025000052526593,1602000000,,,,0,5.304718040629694,3,6.0,25.0,0.0,0.0,-18.432289158832777,66.7128,C,,
Raw,1730968865000,5555000000,18,707004.4228731064,-1415004077445999872,0.0,90.09224635886609,-3834.5142005817897,0.0,0,7,0.0,17,394349,316,0.0,-1404.00980511138,0.14999,16,-6862.20882072965,0.002025000052526593,1604812540,,,,0,6.104793363807489,3,6.0,25.0,0.0,0.0,-18.432289158832777,66.7128,C,,
Raw,1730968865000,5555000000,18,707004.4228731064,-1415004077445999872,0.0,90.09224635886609,-3834.5142005817897,0.0,0,16,0.0,47,376868871634920,235,26.200000762939453,-1213.3536376953125,0.14999,16,-6462.152997962916,0.0008999999845400453,1561097980,,,,0,7.499682879358788,5,6.0,26.200000762939453,0.0,0.0,34.44451734891778,66.7128,I,,
Raw,1730968865000,5555000000,18,707004.4228731064,-1415004077445999872,0.0,90.09224635886609,-3834.5142005817897,0.0,0,40,0.0,47,376868875900085,235,24.899999618530273,-1336.48388671875,0.14999,16,-7147.094469852531,0.0008999999845400453,1561097980,,,,0,5.912430524802489,5,6.0,24.899999618530273,0.0,0.0,34.44451734891778,66.7128,I,,
Raw,1730968865000,5555000000,18,707004.4228731064,-1415004077445999872,0.0,90.09224635886609,-3834.5142005817897,0.0,0,27,0.0,47,376882927727977,316,25.288000106811523,-1275.6516614693287,0.14999,16,-6762.938838747164,0.002025000052526593,1575420030,,,,0,5.410813470321617,1,6.0,25.288000106811523,0.0,0.0,0.0,66.7128,C,,
Fix,FLP,12.9284018000,77.5201451000,752.0999755859375,0.020554464,2.666,,1730968865765,3.8,,2282416906000000,5.1975245,0,,,
Fix,GPS,12.9284200000,77.5201416667,738.5,0.0,3.1,0.0,1730968866000,3.9,104.3,2282417906000000,27.7,0,,,
Raw,1730968866000,6555000000,18,706923.1166249019,-1415004077445999872,0.0,84.33057250792886,-3839.8156773100377,0.0,0,3,0.0,47,376883931005500,316,27.30699920654297,-801.5684257518741,0.14999,20,-5525.878478512945,0.002025000052526593,1575420030,,,,0,8.13368976575436,1,6.0,27.30699920654297,0.0,0.0,0.0,66.7128,C,,
Raw,1730968866000,6555000000,18,706923.1166249019,-1415004077445999872,0.0,84.33057250792886,-3839.8156773100377,0.0,0,4,0.0,47,376883930769012,487,19.788999557495117,-1506.04861080796,0.14999,16,-9643.842837938198,0.009999999776482582,1575420030,,,,0,0.0,1,6.0,19.788999557495117,0.0,0.0,0.0,66.7128,C,,
Raw,1730968866000,6555000000,18,706923.1166249019,-1415004077445999872,0.0,84.33057250792886,-3839.8156773100377,0.0,0,8,0.0,47,376883928802255,235,29.649999618530273,-1557.5563135259242,0.14999,17,-9989.136424519676,0.0008999999845400453,1575420030,,,,0,11.109676985732147,1,6.0,29.649999618530273,0.0,0.0,0.0,66.7128,C,,
Raw,1730968866000,6555000000,18,706923.1166249019,-1415004077445999872,0.0,84.33057250792886,-3839.8156773100377,0.0,0,41,0.0,47,376869918356293,235,30.700000762939453,-600.2098388671875,0.14999,16,-5919.572896341307,0.0008999999845400453,1561097980,,,,0,12.792490779308483,5,6.0,30.700000762939453,0.0,0.0,38.65267827974754,66.7128,I,,
Raw,1730968866000,6555000000,18,706923.1166249019,-1415004077445999872,0.0,84.33057250792886,-3839.8156773100377,0.0,0,23,0.0,47,376869916327738,235,26.600000381469727,-732.7538452148438,0.14999,16,-5185.353386941112,0.0008999999845400453,1561097980,,,,0,8.060390684026252,5,6.0,26.600000381469727,0.0,0.0,38.65267827974754,66.7128,I,,
Raw,1730968866000,6555000000,18,706923.1166249019,-1415004077445999872,0.0,84.33057250792886,-3839.8156773100377,0.0,0,16,0.0,47,376883927661365,235,29.649999618530273,-567.635108229713,0.14999,17,-4283.212661316777,0.0008999999845400453,1575420030,,,,0,11.109676985732147,1,6.0,29.649999618530273,0.0,0.0,0.0,66.7128,C,,
Raw,1730968866000,6555000000,18,706923.1166249019,-1415004077445999872,0.0,84.33057250792886,-3839.8156773100377,0.0,0,32,0.0,47,376869928127748,235,25.899999618530273,-1070.2666015625,0.14999,16,-6868.114864330485,0.0008999999845400453,1561097980,,,,0,7.166991118860486,5,6.0,25.899999618530273,0.0,0.0,38.65267827974754,66.7128,I,,
Raw,1730968866000,6555000000,18,706923.1166249019,-1415004077445999872,0.0,84.33057250792886,-3839.8156773100377,0.0,0,9,0.0,17,85900,797,0.0,-576.2157049523036,0.14999,16,-5664.971956297896,0.02250000089406967,1600875010,,,,0,0.0,3,6.0,17.0,0.0,0.0,-17.563955920186675,66.7128,C,,
Raw,1730968866000,6555000000,18,706923.1166249019,-1415004077445999872,0.0,84.33057250792886,-3839.8156773100377,0.0,0,11,0.0,17,548302,487,0.0,-1396.1370705090244,0.14999,16,-8586.97905872328,0.009999999776482582,1602000000,,,,0,0.0,3,6.0,19.0,0.0,0.0,-17.563955920186675,66.7128,C,,
Raw,1730968866000,6555000000,18,706923.1166249019,-1415004077445999872,0.0,84.33057250792886,-3839.8156773100377,0.0,0,7,0.0,17,399041,487,0.0,-1405.9390032041224,0.14999,16,-8261.780409197278,0.009999999776482582,1604812540,,,,0,0.0,3,6.0,20.0,0.0,0.0,-17.563955920186675,66.7128,C,,
Raw,1730968866000,6555000000,18,706923.1166249019,-1415004077445999872,0.0,84.33057250792886,-3839.8156773100377,0.0,0,16,0.0,47,376869871638982,316,26.200000762939453,-1219.4603271484375,0.14999,16,-7674.150385646827,0.002025000052526593,1561097980,,,,0,7.499682879358788,5,6.0,26.200000762939453,0.0,0.0,38.65267827974754,66.7128,I,,
Raw,1730968866000,6555000000,18,706923.1166249019,-1415004077445999872,0.0,84.33057250792886,-3839.8156773100377,0.0,0,40,0.0,47,376869875904540,316,24.5,-1342.440185546875,0.14999,16,-8477.325138029273,0.002025000052526593,1561097980,,,,0,5.51147212457991,5,6.0,24.5,0.0,0.0,38.65267827974754,66.7128,I,,
Raw,1730968866000,6555000000,18,706923.1166249019,-1415004077445999872,0.0,84.33057250792886,-3839.8156773100377,0.0,0,27,0.0,47,376883927732230,487,22.114999771118164,-1276.9209983170329,0.14999,16,-8033.485869452916,0.009999999776482582,1575420030,,,,0,0.7065592468348596,1,6.0,22.114999771118164,0.0,0.0,0.0,66.7128,C,,
Fix,FLP,12.9284175000,77.5201422000,752.0999755859375,0.060567487,2.775,,1730968866764,3.9,,2282417906000000,5.2075243,0,,,
Fix,GPS,12.9284316667,77.5201200000,738.6,0.0,3.2,0.0,1730968867000,2.9,52.2,2282418906000000,28.5,0,,,
Raw,1730968867000,7555000000,18,706865.8374154295,-1415004077445999872,0.0,84.47390083008432,-3836.9213669701417,0.0,0,3,0.0,47,376884931008171,316,25.128999710083008,-801.0808911321607,0.14999,16,-6327.152575041066,0.002025000052526593,1575420030,,,,0,5.211129052189599,1,6.0,25.128999710083008,0.0,0.0,0.0,66.7128,C,,
Raw,1730968867000,7555000000,18,706865.8374154295,-1415004077445999872,0.0,84.47390083008432,-3836.9213669701417,0.0,0,4,0.0,47,376884930774029,487,19.788999557495117,-1503.7429725282632,0.14999,16,-11148.769126014096,0.009999999776482582,1575420030,,,,0,0.0,1,6.0,19.788999557495117,0.0,0.0,0.0,66.7128,C,,
Raw,1730968867000,7555000000,18,706865.8374154295,-1415004077445999872,0.0,84.47390083008432,-3836.9213669701417,0.0,0,8,0.0,47,376884928807448,235,29.176000595092773,-1556.4821949431366,0.14999,21,-11546.249137930563,0.0008999999845400453,1575420030,,,,0,10.51626357238774,1,6.0,29.176000595092773,0.0,0.0,0.0,66.7128,C,,
Raw,1730968867000,7555000000,18,706865.8374154295,-1415004077445999872,0.0,84.47390083008432,-3836.9213669701417,0.0,0,41,0.0,47,376870918358307,235,29.100000381469727,-603.3357543945312,0.14999,16,-6520.562708807783,0.0008999999845400453,1561097980,,,,0,10.979093447089136,5,6.0,29.100000381469727,0.0,0.0,37.01106043808415,66.7128,I,,
Raw,1730968867000,7555000000,18,706865.8374154295,-1415004077445999872,0.0,84.47390083008432,-3836.9213669701417,0.0,0,23,0.0,47,376870916330179,316,23.899999618530273,-731.5601196289062,0.14999,16,-5917.561368778138,0.002025000052526593,1561097980,,,,0,4.649354512533007,5,6.0,23.899999618530273,0.0,0.0,37.01106043808415,66.7128,I,,
Raw,1730968867000,7555000000,18,706865.8374154295,-1415004077445999872,0.0,84.47390083008432,-3836.9213669701417,0.0,0,16,0.0,47,376884927663257,316,25.04800033569336,-567.2321743859189,0.14999,21,-4850.372897110041,0.002025000052526593,1575420030,,,,0,5.089077072452522,1,6.0,25.04800033569336,0.0,0.0,0.0,66.7128,C,,
Raw,1730968867000,7555000000,18,706865.8374154295,-1415004077445999872,0.0,84.47390083008432,-3836.9213669701417,0.0,0,32,0.0,47,376870928131315,316,25.899999618530273,-1072.417724609375,0.14999,16,-7937.6660345528735,0.002025000052526593,1561097980,,,,0,7.166991118860486,5,6.0,25.899999618530273,0.0,0.0,37.01106043808415,66.7128,I,,
Raw,1730968867000,7555000000,18,706865.8374154295,-1415004077445999872,0.0,84.47390083008432,-3836.9213669701417,0.0,0,9,0.0,17,87865,797,0.0,-576.6462930476573,0.14999,16,-6242.408113612039,0.02250000089406967,1600875010,,,,0,0.0,3,6.0,17.0,0.0,0.0,-14.78184226961877,66.7128,C,,
Raw,1730968867000,7555000000,18,706865.8374154295,-1415004077445999872,0.0,84.47390083008432,-3836.9213669701417,0.0,0,11,0.0,17,552960,487,0.0,-1395.9052516808915,0.14999,16,-9983.308370557997,0.009999999776482582,1602000000,,,,0,0.0,3,6.0,20.0,0.0,0.0,-14.78184226961877,66.7128,C,,
Raw,1730968867000,7555000000,18,706865.8374154295,-1415004077445999872,0.0,84.47390083008432,-3836.9213669701417,0.0,0,7,0.0,17,403726,316,0.0,-1403.9780622775136,0.14999,16,-9666.545405800198,0.002025000052526593,1604812540,,,,0,6.853579547332382,3,6.0,24.0,0.0,0.0,-14.78184226961877,66.7128,C,,
Raw,1730968867000,7555000000,18,706865.8374154295,-1415004077445999872,0.0,84.47390083008432,-3836.9213669701417,0.0,0,16,0.0,47,376870871643060,316,24.399999618530273,-1220.1715087890625,0.14999,16,-8895.420336359319,0.002025000052526593,1561097980,,,,0,5.327149247241278,5,6.0,24.399999618530273,0.0,0.0,37.01106043808415,66.7128,I,,
Raw,1730968867000,7555000000,18,706865.8374154295,-1415004077445999872,0.0,84.47390083008432,-3836.9213669701417,0.0,0,40,0.0,47,376870875909019,235,24.5,-1346.17578125,0.14999,16,-9819.568539150547,0.0008999999845400453,1561097980,,,,0,5.51147212457991,5,6.0,24.5,0.0,0.0,37.01106043808415,66.7128,I,,
Raw,1730968867000,7555000000,18,706865.8374154295,-1415004077445999872,0.0,84.47390083008432,-3836.9213669701417,0.0,0,27,0.0,47,376884927736479,487,22.648000717163086,-1275.7408616284529,0.14999,16,-9309.572688846178,0.009999999776482582,1575420030,,,,0,1.5467421069850897,1,6.0,22.648000717163086,0.0,0.0,0.0,66.7128,C,,
Fix,FLP,12.9284298000,77.5201235000,752.0999755859375,0.032868307,2.86,,1730968867765,2.9,,2282418906000000,5.2175245,0,,,
Fix,GPS,12.9284383333,77.5201016667,738.7,0.0,3.3,0.0,1730968868000,3.1,53.7,2282419906000000,29.6,0,,,
Raw,1730968868000,8555000000,18,706791.3066879087,-1415004077445999872,0.0,84.19055890771246,-3829.069990071781,0.0,0,3,0.0,47,376885931010839,316,23.073999404907227,-798.5095107117398,0.14999,16,-7127.090289709955,0.002025000052526593,1575420030,,,,0,2.1992316127729423,1,6.0,23.073999404907227,0.0,0.0,0.0,66.7128,C,,
Raw,1730968868000,8555000000,18,706791.3066879087,-1415004077445999872,0.0,84.19055890771246,-3829.069990071781,0.0,0,4,0.0,47,376885930779041,797,17.17099952697754,-1501.9811764687272,0.14999,16,-12651.416707463812,0.02250000089406967,1575420030,,,,0,0.0,1,6.0,17.17099952697754,0.0,0.0,0.0,66.7128,C,,
Raw,1730968868000,8555000000,18,706791.3066879087,-1415004077445999872,0.0,84.19055890771246,-3829.069990071781,0.0,0,8,0.0,47,376885928812631,74,30.156999588012695,-1554.8085769575682,0.14999,21,-13101.13167343465,0.0006249999860301614,1575420030,,,,0,11.72258778701974,1,6.0,30.156999588012695,0.0,0.0,0.0,66.7128,C,,
Raw,1730968868000,8555000000,18,706791.3066879087,-1415004077445999872,0.0,84.19055890771246,-3829.069990071781,0.0,0,41,0.0,47,376871918360305,396,20.200000762939453,-601.2757568359375,0.14999,16,-7124.026266580177,0.004900000058114529,1561097980,,,,0,0.0,5,6.0,20.200000762939453,0.0,0.0,40.154916724498044,66.7128,I,,
Raw,1730968868000,8555000000,18,706791.3066879087,-1415004077445999872,0.0,84.19055890771246,-3829.069990071781,0.0,0,23,0.0,47,376871916332613,487,20.100000381469727,-728.6915893554688,0.14999,16,-6647.445267530121,0.009999999776482582,1561097980,,,,0,0.0,5,6.0,20.100000381469727,0.0,0.0,40.154916724498044,66.7128,I,,
Raw,1730968868000,8555000000,18,706791.3066879087,-1415004077445999872,0.0,84.19055890771246,-3829.069990071781,0.0,0,16,0.0,47,376885927665142,487,21.367000579833984,-563.8569704482234,0.14999,20,-5415.679962140402,0.009999999776482582,1575420030,,,,0,0.0,1,6.0,21.367000579833984,0.0,0.0,0.0,66.7128,C,,
Raw,1730968868000,8555000000,18,706791.3066879087,-1415004077445999872,0.0,84.19055890771246,-3829.069990071781,0.0,0,32,0.0,47,376871928134802,797,25.795000076293945,-1069.1171875,0.14999,16,-9010.167098774536,0.02250000089406967,1561097980,,,,0,4.548060190917479,5,6.0,25.795000076293945,0.0,0.0,40.154916724498044,66.7128,I,,
Raw,1730968868000,8555000000,18,706791.3066879087,-1415004077445999872,0.0,84.19055890771246,-3829.069990071781,0.0,0,7,0.0,17,408406,316,0.0,-1401.0974913191778,0.14999,17,-11068.557036803835,0.002025000052526593,1604812540,,,,0,5.181309882408903,3,6.0,24.0,0.0,0.0,-11.106450056820213,66.7128,C,,
Raw,1730968868000,8555000000,18,706791.3066879087,-1415004077445999872,0.0,84.19055890771246,-3829.069990071781,0.0,0,16,0.0,47,376871871647124,316,24.399999618530273,-1215.699951171875,0.14999,16,-10114.203227113894,0.002025000052526593,1561097980,,,,0,5.327149247241278,5,6.0,24.399999618530273,0.0,0.0,40.154916724498044,66.7128,I,,
Raw,1730968868000,8555000000,18,706791.3066879087,-1415004077445999872,0.0,84.19055890771246,-3829.069990071781,0.0,0,40,0.0,47,376871875913486,316,24.510000228881836,-1341.1221923828125,0.14999,16,-11161.783897688923,0.002025000052526593,1561097980,,,,0,5.691964637581679,5,6.0,24.510000228881836,0.0,0.0,40.154916724498044,66.7128,I,,
Raw,1730968868000,8555000000,18,706791.3066879087,-1415004077445999872,0.0,84.19055890771246,-3829.069990071781,0.0,0,27,0.0,47,376885927740730,487,20.722999572753906,-1273.0125446780728,0.14999,16,-10583.780187195513,0.009999999776482582,1575420030,,,,0,0.0,1,6.0,20.722999572753906,0.0,0.0,0.0,66.7128,C,,
Fix,FLP,12.9284371000,77.5201052000,752.0999755859375,0.016269926,3.02,,1730968868764,3.1,,2282419906000000,5.2275243,0,,,
Fix,GPS,12.9284466667,77.5200716667,738.8000000000001,0.0,3.4,0.0,1730968869000,2.8,33.9,2282420906000000,41.0,0,,,
Raw,1730968869000,9555000000,18,706733.2456875884,-1415004077445999872,0.0,127.68303819449112,-3822.438567023794,0.0,0,3,0.0,47,376886931013498,235,29.010000228881836,-796.544970123861,0.14999,17,-7923.958632333207,0.0008999999845400453,1575420030,,,,0,10.31657915425572,1,6.0,29.010000228881836,0.0,0.0,0.0,66.7128,C,,
Raw,1730968869000,9555000000,18,706733.2456875884,-1415004077445999872,0.0,127.68303819449112,-3822.438567023794,0.0,0,4,0.0,47,376886930784047,797,17.17099952697754,-1500.3878386263705,0.14999,16,-14152.029368674188,0.02250000089406967,1575420030,,,,0,0.0,1,6.0,17.17099952697754,0.0,0.0,0.0,66.7128,C,,
Raw,1730968869000,9555000000,18,706733.2456875884,-1415004077445999872,0.0,127.68303819449112,-3822.438567023794,0.0,0,31,0.0,47,376886916687705,487,19.844999313354492,-837.3480962459229,0.14999,16,-9791.218087075786,0.009999999776482582,1575420030,,,,0,0.0,1,6.0,19.844999313354492,0.0,0.0,0.0,66.7128,C,,
Raw,1730968869000,9555000000,18,706733.2456875884,-1415004077445999872,0.0,127.68303819449112,-3822.438567023794,0.0,0,8,0.0,47,376886928817809,316,25.208999633789062,-1551.4064271384705,0.14999,20,-14653.061644966057,0.002025000052526593,1575420030,,,,0,5.33148972596959,1,6.0,25.208999633789062,0.0,0.0,0.0,66.7128,C,,
Raw,1730968869000,9555000000,18,706733.2456875884,-1415004077445999872,0.0,127.68303819449112,-3822.438567023794,0.0,0,41,0.0,47,376872918362336,316,22.700000762939453,-599.722412109375,0.14999,16,-7723.725042384669,0.002025000052526593,1561097980,,,,0,3.17083239078567,5,6.0,22.700000762939453,0.0,0.0,39.30519532014791,66.7128,I,,
Raw,1730968869000,9555000000,18,706733.2456875884,-1415004077445999872,0.0,127.68303819449112,-3822.438567023794,0.0,0,23,0.0,47,376872916335040,797,20.03499984741211,-727.818603515625,0.14999,16,-7375.228326085691,0.02250000089406967,1561097980,,,,0,0.0,5,6.0,20.03499984741211,0.0,0.0,39.30519532014791,66.7128,I,,
Raw,1730968869000,9555000000,18,706733.2456875884,-1415004077445999872,0.0,127.68303819449112,-3822.438567023794,0.0,0,16,0.0,47,376886927667015,797,18.204999923706055,-561.4209698526399,0.14999,16,-5977.705700215769,0.02250000089406967,1575420030,,,,0,0.0,1,6.0,18.204999923706055,0.0,0.0,0.0,66.7128,C,,
Raw,1730968869000,9555000000,18,706733.2456875884,-1415004077445999872,0.0,127.68303819449112,-3822.438567023794,0.0,0,32,0.0,47,376872928138393,396,21.299999237060547,-1066.7041015625,0.14999,16,-10076.939746770628,0.004900000058114529,1561097980,,,,0,1.0896822578652836,5,6.0,21.299999237060547,0.0,0.0,39.30519532014791,66.7128,I,,
Raw,1730968869000,9555000000,18,706733.2456875884,-1415004077445999872,0.0,127.68303819449112,-3822.438567023794,0.0,0,11,0.0,17,562257,487,0.0,-1392.044376259094,0.14999,16,-12770.724856968867,0.009999999776482582,1602000000,,,,0,0.0,3,6.0,20.0,0.0,0.0,-6.9220572245908345,66.7128,C,,
Raw,1730968869000,9555000000,18,706733.2456875884,-1415004077445999872,0.0,127.68303819449112,-3822.438567023794,0.0,0,7,0.0,17,413072,316,0.0,-1398.2949092199103,0.14999,20,-12467.118862751384,0.002025000052526593,1604812540,,,,0,5.306288867948933,3,6.0,24.0,0.0,0.0,-6.9220572245908345,66.7128,C,,
Raw,1730968869000,9555000000,18,706733.2456875884,-1415004077445999872,0.0,127.68303819449112,-3822.438567023794,0.0,0,16,0.0,47,376872871651075,1797,21.700000762939453,-1216.625732421875,0.14999,16,-11330.998383938304,0.02250000089406967,1561097980,,,,0,1.7469116762608392,5,6.0,21.700000762939453,0.0,0.0,39.30519532014791,66.7128,I,,
Raw,1730968869000,9555000000,18,706733.2456875884,-1415004077445999872,0.0,127.68303819449112,-3822.438567023794,0.0,0,40,0.0,47,376872875917944,316,24.518999099731445,-1338.1851806640625,0.14999,16,-12498.530832918097,0.002025000052526593,1561097980,,,,0,5.691964637581679,5,6.0,24.518999099731445,0.0,0.0,39.30519532014791,66.7128,I,,
Raw,1730968869000,9555000000,18,706733.2456875884,-1415004077445999872,0.0,127.68303819449112,-3822.438567023794,0.0,0,27,0.0,47,376886927744967,396,23.95599937438965,-1270.5167985592427,0.14999,16,-11854.867705765702,0.004900000058114529,1575420030,,,,0,3.5218251811136247,1,6.0,23.95599937438965,0.0,0.0,0.0,66.7128,C,,
Raw,1730968869000,9555000000,18,706733.2456875884,-1415004077445999872,0.0,127.68303819449112,-3822.438567023794,0.0,0,28,0.0,47,376872916405565,235,30.5,-1379.747802734375,0.14999,16,-11129.953629322436,0.0008999999845400453,1561097980,,,,0,12.532294905630977,5,6.0,30.5,0.0,0.0,39.30519532014791,66.7128,I,,
Fix,FLP,12.9284454000,77.5200770000,752.8999633789062,0.014278705,3.18,,1730968869765,2.8,,2282420906000000,1.3301185,0,,,
Fix,GPS,12.9284566667,77.5200500000,738.9,0.0,3.5,0.0,1730968870000,2.8,36.4,2282421906000000,42.2,0,,,
Raw,1730968870000,10555000000,18,706691.810772638,-1415004077445999872,0.0,130.21610925448834,-3813.2233544394253,0.0,0,3,0.0,47,376887931016147,235,28.777000427246094,-793.1730182753001,0.14999,17,-8718.470519851344,0.0008999999845400453,1575420030,,,,0,10.034874592559888,1,6.0,28.777000427246094,0.0,0.0,0.0,66.7128,C,,
Raw,1730968870000,10555000000,18,706691.810772638,-1415004077445999872,0.0,130.21610925448834,-3813.2233544394253,0.0,0,4,0.0,47,376887930789046,487,17.17099952697754,-1496.966733773459,0.14999,16,-15650.547106626203,0.009999999776482582,1575420030,,,,0,0.0,1,6.0,17.17099952697754,0.0,0.0,0.0,66.7128,C,,
Raw,1730968870000,10555000000,18,706691.810772638,-1415004077445999872,0.0,130.21610925448834,-3813.2233544394253,0.0,0,31,0.0,47,376887916690488,487,19.961000442504883,-834.1876231079524,0.14999,16,-10626.24907138118,0.009999999776482582,1575420030,,,,0,0.0,1,6.0,19.961000442504883,0.0,0.0,0.0,66.7128,C,,
Raw,1730968870000,10555000000,18,706691.810772638,-1415004077445999872,0.0,130.21610925448834,-3813.2233544394253,0.0,0,8,0.0,47,376887928822984,396,25.128999710083008,-1549.1188147242635,0.14999,17,-16203.216222611196,0.004900000058114529,1575420030,,,,0,5.238245997962507,1,6.0,25.128999710083008,0.0,0.0,0.0,66.7128,C,,
Raw,1730968870000,10555000000,18,706691.810772638,-1415004077445999872,0.0,130.21610925448834,-3813.2233544394253,0.0,0,41,0.0,47,376873918364332,396,23.299999237060547,-596.1948852539062,0.14999,16,-8321.23239194335,0.004900000058114529,1561097980,,,,0,3.9687862722111475,5,6.0,23.299999237060547,0.0,0.0,38.89416416659024,66.7128,I,,
Raw,1730968870000,10555000000,18,706691.810772638,-1415004077445999872,0.0,130.21610925448834,-3813.2233544394253,0.0,0,23,0.0,47,376873916337462,797,19.972999572753906,-725.1913452148438,0.14999,16,-8101.33864903998,0.02250000089406967,1561097980,,,,0,0.0,5,6.0,19.972999572753906,0.0,0.0,38.89416416659024,66.7128,I,,
Raw,1730968870000,10555000000,18,706691.810772638,-1415004077445999872,0.0,130.21610925448834,-3813.2233544394253,0.0,0,16,0.0,47,376887927668883,797,18.204999923706055,-559.1683870842558,0.14999,16,-6537.84390540274,0.02250000089406967,1575420030,,,,0,0.0,1,6.0,18.204999923706055,0.0,0.0,0.0,66.7128,C,,
Raw,1730968870000,10555000000,18,706691.810772638,-1415004077445999872,0.0,130.21610925448834,-3813.2233544394253,0.0,0,32,0.0,47,376873928142005,396,22.799999237060547,-1063.66259765625,0.14999,16,-11141.734094377965,0.004900000058114529,1561097980,,,,0,3.2894129306307844,5,6.0,22.799999237060547,0.0,0.0,38.89416416659024,66.7128,I,,
Raw,1730968870000,10555000000,18,706691.810772638,-1415004077445999872,0.0,130.21610925448834,-3813.2233544394253,0.0,0,60,0.0,47,376873880739940,74,29.100000381469727,-1144.3446044921875,0.14999,16,-12065.041435783389,0.0006249999860301614,1561097980,,,,0,10.954763208104836,5,6.0,29.100000381469727,0.0,0.0,38.89416416659024,66.7128,I,,
Raw,1730968870000,10555000000,18,706691.810772638,-1415004077445999872,0.0,130.21610925448834,-3813.2233544394253,0.0,0,196,0.0,17,483948,316,25.0,-1184.4298179052773,0.14999,16,-12008.49054429824,0.002025000052526593,1575420030,,,,0,5.984333098010257,4,6.0,25.0,0.0,,0.0,,C,,
Raw,1730968870000,10555000000,18,706691.810772638,-1415004077445999872,0.0,130.21610925448834,-3813.2233544394253,0.0,0,11,0.0,17,566892,487,0.0,-1388.8234012131004,0.14999,16,-14160.345905068225,0.009999999776482582,1602000000,,,,0,0.0,3,6.0,19.0,0.0,0.0,-4.645084836175546,66.7128,C,,
Raw,1730968870000,10555000000,18,706691.810772638,-1415004077445999872,0.0,130.21610925448834,-3813.2233544394253,0.0,0,7,0.0,17,417750,74,0.0,-1395.9998476023459,0.14999,17,-13864.018297419705,0.0006249999860301614,1604812540,,,,0,14.446615606787818,3,6.0,32.0,0.0,0.0,-4.645084836175546,66.7128,C,,
Raw,1730968870000,10555000000,18,706691.810772638,-1415004077445999872,0.0,130.21610925448834,-3813.2233544394253,0.0,0,16,0.0,47,376873871655126,1797,21.700000762939453,-1213.7606201171875,0.14999,16,-12545.56369841414,0.02250000089406967,1561097980,,,,0,1.7469116762608392,5,6.0,21.700000762939453,0.0,0.0,38.89416416659024,66.7128,I,,
Raw,1730968870000,10555000000,18,706691.810772638,-1415004077445999872,0.0,130.21610925448834,-3813.2233544394253,0.0,0,40,0.0,47,376873875922392,316,24.447999954223633,-1331.65673828125,0.14999,16,-13831.872527847541,0.002025000052526593,1561097980,,,,0,3.692142199564218,5,6.0,24.447999954223633,0.0,0.0,38.89416416659024,66.7128,I,,
Raw,1730968870000,10555000000,18,706691.810772638,-1415004077445999872,0.0,130.21610925448834,-3813.2233544394253,0.0,0,27,0.0,47,376887927749197,396,23.148000717163086,-1267.2021763962855,0.14999,16,-13123.22827207245,0.004900000058114529,1575420030,,,,0,2.334368127232178,1,6.0,23.148000717163086,0.0,0.0,0.0,66.7128,C,,
Raw,1730968870000,10555000000,18,706691.810772638,-1415004077445999872,0.0,130.21610925448834,-3813.2233544394253,0.0,0,28,0.0,47,376873916410191,316,26.299999237060547,-1377.9521484375,0.14999,16,-12510.27711027943,0.002025000052526593,1561097980,,,,0,7.643551835360211,5,6.0,26.299999237060547,0.0,0.0,38.89416416659024,66.7128,I,,
Fix,FLP,12.9284551000,77.5200543000,752.8999633789062,0.014472121,3.233,,1730968870764,2.8,,2282421906000000,1.3401185,0,,,
Fix,GPS,12.9284650000,77.5200233333,738.9,3.000316,3.5,292.81,1730968871000,2.9,35.4,2282422906000000,35.5,0,,,
Raw,1730968871000,11555000000,18,706639.5350245936,-1415004077445999872,0.0,103.45611091353297,-3800.102318043589,0.0,0,3,0.0,47,376888931018781,316,27.027999877929688,-788.719514497358,0.14999,21,-9509.022660067532,0.002025000052526593,1575420030,,,,0,7.78332168729065,1,6.0,27.027999877929688,0.0,0.0,0.0,66.7128,C,,
Raw,1730968871000,11555000000,18,706639.5350245936,-1415004077445999872,0.0,103.45611091353297,-3800.102318043589,0.0,0,4,0.0,47,376888930794021,396,23.04400062561035,-1493.3598881725377,0.14999,16,-17145.32195935584,0.004900000058114529,1575420030,,,,0,2.1667894957767655,1,6.0,23.04400062561035,0.0,0.0,0.0,66.7128,C,,
Raw,1730968871000,11555000000,18,706639.5350245936,-1415004077445999872,0.0,103.45611091353297,-3800.102318043589,0.0,0,31,0.0,47,376888916693265,797,19.961000442504883,-830.748027805389,0.14999,16,-11458.60836216676,0.02250000089406967,1575420030,,,,0,0.0,1,6.0,19.961000442504883,0.0,0.0,0.0,66.7128,C,,
Raw,1730968871000,11555000000,18,706639.5350245936,-1415004077445999872,0.0,103.45611091353297,-3800.102318043589,0.0,0,8,0.0,47,376888928828145,235,27.81800079345703,-1544.365375411266,0.14999,21,-17749.591889435833,0.0008999999845400453,1575420030,,,,0,8.812934954561879,1,6.0,27.81800079345703,0.0,0.0,0.0,66.7128,C,,
Raw,1730968871000,11555000000,18,706639.5350245936,-1415004077445999872,0.0,103.45611091353297,-3800.102318043589,0.0,0,41,0.0,47,376874918366314,396,23.21500015258789,-592.256103515625,0.14999,16,-8915.305024769863,0.004900000058114529,1561097980,,,,0,1.5333134625648919,5,6.0,23.21500015258789,0.0,0.0,38.33355333105863,66.7128,I,,
Raw,1730968871000,11555000000,18,706639.5350245936,-1415004077445999872,0.0,103.45611091353297,-3800.102318043589,0.0,0,23,0.0,47,376874916339868,797,14.0,-721.3427734375,0.14999,16,-8824.301362152451,0.02250000089406967,1561097980,,,,0,0.0,5,6.0,14.0,0.0,0.0,38.33355333105863,66.7128,I,,
Raw,1730968871000,11555000000,18,706639.5350245936,-1415004077445999872,0.0,103.45611091353297,-3800.102318043589,0.0,0,16,0.0,47,376888927670743,797,18.204999923706055,-556.0789953230874,0.14999,16,-7095.3186111730565,0.02250000089406967,1575420030,,,,0,0.0,1,6.0,18.204999923706055,0.0,0.0,0.0,66.7128,C,,
Raw,1730968871000,11555000000,18,706639.5350245936,-1415004077445999872,0.0,103.45611091353297,-3800.102318043589,0.0,0,32,0.0,47,376874928145555,487,22.100000381469727,-1058.8843994140625,0.14999,16,-12202.668628073305,0.009999999776482582,1561097980,,,,0,2.2394751888786466,5,6.0,22.100000381469727,0.0,0.0,38.33355333105863,66.7128,I,,
Raw,1730968871000,11555000000,18,706639.5350245936,-1415004077445999872,0.0,103.45611091353297,-3800.102318043589,0.0,0,60,0.0,47,376874880743732,235,28.5,-1140.9119873046875,0.14999,16,-13208.067737989018,0.0008999999845400453,1561097980,,,,0,10.276881234888046,5,6.0,28.5,0.0,0.0,38.33355333105863,66.7128,I,,
Raw,1730968871000,11555000000,18,706639.5350245936,-1415004077445999872,0.0,103.45611091353297,-3800.102318043589,0.0,0,196,0.0,17,487891,396,23.0,-1180.666314524894,0.14999,16,-13191.040443617245,0.004900000058114529,1575420030,,,,0,4.735781988185859,4,6.0,23.0,0.0,,0.0,,C,,
Raw,1730968871000,11555000000,18,706639.5350245936,-1415004077445999872,0.0,103.45611091353297,-3800.102318043589,0.0,0,11,0.0,17,571522,396,0.0,-1385.914929277952,0.14999,16,-15547.561081179194,0.004900000058114529,1602000000,,,,0,0.3278083237633877,3,6.0,21.0,0.0,0.0,-3.8089705472598228,66.7128,C,,
Raw,1730968871000,11555000000,18,706639.5350245936,-1415004077445999872,0.0,103.45611091353297,-3800.102318043589,0.0,0,7,0.0,17,422414,235,0.0,-1392.2069438154708,0.14999,20,-15258.026750557658,0.0008999999845400453,1604812540,,,,0,8.317031959614795,3,6.0,27.0,0.0,0.0,-3.8089705472598228,66.7128,C,,
Raw,1730968871000,11555000000,18,706639.5350245936,-1415004077445999872,0.0,103.45611091353297,-3800.102318043589,0.0,0,16,0.0,47,376874871659169,797,21.700000762939453,-1211.19775390625,0.14999,16,-13757.70038780955,0.02250000089406967,1561097980,,,,0,1.7469116762608392,5,6.0,21.700000762939453,0.0,0.0,38.33355333105863,66.7128,I,,
Raw,1730968871000,11555000000,18,706639.5350245936,-1415004077445999872,0.0,103.45611091353297,-3800.102318043589,0.0,0,40,0.0,47,376874875926823,316,24.3799991607666,-1328.4942626953125,0.14999,16,-15160.780089593849,0.002025000052526593,1561097980,,,,0,3.692142199564218,5,6.0,24.3799991607666,0.0,0.0,38.33355333105863,66.7128,I,,
Raw,1730968871000,11555000000,18,706639.5350245936,-1415004077445999872,0.0,103.45611091353297,-3800.102318043589,0.0,0,27,0.0,47,376888927753415,487,20.82200050354004,-1263.273095220528,0.14999,16,-14388.363668325164,0.009999999776482582,1575420030,,,,0,0.0,1,6.0,20.82200050354004,0.0,0.0,0.0,66.7128,C,,
Raw,1730968871000,11555000000,18,706639.5350245936,-1415004077445999872,0.0,103.45611091353297,-3800.102318043589,0.0,0,28,0.0,47,376874916414778,235,27.200000762939453,-1372.2576904296875,0.14999,16,-13885.468764779514,0.0008999999845400453,1561097980,,,,0,8.802122962863248,5,6.0,27.200000762939453,0.0,0.0,38.33355333105863,66.7128,I,,
Fix,FLP,12.9284637000,77.5200282000,752.8999633789062,2.6667597,3.333,293.45404,1730968871765,2.9,35.4,2282422906000000,1.3501185,0,,,
Fix,GPS,12.9284800000,77.5199966667,738.9,3.0507586,3.6,298.48,1730968872000,2.6,30.6,2282423906000000,34.4,0,,,
Raw,1730968872000,12555000000,18,706571.7276983666,-1415004077445999872,0.0,97.38835016722557,-3802.556824964846,0.0,0,3,0.0,47,376889931021412,316,27.333999633789062,-790.0749852487166,0.14999,21,-10297.839993340955,0.002025000052526593,1575420030,,,,0,8.18738940905639,1,6.0,27.333999633789062,0.0,0.0,0.0,66.7128,C,,
Raw,1730968872000,12555000000,18,706571.7276983666,-1415004077445999872,0.0,97.38835016722557,-3802.556824964846,0.0,0,4,0.0,47,376889930799050,316,23.149999618530273,-1495.3260083465675,0.14999,17,-18639.0907925105,0.002025000052526593,1575420030,,,,0,5.264828695491628,1,6.0,23.149999618530273,0.0,0.0,0.0,66.7128,C,,
Raw,1730968872000,12555000000,18,706571.7276983666,-1415004077445999872,0.0,97.38835016722557,-3802.556824964846,0.0,0,31,0.0,47,376889916696037,1797,19.961000442504883,-832.2452896430223,0.14999,16,-12289.74589501074,0.02250000089406967,1575420030,,,,0,0.0,1,6.0,19.961000442504883,0.0,0.0,0.0,66.7128,C,,
Raw,1730968872000,12555000000,18,706571.7276983666,-1415004077445999872,0.0,97.38835016722557,-3802.556824964846,0.0,0,8,0.0,47,376889928833298,316,24.916000366210938,-1546.1963945109558,0.14999,20,-19294.635125660505,0.002025000052526593,1575420030,,,,0,4.902024185001357,1,6.0,24.916000366210938,0.0,0.0,0.0,66.7128,C,,
Raw,1730968872000,12555000000,18,706571.7276983666,-1415004077445999872,0.0,97.38835016722557,-3802.556824964846,0.0,0,41,0.0,47,376875918368289,396,23.128999710083008,-592.6326904296875,0.14999,16,-9507.286397162858,0.004900000058114529,1561097980,,,,0,1.4837039710906506,5,6.0,23.128999710083008,0.0,0.0,39.674515006092356,66.7128,I,,
Raw,1730968872000,12555000000,18,706571.7276983666,-1415004077445999872,0.0,97.38835016722557,-3802.556824964846,0.0,0,23,0.0,47,376875916342273,797,14.0,-720.5756225585938,0.14999,16,-9545.224994506603,0.02250000089406967,1561097980,,,,0,0.0,5,6.0,14.0,0.0,0.0,39.674515006092356,66.7128,I,,
Raw,1730968872000,12555000000,18,706571.7276983666,-1415004077445999872,0.0,97.38835016722557,-3802.556824964846,0.0,0,16,0.0,47,376889927672598,487,17.503999710083008,-556.7365677461314,0.14999,16,-7650.9658835332875,0.009999999776482582,1575420030,,,,0,0.0,1,6.0,17.503999710083008,0.0,0.0,0.0,66.7128,C,,
Raw,1730968872000,12555000000,18,706571.7276983666,-1415004077445999872,0.0,97.38835016722557,-3802.556824964846,0.0,0,8,0.0,47,376889918316956,396,20.200000762939453,-1076.0113915808952,0.14999,25,-14179.68178110426,0.004900000058114529,1575420030,,,,0,0.0,6,6.0,20.200000762939453,0.0,0.0,-4.047126085388058,66.7128,C,,
Raw,1730968872000,12555000000,18,706571.7276983666,-1415004077445999872,0.0,97.38835016722557,-3802.556824964846,0.0,0,32,0.0,47,376875928149101,396,22.100000381469727,-1059.7198486328125,0.14999,16,-13261.351526559829,0.004900000058114529,1561097980,,,,0,2.305029384103365,5,6.0,22.100000381469727,0.0,0.0,39.674515006092356,66.7128,I,,
Raw,1730968872000,12555000000,18,706571.7276983666,-1415004077445999872,0.0,97.38835016722557,-3802.556824964846,0.0,0,60,0.0,47,376875880747544,235,25.200000762939453,-1124.7464599609375,0.14999,16,-14352.793397129546,0.0008999999845400453,1561097980,,,,0,6.3547137833366785,5,6.0,25.200000762939453,0.0,0.0,39.674515006092356,66.7128,I,,
Raw,1730968872000,12555000000,18,706571.7276983666,-1415004077445999872,0.0,97.38835016722557,-3802.556824964846,0.0,0,196,0.0,17,491831,396,21.0,-1182.0876633104392,0.14999,16,-14372.079419101203,0.004900000058114529,1575420030,,,,0,0.0,4,6.0,21.0,0.0,,0.0,,C,,
Raw,1730968872000,12555000000,18,706571.7276983666,-1415004077445999872,0.0,97.38835016722557,-3802.556824964846,0.0,0,10,0.0,17,29147,487,0.0,-833.4121364659512,0.14999,16,-12787.80746189726,0.009999999776482582,1598062460,,,,0,0.0,3,6.0,18.0,0.0,0.0,-3.281982927051293,66.7128,C,,
Raw,1730968872000,12555000000,18,706571.7276983666,-1415004077445999872,0.0,97.38835016722557,-3802.556824964846,0.0,0,9,0.0,17,97488,235,0.0,-564.5710355827654,0.14999,16,-9079.239681041876,0.0008999999845400453,1600875010,,,,0,10.819096178522653,3,6.0,27.0,0.0,0.0,-3.281982927051293,66.7128,C,,
Raw,1730968872000,12555000000,18,706571.7276983666,-1415004077445999872,0.0,97.38835016722557,-3802.556824964846,0.0,0,11,0.0,17,576143,487,0.0,-1385.9167567815243,0.14999,16,-16933.088391809633,0.009999999776482582,1602000000,,,,0,0.0,3,6.0,20.0,0.0,0.0,-3.281982927051293,66.7128,C,,
Raw,1730968872000,12555000000,18,706571.7276983666,-1415004077445999872,0.0,97.38835016722557,-3802.556824964846,0.0,0,7,0.0,17,427062,316,0.0,-1392.22518682344,0.14999,17,-16650.32032357685,0.002025000052526593,1604812540,,,,0,6.520245675021167,3,6.0,25.0,0.0,0.0,-3.281982927051293,66.7128,C,,
Raw,1730968872000,12555000000,18,706571.7276983666,-1415004077445999872,0.0,97.38835016722557,-3802.556824964846,0.0,0,21,0.0,47,376889919113575,396,21.31800079345703,-1187.5970739720144,0.14999,16,-14461.438721530165,0.004900000058114529,1575420030,,,,0,0.0,1,6.0,21.31800079345703,0.0,0.0,0.0,66.7128,C,,
Raw,1730968872000,12555000000,18,706571.7276983666,-1415004077445999872,0.0,97.38835016722557,-3802.556824964846,0.0,0,16,0.0,47,376875871663215,797,13.199999809265137,-1215.04638671875,0.14999,16,-14969.684215371064,0.02250000089406967,1561097980,,,,0,0.0,5,6.0,13.199999809265137,0.0,0.0,39.674515006092356,66.7128,I,,
Raw,1730968872000,12555000000,18,706571.7276983666,-1415004077445999872,0.0,97.38835016722557,-3802.556824964846,0.0,0,40,0.0,47,376875875931134,1797,24.375999450683594,-1334.813232421875,0.14999,16,-16489.895264999275,0.02250000089406967,1561097980,,,,0,5.218255449119975,5,6.0,24.375999450683594,0.0,0.0,39.674515006092356,66.7128,I,,
Raw,1730968872000,12555000000,18,706571.7276983666,-1415004077445999872,0.0,97.38835016722557,-3802.556824964846,0.0,0,27,0.0,47,376889927757630,396,22.87299919128418,-1266.6082520034502,0.14999,16,-15652.321593121529,0.004900000058114529,1575420030,,,,0,1.8801004472929845,1,6.0,22.87299919128418,0.0,0.0,0.0,66.7128,C,,
Raw,1730968872000,12555000000,18,706571.7276983666,-1415004077445999872,0.0,97.38835016722557,-3802.556824964846,0.0,0,28,0.0,47,376875916419274,487,19.0,-1377.7236328125,0.14999,16,-15261.051958455271,0.009999999776482582,1561097980,,,,0,0.0,5,6.0,19.0,0.0,0.0,39.674515006092356,66.7128,I,,
Raw,1730968872000,12555000000,18,706571.7276983666,-1415004077445999872,0.0,97.38835016722557,-3802.556824964846,0.0,0,7,0.0,47,376889919521168,316,24.200000762939453,-1438.4179793282901,0.14999,25,-14423.204800993915,0.002025000052526593,1575420030,,,,0,5.06514427735961,6,6.0,24.200000762939453,0.0,0.0,-4.047126085388058,66.7128,C,,
Fix,FLP,12.9284790000,77.5199980000,752.8999633789062,3.0298803,3.416,297.81284,1730968872765,2.6,30.6,2282423906000000,1.3601186,0,,,
Fix,GPS,12.9284900000,77.5199716667,738.9,2.7378075,3.6,291.95,1730968873000,2.6,35.9,2282424906000000,35.5,0,,,
Raw,1730968873000,13555000000,18,706539.3094378645,-1415004077445999872,0.0,98.68491542381216,-3803.377529054234,0.0,0,3,0.0,47,376890931024053,396,27.45199966430664,-790.427697544587,0.14999,17,-11087.934035309341,0.004900000058114529,1575420030,,,,0,8.327261829976473,1,6.0,27.45199966430664,0.0,0.0,0.0,66.7128,C,,
Raw,1730968873000,13555000000,18,706539.3094378645,-1415004077445999872,0.0,98.68491542381216,-3803.377529054234,0.0,0,4,0.0,47,376890930804034,396,23.270000457763672,-1494.557957809775,0.14999,17,-20132.893853380643,0.004900000058114529,1575420030,,,,0,5.8006922272503605,1,6.0,23.270000457763672,0.0,0.0,0.0,66.7128,C,,
Raw,1730968873000,13555000000,18,706539.3094378645,-1415004077445999872,0.0,98.68491542381216,-3803.377529054234,0.0,0,31,0.0,47,376890916698799,1797,13.0,-831.8204738851931,0.14999,16,-13121.153106823556,0.02250000089406967,1575420030,,,,0,0.0,1,6.0,13.0,0.0,0.0,0.0,66.7128,C,,
Raw,1730968873000,13555000000,18,706539.3094378645,-1415004077445999872,0.0,98.68491542381216,-3803.377529054234,0.0,0,8,0.0,47,376890928838454,316,25.659000396728516,-1547.1951575426501,0.14999,17,-20840.702842031234,0.002025000052526593,1575420030,,,,0,5.947914220177743,1,6.0,25.659000396728516,0.0,0.0,0.0,66.7128,C,,
Raw,1730968873000,13555000000,18,706539.3094378645,-1415004077445999872,0.0,98.68491542381216,-3803.377529054234,0.0,0,41,0.0,47,376876918370268,487,19.0,-594.7055053710938,0.14999,16,-10100.621299312646,0.009999999776482582,1561097980,,,,0,0.0,5,6.0,19.0,0.0,0.0,40.3304213353423,66.7128,I,,
Raw,1730968873000,13555000000,18,706539.3094378645,-1415004077445999872,0.0,98.68491542381216,-3803.377529054234,0.0,0,23,0.0,47,376876916344679,487,14.0,-722.2079467773438,0.14999,16,-10266.688614326027,0.009999999776482582,1561097980,,,,0,0.0,5,6.0,14.0,0.0,0.0,40.3304213353423,66.7128,I,,
Raw,1730968873000,13555000000,18,706539.3094378645,-1415004077445999872,0.0,98.68491542381216,-3803.377529054234,0.0,0,16,0.0,47,376890927674453,396,17.62700080871582,-555.8902812364403,0.14999,16,-8206.966831678863,0.004900000058114529,1575420030,,,,0,0.0,1,6.0,17.62700080871582,0.0,0.0,0.0,66.7128,C,,
Raw,1730968873000,13555000000,18,706539.3094378645,-1415004077445999872,0.0,98.68491542381216,-3803.377529054234,0.0,0,8,0.0,47,376890918320567,316,23.399999618530273,-1076.3720018075214,0.14999,29,-15255.04473810992,0.002025000052526593,1575420030,,,,0,4.082399653118496,6,6.0,23.399999618530273,0.0,0.0,-3.8924731421585865,66.7128,C,,
Raw,1730968873000,13555000000,18,706539.3094378645,-1415004077445999872,0.0,98.68491542381216,-3803.377529054234,0.0,0,32,0.0,47,376876928152655,396,21.600000381469727,-1060.6636962890625,0.14999,16,-14320.976503984151,0.004900000058114529,1561097980,,,,0,1.555193178256613,5,6.0,21.600000381469727,0.0,0.0,40.3304213353423,66.7128,I,,
Raw,1730968873000,13555000000,18,706539.3094378645,-1415004077445999872,0.0,98.68491542381216,-3803.377529054234,0.0,0,60,0.0,47,376876880751310,235,24.899999618530273,-1139.884521484375,0.14999,16,-15483.085800672961,0.0008999999845400453,1561097980,,,,0,5.977917323025908,5,6.0,24.899999618530273,0.0,0.0,40.3304213353423,66.7128,I,,
Raw,1730968873000,13555000000,18,706539.3094378645,-1415004077445999872,0.0,98.68491542381216,-3803.377529054234,0.0,0,196,0.0,17,495781,487,19.0,-1183.6277598078186,0.14999,16,-15554.634462847744,0.009999999776482582,1575420030,,,,0,0.0,4,6.0,19.0,0.0,,0.0,,C,,
Raw,1730968873000,13555000000,18,706539.3094378645,-1415004077445999872,0.0,98.68491542381216,-3803.377529054234,0.0,0,10,0.0,17,31941,487,0.0,-832.7369505083714,0.14999,16,-13620.265432238752,0.009999999776482582,1598062460,,,,0,0.0,3,6.0,20.0,0.0,0.0,-1.9747264017998607,66.7128,C,,
Raw,1730968873000,13555000000,18,706539.3094378645,-1415004077445999872,0.0,98.68491542381216,-3803.377529054234,0.0,0,11,0.0,17,580767,316,0.0,-1386.042123526577,0.14999,16,-18318.570916666664,0.002025000052526593,1602000000,,,,0,4.09630820635152,3,6.0,25.0,0.0,0.0,-1.9747264017998607,66.7128,C,,
Raw,1730968873000,13555000000,18,706539.3094378645,-1415004077445999872,0.0,98.68491542381216,-3803.377529054234,0.0,0,7,0.0,17,431712,316,0.0,-1392.9188772014686,0.14999,17,-18042.529388199004,0.002025000052526593,1604812540,,,,0,6.838057577335838,3,6.0,26.0,0.0,0.0,-1.9747264017998607,66.7128,C,,
Raw,1730968873000,13555000000,18,706539.3094378645,-1415004077445999872,0.0,98.68491542381216,-3803.377529054234,0.0,0,21,0.0,47,376890919117534,797,21.31800079345703,-1187.0679126113764,0.14999,16,-15648.188129816328,0.02250000089406967,1575420030,,,,0,0.0,1,6.0,21.31800079345703,0.0,0.0,0.0,66.7128,C,,
Raw,1730968873000,13555000000,18,706539.3094378645,-1415004077445999872,0.0,98.68491542381216,-3803.377529054234,0.0,0,16,0.0,47,376876871667267,797,13.199999809265137,-1214.1790771484375,0.14999,16,-16184.529546841826,0.02250000089406967,1561097980,,,,0,0.0,5,6.0,13.199999809265137,0.0,0.0,40.3304213353423,66.7128,I,,
Raw,1730968873000,13555000000,18,706539.3094378645,-1415004077445999872,0.0,98.68491542381216,-3803.377529054234,0.0,0,40,0.0,47,376876875935559,487,24.371999740600586,-1324.2276611328125,0.14999,16,-17816.567858499206,0.009999999776482582,1561097980,,,,0,5.218255449119975,5,6.0,24.371999740600586,0.0,0.0,40.3304213353423,66.7128,I,,
Raw,1730968873000,13555000000,18,706539.3094378645,-1415004077445999872,0.0,98.68491542381216,-3803.377529054234,0.0,0,27,0.0,47,376890927761842,396,23.47599983215332,-1263.8849525620208,0.14999,16,-16916.607150857304,0.004900000058114529,1575420030,,,,0,2.8185368398486057,1,6.0,23.47599983215332,0.0,0.0,0.0,66.7128,C,,
Raw,1730968873000,13555000000,18,706539.3094378645,-1415004077445999872,0.0,98.68491542381216,-3803.377529054234,0.0,0,28,0.0,47,376876916423890,487,19.799999237060547,-1378.0191650390625,0.14999,16,-16637.89983549303,0.009999999776482582,1561097980,,,,0,0.0,5,6.0,19.799999237060547,0.0,0.0,40.3304213353423,66.7128,I,,
Raw,1730968873000,13555000000,18,706539.3094378645,-1415004077445999872,0.0,98.68491542381216,-3803.377529054234,0.0,0,7,0.0,47,376890919525990,396,22.899999618530273,-1438.329243753328,0.14999,25,-15860.64071624556,0.004900000058114529,1575420030,,,,0,3.3758404062836367,6,6.0,22.899999618530273,0.0,0.0,-3.8924731421585865,66.7128,C,,
Fix,FLP,12.9284902000,77.5199719000,752.8999633789062,2.7579327,3.483,291.3544,1730968873765,2.6,35.9,2282424906000000,1.3701186,0,,,
Fix,GPS,12.9284983333,77.5199466667,738.9,2.6065533,3.6,287.12,1730968874000,2.3,32.8,2282425906000000,35.4,0,,,
Raw,1730968874000,14555000000,18,706479.3200201187,-1415004077445999872,0.0,95.0729882627609,-3804.4469110288283,0.0,0,3,0.0,47,376891931026681,396,23.795000076293945,-790.1354741066227,0.14999,20,-11876.760186157866,0.004900000058114529,1575420030,,,,0,3.2771360527733915,1,6.0,23.795000076293945,0.0,0.0,0.0,66.7128,C,,
Raw,1730968874000,14555000000,18,706479.3200201187,-1415004077445999872,0.0,95.0729882627609,-3804.4469110288283,0.0,0,4,0.0,47,376891930809010,316,23.297000885009766,-1494.7301327002513,0.14999,20,-21627.486312139463,0.002025000052526593,1575420030,,,,0,3.326628435330499,1,6.0,23.297000885009766,0.0,0.0,0.0,66.7128,C,,
Raw,1730968874000,14555000000,18,706479.3200201187,-1415004077445999872,0.0,95.0729882627609,-3804.4469110288283,0.0,0,31,0.0,47,376891916701571,797,13.0,-830.7754382709533,0.14999,16,-13952.12784856411,0.02250000089406967,1575420030,,,,0,0.0,1,6.0,13.0,0.0,0.0,0.0,66.7128,C,,
Raw,1730968874000,14555000000,18,706479.3200201187,-1415004077445999872,0.0,95.0729882627609,-3804.4469110288283,0.0,0,8,0.0,47,376891928843612,396,23.540000915527344,-1547.4106316770344,0.14999,20,-22387.456952174598,0.004900000058114529,1575420030,,,,0,2.92256071356476,1,6.0,23.540000915527344,0.0,0.0,0.0,66.7128,C,,
Raw,1730968874000,14555000000,18,706479.3200201187,-1415004077445999872,0.0,95.0729882627609,-3804.4469110288283,0.0,0,41,0.0,47,376877918372251,487,19.014999389648438,-594.2868041992188,0.14999,16,-10694.936315799716,0.009999999776482582,1561097980,,,,0,0.0,5,6.0,19.014999389648438,0.0,0.0,46.63450792142647,66.7128,I,,
Raw,1730968874000,14555000000,18,706479.3200201187,-1415004077445999872,0.0,95.0729882627609,-3804.4469110288283,0.0,0,23,0.0,47,376877916347071,396,20.399999618530273,-721.40283203125,0.14999,16,-10988.286655048609,0.004900000058114529,1561097980,,,,0,0.0,5,6.0,20.399999618530273,0.0,0.0,46.63450792142647,66.7128,I,,
Raw,1730968874000,14555000000,18,706479.3200201187,-1415004077445999872,0.0,95.0729882627609,-3804.4469110288283,0.0,0,16,0.0,47,376891927676316,487,21.52899932861328,-556.3071526050974,0.14999,16,-8762.004493310462,0.009999999776482582,1575420030,,,,0,0.0,1,6.0,21.52899932861328,0.0,0.0,0.0,66.7128,C,,
Raw,1730968874000,14555000000,18,706479.3200201187,-1415004077445999872,0.0,95.0729882627609,-3804.4469110288283,0.0,0,8,0.0,47,376891918324165,396,22.299999237060547,-1076.7482220619943,0.14999,25,-16331.182400530133,0.004900000058114529,1575420030,,,,0,2.552892599684497,6,6.0,22.299999237060547,0.0,0.0,-3.6265069208896326,66.7128,C,,
Raw,1730968874000,14555000000,18,706479.3200201187,-1415004077445999872,0.0,95.0729882627609,-3804.4469110288283,0.0,0,32,0.0,47,376877928156192,487,20.799999237060547,-1059.223388671875,0.14999,16,-15380.391704579934,0.009999999776482582,1561097980,,,,0,0.4964716745006429,5,6.0,20.799999237060547,0.0,0.0,46.63450792142647,66.7128,I,,
Raw,1730968874000,14555000000,18,706479.3200201187,-1415004077445999872,0.0,95.0729882627609,-3804.4469110288283,0.0,0,196,0.0,17,499730,487,18.0,-1182.6980339826132,0.14999,16,-16738.018237339587,0.009999999776482582,1575420030,,,,0,0.0,4,6.0,18.0,0.0,,0.0,,C,,
Raw,1730968874000,14555000000,18,706479.3200201187,-1415004077445999872,0.0,95.0729882627609,-3804.4469110288283,0.0,0,30,0.0,47,376891919658637,396,22.5,-819.8141324670712,0.14999,24,-15901.815512368665,0.004900000058114529,1575420030,,,,0,2.8185368398486057,6,6.0,22.5,0.0,0.0,-3.6265069208896326,66.7128,C,,
Raw,1730968874000,14555000000,18,706479.3200201187,-1415004077445999872,0.0,95.0729882627609,-3804.4469110288283,0.0,0,10,0.0,17,34700,487,0.0,-833.3641378983523,0.14999,16,-14453.241656866108,0.009999999776482582,1598062460,,,,0,0.0,3,6.0,18.0,0.0,0.0,-3.295099767998029,66.7128,C,,
Raw,1730968874000,14555000000,18,706479.3200201187,-1415004077445999872,0.0,95.0729882627609,-3804.4469110288283,0.0,0,9,0.0,17,101261,487,0.0,-565.3778510551276,0.14999,16,-10207.156949959404,0.009999999776482582,1600875010,,,,0,0.0,3,6.0,20.0,0.0,0.0,-3.295099767998029,66.7128,C,,
Raw,1730968874000,14555000000,18,706479.3200201187,-1415004077445999872,0.0,95.0729882627609,-3804.4469110288283,0.0,0,11,0.0,17,585391,487,0.0,-1385.5772066178106,0.14999,16,-19704.498292728793,0.009999999776482582,1602000000,,,,0,0.0,3,6.0,20.0,0.0,0.0,-3.295099767998029,66.7128,C,,
Raw,1730968874000,14555000000,18,706479.3200201187,-1415004077445999872,0.0,95.0729882627609,-3804.4469110288283,0.0,0,7,0.0,17,436359,316,0.0,-1393.6558035083842,0.14999,20,-19435.6424021324,0.002025000052526593,1604812540,,,,0,5.490448903685409,3,6.0,24.0,0.0,0.0,-3.295099767998029,66.7128,C,,
Raw,1730968874000,14555000000,18,706479.3200201187,-1415004077445999872,0.0,95.0729882627609,-3804.4469110288283,0.0,0,21,0.0,47,376891919121496,797,21.31800079345703,-1188.823204492643,0.14999,16,-16836.189571803447,0.02250000089406967,1575420030,,,,0,0.0,1,6.0,21.31800079345703,0.0,0.0,0.0,66.7128,C,,
Raw,1730968874000,14555000000,18,706479.3200201187,-1415004077445999872,0.0,95.0729882627609,-3804.4469110288283,0.0,0,9,0.0,47,376891925534907,396,21.979000091552734,-1684.740687910229,0.14999,16,-17440.410441795924,0.004900000058114529,1575420030,,,,0,0.49244949816664085,1,6.0,21.979000091552734,0.0,0.0,0.0,66.7128,C,,
Raw,1730968874000,14555000000,18,706479.3200201187,-1415004077445999872,0.0,95.0729882627609,-3804.4469110288283,0.0,0,16,0.0,47,376877871671333,797,15.100000381469727,-1211.84423828125,0.14999,16,-17397.64215061907,0.02250000089406967,1561097980,,,,0,0.0,5,6.0,15.100000381469727,0.0,0.0,46.63450792142647,66.7128,I,,
Raw,1730968874000,14555000000,18,706479.3200201187,-1415004077445999872,0.0,95.0729882627609,-3804.4469110288283,0.0,0,40,0.0,47,376877875940048,316,24.357999801635742,-1326.5648193359375,0.14999,16,-19142.537428234707,0.002025000052526593,1561097980,,,,0,4.981568062145339,5,6.0,24.357999801635742,0.0,0.0,46.63450792142647,66.7128,I,,
Raw,1730968874000,14555000000,18,706479.3200201187,-1415004077445999872,0.0,95.0729882627609,-3804.4469110288283,0.0,0,27,0.0,47,376891927766058,396,22.73200035095215,-1265.2658825254628,0.14999,16,-18181.131539405847,0.004900000058114529,1575420030,,,,0,1.7034321947362447,1,6.0,22.73200035095215,0.0,0.0,0.0,66.7128,C,,
