# 
# Header Description:
# 
# Version: v3.1.0.2 Platform: 14 Manufacturer: samsung Model: SM-S918B GNSS Hardware Model Name: Qualcomm GNSS GEN9
# 
# Raw,utcTimeMillis,TimeNanos,LeapSecond,TimeUncertaintyNanos,FullBiasNanos,BiasNanos,BiasUncertaintyNanos,DriftNanosPerSecond,DriftUncertaintyNanosPerSecond,HardwareClockDiscontinuityCount,Svid,TimeOffsetNanos,State,ReceivedSvTimeNanos,ReceivedSvTimeUncertaintyNanos,Cn0DbHz,PseudorangeRateMetersPerSecond,PseudorangeRateUncertaintyMetersPerSecond,AccumulatedDeltaRangeState,AccumulatedDeltaRangeMeters,AccumulatedDeltaRangeUncertaintyMeters,CarrierFrequencyHz,CarrierCycles,CarrierPhase,CarrierPhaseUncertainty,MultipathIndicator,SnrInDb,ConstellationType,AgcDb,BasebandCn0DbHz,FullInterSignalBiasNanos,FullInterSignalBiasUncertaintyNanos,SatelliteInterSignalBiasNanos,SatelliteInterSignalBiasUncertaintyNanos,CodeType,ChipsetElapsedRealtimeNanos,IsFullTracking
# 
# UncalAccel,utcTimeMillis,elapsedRealtimeNanos,UncalAccelXMps2,UncalAccelYMps2,UncalAccelZMps2,BiasXMps2,BiasYMps2,BiasZMps2
# 
# Accel,utcTimeMillis,elapsedRealtimeNanos,AccelXMps2,AccelYMps2,AccelZMps2
# 
# UncalGyro,utcTimeMillis,elapsedRealtimeNanos,UncalGyroXRadPerSec,UncalGyroYRadPerSec,UncalGyroZRadPerSec,DriftXRadPerSec,DriftYRadPerSec,DriftZRadPerSec
# 
# Gyro,utcTimeMillis,elapsedRealtimeNanos,GyroXRadPerSec,GyroYRadPerSec,GyroZRadPerSec
# 
# UncalMag,utcTimeMillis,elapsedRealtimeNanos,UncalMagXMicroT,UncalMagYMicroT,UncalMagZMicroT,BiasXMicroT,BiasYMicroT,BiasZMicroT
# 
# Mag,utcTimeMillis,elapsedRealtimeNanos,MagXMicroT,MagYMicroT,MagZMicroT
# 
# Pressure,utcTimeMillis,elapsedRealtimeNanos,PressureHpa
# 
# OrientationDeg,utcTimeMillis,elapsedRealtimeNanos,yawDeg,rollDeg,pitchDeg
# 
# Fix,Provider,LatitudeDegrees,LongitudeDegrees,AltitudeMeters,SpeedMps,AccuracyMeters,BearingDegrees,UnixTimeMillis,SpeedAccuracyMps,BearingAccuracyDegrees,elapsedRealtimeNanos,VerticalAccuracyMeters,MockLocation,NumberOfUsedSignals,VerticalSpeedAccuracyMps,SolutionType
# 
# Nav,Svid,Type,Status,MessageId,Sub-messageId,Data(Bytes)
# 
# Status,UnixTimeMillis,SignalCount,SignalIndex,ConstellationType,Svid,CarrierFrequencyHz,Cn0DbHz,AzimuthDegrees,ElevationDegrees,UsedInFix,HasAlmanacData,HasEphemerisData,BasebandCn0DbHz
# 
# Agc,utcTimeMillis,TimeNanos,LeapSecond,TimeUncertaintyNanos,FullBiasNanos,BiasNanos,BiasUncertaintyNanos,DriftNanosPerSecond,DriftUncertaintyNanosPerSecond,HardwareClockDiscontinuityCount,AgcDb,CarrierFrequencyHz,ConstellationType
# 
Fix,FLP,12.9283705000,77.5201697000,751.2999877929688,0.028923066,3.79,,1730968844615,0.07614718,,766887117939176,1.3788512,0,,,
Status,,56,0,1,2,1575420030,22.90,188.54144,8.008415,1,1,1,17.9
Status,,56,1,1,3,1575420030,35.70,216.35928,55.97388,1,1,1,30.7
Status,,56,2,1,4,1575420030,28.60,4.024909,52.771957,1,1,1,23.6
Status,,56,3,1,7,1575420030,34.70,297.14328,21.797468,1,1,1,29.7
Status,,56,4,1,8,1575420030,44.60,143.65236,41.045258,1,1,1,39.6
Status,,56,5,1,9,1575420030,25.50,333.99084,29.674116,1,1,1,20.5
Status,,56,6,1,16,1575420030,33.90,31.524448,36.567703,1,1,1,28.9
Status,,56,7,1,21,1575420030,23.80,173.18663,7.652095,1,1,1,18.8
Status,,56,8,1,27,1575420030,26.70,98.85132,37.63368,1,1,1,21.7
Status,,56,9,1,31,1575420030,24.30,61.232784,5.9547057,1,1,1,19.3
Status,,56,10,4,194,1575420030,27.10,54.252357,25.148975,1,1,1,22.1
Status,,56,11,2,128,1575420030,38.30,0.0,0.0,0,0,0,33.3
Status,,56,12,3,6,1599750020,31.90,138.27655,46.43491,0,1,0,26.9
Status,,56,13,3,9,1600875010,31.30,14.001507,25.09748,1,1,1,26.3
Status,,56,14,3,11,1602000000,37.20,252.35707,30.394503,1,1,1,32.2
Status,,56,15,3,7,1604812540,33.70,19.389708,71.82212,1,1,1,28.7
Status,,56,16,5,60,1561097980,36.30,170.25731,72.57256,0,1,0,31.3
Status,,56,17,5,41,1561097980,38.60,146.19434,26.385794,1,1,1,33.6
Status,,56,18,5,40,1561097980,26.70,96.13398,47.18127,1,1,1,21.7
Status,,56,19,5,39,1561097980,29.10,50.492672,27.772587,1,1,1,24.1
Status,,56,20,5,37,1561097980,32.00,339.9706,51.134617,1,1,1,27.0
Status,,56,21,5,32,1561097980,35.50,158.94987,83.323204,1,1,1,30.5
Status,,56,22,5,28,1561097980,28.60,127.002625,16.37214,1,1,1,23.6
Status,,56,23,5,27,1561097980,31.50,171.39706,13.751223,1,1,1,26.5
Status,,56,24,5,23,1561097980,27.90,34.07528,20.09031,1,1,1,22.9
Status,,56,25,5,20,1561097980,34.00,324.50052,36.617733,1,1,1,29.0
Status,,56,26,5,16,1561097980,31.70,43.334244,29.444965,0,1,0,26.7
Status,,56,27,5,13,1561097980,35.00,180.1785,28.625854,1,1,1,30.0
Status,,56,28,5,10,1561097980,27.30,129.72362,59.138306,1,1,1,22.3
Status,,56,29,5,9,1561097980,29.40,21.204784,38.446377,1,1,1,24.4
Status,,56,30,5,8,1561097980,25.80,172.61732,18.778145,1,1,1,20.8
Status,,56,31,5,7,1561097980,24.80,106.48685,56.52142,1,1,1,19.8
Status,,56,32,5,2,1561097980,33.50,153.44193,72.96771,1,1,1,28.5
Status,,56,33,6,7,1575420030,29.60,0.7855074,51.314632,1,1,1,24.6
Status,,56,34,6,8,1575420030,31.40,90.69969,46.58855,1,1,1,26.4
Status,,56,35,6,13,1575420030,25.30,202.82007,10.690022,1,1,1,20.3
Status,,56,36,6,21,1575420030,22.80,220.75748,13.399586,1,1,1,17.8
Status,,56,37,6,27,1575420030,32.40,235.61989,65.21678,1,1,1,27.4
Status,,56,38,6,30,1575420030,36.20,25.720245,56.277977,1,1,1,31.2
Status,,56,39,1,3,1176450050,23.10,216.35928,55.97388,1,1,1,18.1
Status,,56,40,1,8,1176450050,31.70,143.65236,41.045258,1,1,1,26.7
Status,,56,41,1,27,1176450050,21.70,98.85132,37.63368,1,1,1,16.7
Status,,56,42,6,7,1176450050,18.10,0.7855074,51.314632,1,1,1,13.1
Status,,56,43,6,27,1176450050,23.50,235.61989,65.21678,1,1,1,18.5
Status,,56,44,5,23,1176450050,23.20,34.07528,20.09031,1,1,1,18.2
Status,,56,45,5,32,1176450050,24.50,158.94987,83.323204,1,1,1,19.5
Status,,56,46,5,41,1176450050,24.50,146.19434,26.385794,1,1,1,19.5
Status,,56,47,5,20,1575420030,30.30,324.50052,36.617733,1,1,1,25.3
Status,,56,48,5,23,1575420030,29.00,34.07528,20.09031,1,1,1,24.0
Status,,56,49,5,27,1575420030,28.60,171.39706,13.751223,1,1,1,23.6
Status,,56,50,5,28,1575420030,22.20,127.002625,16.37214,0,1,1,17.2
Status,,56,51,5,32,1575420030,41.10,158.94987,83.323204,1,1,1,36.1
Status,,56,52,5,37,1575420030,35.70,339.9706,51.134617,1,1,1,30.7
Status,,56,53,5,39,1575420030,25.30,50.492672,27.772587,1,1,1,20.3
Status,,56,54,5,40,1575420030,31.20,96.13398,47.18127,1,1,1,26.2
Status,,56,55,5,41,1575420030,38.80,146.19434,26.385794,1,1,1,33.8
Raw,1730968845418,919095643000000,18,0.0,-1414084967775317481,-0.6071987152099609,29.852144507458434,11.045661914413746,11.85019296386006,27,2,0.0,16399,376863336140497,70,27.9,30.49456024169922,1.1045000553131104,16,0.0,0.0,1575420030,,,,0,0.0,1,-53.15,22.9,0.0,0.0,,,C,766887541183136,0
Raw,1730968845418,919095643000000,18,0.0,-1414084967775317481,-0.6071987152099609,29.852144507458434,11.045661914413746,11.85019296386006,27,3,0.0,16399,376863348480665,14,40.7,351.1844177246094,0.040995653718709946,16,0.0,0.0,1575420030,,,,0,0.0,1,-53.15,35.7,0.0,0.0,,,C,766887541183136,0
Raw,1730968845418,919095643000000,18,0.0,-1414084967775317481,-0.6071987152099609,29.852144507458434,11.045661914413746,11.85019296386006,27,4,0.0,16399,376863348195893,31,33.6,-352.1003723144531,0.6315000057220459,16,0.0,0.0,1575420030,,,,0,0.0,1,-53.15,28.6,0.0,0.0,,,C,766887541183136,0
Raw,1730968845418,919095643000000,18,0.0,-1414084967775317481,-0.6071987152099609,29.852144507458434,11.045661914413746,11.85019296386006,27,7,0.0,16399,376863338248374,16,39.7,-102.08485412597656,0.030905231833457947,16,0.0,0.0,1575420030,,,,0,0.0,1,-53.15,34.7,0.0,0.0,,,C,766887541183136,0
Raw,1730968845418,919095643000000,18,0.0,-1414084967775317481,-0.6071987152099609,29.852144507458434,11.045661914413746,11.85019296386006,27,8,0.0,16399,376863346225436,6,49.6,-406.42645263671875,0.037792082875967026,16,0.0,0.0,1575420030,,,,0,0.0,1,-53.15,44.6,0.0,0.0,,,C,766887541183136,0
Raw,1730968845418,919095643000000,18,0.0,-1414084967775317481,-0.6071987152099609,29.852144507458434,11.045661914413746,11.85019296386006,27,9,0.0,16399,376863342903416,46,30.5,-543.1171875,0.8104999661445618,16,0.0,0.0,1575420030,,,,0,0.0,1,-53.15,25.5,0.0,0.0,,,C,766887541183136,0
Raw,1730968845418,919095643000000,18,0.0,-1414084967775317481,-0.6071987152099609,29.852144507458434,11.045661914413746,11.85019296386006,27,16,0.0,16399,376863345152628,17,38.9,585.65185546875,0.051794376224279404,16,0.0,0.0,1575420030,,,,0,0.0,1,-53.15,33.9,0.0,0.0,,,C,766887541183136,0
Raw,1730968845418,919095643000000,18,0.0,-1414084967775317481,-0.6071987152099609,29.852144507458434,11.045661914413746,11.85019296386006,27,21,0.0,16399,376863336537608,61,28.8,-43.75802993774414,1.0245000123977661,16,0.0,0.0,1575420030,,,,0,0.0,1,-53.15,23.8,0.0,0.0,,,C,766887541183136,0
Raw,1730968845418,919095643000000,18,0.0,-1414084967775317481,-0.6071987152099609,29.852144507458434,11.045661914413746,11.85019296386006,27,6,0.0,49359,42045349768760,21,35.9,453.6604919433594,0.07342047989368439,16,0.0,0.0,1599750020,,,,0,0.0,3,-55.05,31.9,3792.397216796875,12.980868339538574,,,C,766887541183136,0
Raw,1730968845418,919095643000000,18,0.0,-1414084967775317481,-0.6071987152099609,29.852144507458434,11.045661914413746,11.85019296386006,27,9,0.0,49359,42045344573099,21,35.3,579.918212890625,0.08088997006416321,16,0.0,0.0,1600875010,,,,0,0.0,3,-55.05,31.299999999999997,3792.397216796875,12.980868339538574,,,C,766887541183136,0
Raw,1730968845418,919095643000000,18,0.0,-1414084967775317481,-0.6071987152099609,29.852144507458434,11.045661914413746,11.85019296386006,27,11,0.0,49359,42045345978884,12,41.2,-243.36181640625,0.04337317496538162,16,0.0,0.0,1602000000,,,,0,0.0,3,-55.05,37.2,3792.397216796875,12.980868339538574,,,C,766887541183136,0
Raw,1730968845418,919095643000000,18,0.0,-1414084967775317481,-0.6071987152099609,29.852144507458434,11.045661914413746,11.85019296386006,27,7,0.0,49359,42045353829051,17,37.7,-253.27059936523438,0.03950509801506996,16,0.0,0.0,1604812540,,,,0,0.0,3,-55.05,33.7,3792.397216796875,12.980868339538574,,,C,766887541183136,0
Raw,1730968845418,919095643000000,18,0.0,-1414084967775317481,-0.6071987152099609,29.852144507458434,11.045661914413746,11.85019296386006,27,60,0.0,16399,376849298177785,13,40.6,7.470336437225342,1.3622000217437744,16,0.0,0.0,1561097980,,,,0,0.0,5,-60.98,36.300000000000004,-1529.814453125,7.453226089477539,,,I,766887541183136,0
Raw,1730968845418,919095643000000,18,0.0,-1414084967775317481,-0.6071987152099609,29.852144507458434,11.045661914413746,11.85019296386006,27,41,0.0,16399,376849335846514,11,42.9,546.8881225585938,0.027759790420532227,16,0.0,0.0,1561097980,,,,0,0.0,5,-60.98,38.6,-1529.814453125,7.453226089477539,,,I,766887541183136,0
Raw,1730968845418,919095643000000,18,0.0,-1414084967775317481,-0.6071987152099609,29.852144507458434,11.045661914413746,11.85019296386006,27,40,0.0,16399,376849293344529,40,31.0,-185.1836700439453,1.0160000324249268,16,0.0,0.0,1561097980,,,,0,0.0,5,-60.98,26.7,-1529.814453125,7.453226089477539,,,I,766887541183136,0
Raw,1730968845418,919095643000000,18,0.0,-1414084967775317481,-0.6071987152099609,29.852144507458434,11.045661914413746,11.85019296386006,27,39,0.0,16399,376849288980501,27,33.4,-83.57559204101562,0.6315000057220459,16,0.0,0.0,1561097980,,,,0,0.0,5,-60.98,29.099999999999998,-1529.814453125,7.453226089477539,,,I,766887541183136,0
Raw,1730968845418,919095643000000,18,0.0,-1414084967775317481,-0.6071987152099609,29.852144507458434,11.045661914413746,11.85019296386006,27,37,0.0,16399,376849341878006,19,36.3,222.1854705810547,0.06794454157352448,16,0.0,0.0,1561097980,,,,0,0.0,5,-60.98,31.999999999999996,-1529.814453125,7.453226089477539,,,I,766887541183136,0
Raw,1730968845418,919095643000000,18,0.0,-1414084967775317481,-0.6071987152099609,29.852144507458434,11.045661914413746,11.85019296386006,27,32,0.0,16399,376849345586068,14,39.8,80.57050323486328,0.04558277130126953,16,0.0,0.0,1561097980,,,,0,0.0,5,-60.98,35.5,-1529.814453125,7.453226089477539,,,I,766887541183136,0
Raw,1730968845418,919095643000000,18,0.0,-1414084967775317481,-0.6071987152099609,29.852144507458434,11.045661914413746,11.85019296386006,27,28,0.0,16399,376849333828163,31,32.9,-236.083740234375,0.6739999651908875,16,0.0,0.0,1561097980,,,,0,0.0,5,-60.98,28.599999999999998,-1529.814453125,7.453226089477539,,,I,766887541183136,0
Raw,1730968845418,919095643000000,18,0.0,-1414084967775317481,-0.6071987152099609,29.852144507458434,11.045661914413746,11.85019296386006,27,27,0.0,16399,376849333002878,21,35.8,-268.4320983886719,0.06849554926156998,16,0.0,0.0,1561097980,,,,0,0.0,5,-60.98,31.499999999999996,-1529.814453125,7.453226089477539,,,I,766887541183136,0
Raw,1730968845418,919095643000000,18,0.0,-1414084967775317481,-0.6071987152099609,29.852144507458434,11.045661914413746,11.85019296386006,27,23,0.0,16399,376849333809177,35,32.2,421.1234130859375,0.6739999651908875,16,0.0,0.0,1561097980,,,,0,0.0,5,-60.98,27.900000000000002,-1529.814453125,7.453226089477539,,,I,766887541183136,0
Raw,1730968845418,919095643000000,18,0.0,-1414084967775317481,-0.6071987152099609,29.852144507458434,11.045661914413746,11.85019296386006,27,20,0.0,16399,376849338549441,16,38.3,-477.0690002441406,0.03103739023208618,16,0.0,0.0,1561097980,,,,0,0.0,5,-60.98,34.0,-1529.814453125,7.453226089477539,,,I,766887541183136,0
Raw,1730968845418,919095643000000,18,0.0,-1414084967775317481,-0.6071987152099609,29.852144507458434,11.045661914413746,11.85019296386006,27,16,0.0,16399,376849289086689,21,36.0,-70.96016693115234,0.07449555397033691,16,0.0,0.0,1561097980,,,,0,0.0,5,-60.98,31.7,-1529.814453125,7.453226089477539,,,I,766887541183136,0
Raw,1730968845418,919095643000000,18,0.0,-1414084967775317481,-0.6071987152099609,29.852144507458434,11.045661914413746,11.85019296386006,27,13,0.0,16399,376849289997691,14,39.3,310.84759521484375,0.03958277031779289,16,0.0,0.0,1561097980,,,,0,0.0,5,-60.98,35.0,-1529.814453125,7.453226089477539,,,I,766887541183136,0
Raw,1730968845418,919095643000000,18,0.0,-1414084967775317481,-0.6071987152099609,29.852144507458434,11.045661914413746,11.85019296386006,27,10,0.0,16399,376849295142466,35,31.6,-150.76060485839844,0.7310000061988831,16,0.0,0.0,1561097980,,,,0,0.0,5,-60.98,27.3,-1529.814453125,7.453226089477539,,,I,766887541183136,0
Raw,1730968845418,919095643000000,18,0.0,-1414084967775317481,-0.6071987152099609,29.852144507458434,11.045661914413746,11.85019296386006,27,9,0.0,16399,376849290203450,27,33.7,-30.476665496826172,0.6285000443458557,16,0.0,0.0,1561097980,,,,0,0.0,5,-60.98,29.400000000000002,-1529.814453125,7.453226089477539,,,I,766887541183136,0
Raw,1730968845418,919095643000000,18,0.0,-1414084967775317481,-0.6071987152099609,29.852144507458434,11.045661914413746,11.85019296386006,27,8,0.0,16399,376849285450571,46,30.1,313.3508605957031,0.9259999990463257,16,0.0,0.0,1561097980,,,,0,0.0,5,-60.98,25.8,-1529.814453125,7.453226089477539,,,I,766887541183136,0
Raw,1730968845418,919095643000000,18,0.0,-1414084967775317481,-0.6071987152099609,29.852144507458434,11.045661914413746,11.85019296386006,27,7,0.0,16399,376849295224640,53,29.1,-138.49888610839844,0.8510000109672546,16,0.0,0.0,1561097980,,,,0,0.0,5,-60.98,24.8,-1529.814453125,7.453226089477539,,,I,766887541183136,0
Raw,1730968845418,919095643000000,18,0.0,-1414084967775317481,-0.6071987152099609,29.852144507458434,11.045661914413746,11.85019296386006,27,7,0.0,23567,376863336924603,27,33.9,-294.3819885253906,0.06919142603874207,16,0.0,0.0,1575420030,,,,0,0.0,6,-57.04,29.599999999999998,-1448.831298828125,8.12895679473877,,,C,766887541183136,0
Raw,1730968845418,919095643000000,18,0.0,-1414084967775317481,-0.6071987152099609,29.852144507458434,11.045661914413746,11.85019296386006,27,8,0.0,23567,376863335752248,21,35.7,63.92275619506836,0.043105483055114746,16,0.0,0.0,1575420030,,,,0,0.0,6,-57.04,31.400000000000002,-1448.831298828125,8.12895679473877,,,C,766887541183136,0
Raw,1730968845418,919095643000000,18,0.0,-1414084967775317481,-0.6071987152099609,29.852144507458434,11.045661914413746,11.85019296386006,27,13,0.0,23567,376863325793002,46,29.6,205.78358459472656,0.8930000066757202,16,0.0,0.0,1575420030,,,,0,0.0,6,-57.04,25.3,-1448.831298828125,8.12895679473877,,,C,766887541183136,0
Raw,1730968845418,919095643000000,18,0.0,-1414084967775317481,-0.6071987152099609,29.852144507458434,11.045661914413746,11.85019296386006,27,21,0.0,23567,376863326109478,70,27.1,-472.44207763671875,1.0414999723434448,16,0.0,0.0,1575420030,,,,0,0.0,6,-57.04,22.8,-1448.831298828125,8.12895679473877,,,C,766887541183136,0
Raw,1730968845418,919095643000000,18,0.0,-1414084967775317481,-0.6071987152099609,29.852144507458434,11.045661914413746,11.85019296386006,27,27,0.0,23567,376863338833509,19,36.7,-152.39315795898438,0.04309552535414696,16,0.0,0.0,1575420030,,,,0,0.0,6,-57.04,32.400000000000006,-1448.831298828125,8.12895679473877,,,C,766887541183136,0
Raw,1730968845418,919095643000000,18,0.0,-1414084967775317481,-0.6071987152099609,29.852144507458434,11.045661914413746,11.85019296386006,27,30,0.0,23567,376863337111334,13,40.5,322.0841979980469,0.035391952842473984,16,0.0,0.0,1575420030,,,,0,0.0,6,-57.04,36.2,-1448.831298828125,8.12895679473877,,,C,766887541183136,0
Raw,1730968845418,919095643000000,18,0.0,-1414084967775317481,-0.6071987152099609,29.852144507458434,11.045661914413746,11.85019296386006,27,3,0.0,81935,376863348480637,12,28.1,350.8345031738281,0.9434999823570251,16,0.0,0.0,1176450050,,,,0,0.0,1,-43.99,23.1,20.93198013305664,4.935003757476807,,,Q,766887541183136,0
Raw,1730968845418,919095643000000,18,0.0,-1414084967775317481,-0.6071987152099609,29.852144507458434,11.045661914413746,11.85019296386006,27,8,0.0,81935,376863346225373,6,36.7,-406.3936462402344,0.06608473509550095,16,0.0,0.0,1176450050,,,,0,0.0,1,-43.99,31.700000000000003,20.93198013305664,4.935003757476807,,,Q,766887541183136,0
Raw,1730968845418,919095643000000,18,0.0,-1414084967775317481,-0.6071987152099609,29.852144507458434,11.045661914413746,11.85019296386006,27,7,0.0,81935,376863336924525,23,23.4,-294.2244567871094,2.0855000019073486,16,0.0,0.0,1176450050,,,,0,0.0,6,-43.99,18.099999999999998,-1434.6318359375,66.77629089355469,,,Q,766887541183136,0
Raw,1730968845418,919095643000000,18,0.0,-1414084967775317481,-0.6071987152099609,29.852144507458434,11.045661914413746,11.85019296386006,27,27,0.0,81935,376863338833452,12,28.8,-152.24700927734375,0.9284999966621399,16,0.0,0.0,1176450050,,,,0,0.0,6,-43.99,23.5,-1434.6318359375,66.77629089355469,,,Q,766887541183136,0
Raw,1730968845418,919095643000000,18,0.0,-1414084967775317481,-0.6071987152099609,29.852144507458434,11.045661914413746,11.85019296386006,27,32,0.0,16399,376849345585978,11,29.0,80.57492065429688,0.20235151052474976,16,0.0,0.0,1176450050,,,,0,0.0,5,-43.99,24.5,-1492.7457275390625,66.30520629882812,,,Q,766887541183136,0
Raw,1730968845418,919095643000000,18,0.0,-1414084967775317481,-0.6071987152099609,29.852144507458434,11.045661914413746,11.85019296386006,27,41,0.0,16399,376849335846386,11,29.0,546.9276733398438,0.2173515111207962,16,0.0,0.0,1176450050,,,,0,0.0,5,-43.99,24.5,-1492.7457275390625,66.30520629882812,,,Q,766887541183136,0
Raw,1730968845418,919095643000000,18,0.0,-1414084967775317481,-0.6071987152099609,29.852144507458434,11.045661914413746,11.85019296386006,27,20,0.0,16399,376849338549445,6,37.3,-477.07574462890625,0.6514999866485596,16,0.0,0.0,1575420030,,,,0,0.0,5,-57.04,30.299999999999997,-1543.0794677734375,63.02256393432617,,,P,766887541183136,0
Raw,1730968845418,919095643000000,18,0.0,-1414084967775317481,-0.6071987152099609,29.852144507458434,11.045661914413746,11.85019296386006,27,23,0.0,16399,376849333809268,7,36.0,421.8525390625,0.6990000009536743,16,0.0,0.0,1575420030,,,,0,0.0,5,-57.04,29.0,-1543.0794677734375,63.02256393432617,,,P,766887541183136,0
Raw,1730968845418,919095643000000,18,0.0,-1414084967775317481,-0.6071987152099609,29.852144507458434,11.045661914413746,11.85019296386006,27,27,0.0,16399,376849333002888,8,35.6,-268.56146240234375,0.7489999532699585,16,0.0,0.0,1575420030,,,,0,0.0,5,-57.04,28.6,-1543.0794677734375,63.02256393432617,,,P,766887541183136,0
Raw,1730968845418,919095643000000,18,0.0,-1414084967775317481,-0.6071987152099609,29.852144507458434,11.045661914413746,11.85019296386006,27,28,0.0,16399,376849333828180,14,29.2,-235.36471557617188,1.1589999198913574,16,0.0,0.0,1575420030,,,,0,0.0,5,-57.04,22.2,-1543.0794677734375,63.02256393432617,,,P,766887541183136,0
Raw,1730968845418,919095643000000,18,0.0,-1414084967775317481,-0.6071987152099609,29.852144507458434,11.045661914413746,11.85019296386006,27,32,0.0,16399,376849345586054,2,48.1,80.51325225830078,0.32600000500679016,16,0.0,0.0,1575420030,,,,0,0.0,5,-57.04,41.1,-1543.0794677734375,63.02256393432617,,,P,766887541183136,0
Raw,1730968845418,919095643000000,18,0.0,-1414084967775317481,-0.6071987152099609,29.852144507458434,11.045661914413746,11.85019296386006,27,37,0.0,16399,376849341878003,4,42.7,222.17738342285156,0.4519999921321869,16,0.0,0.0,1575420030,,,,0,0.0,5,-57.04,35.7,-1543.0794677734375,63.02256393432617,,,P,766887541183136,0
Raw,1730968845418,919095643000000,18,0.0,-1414084967775317481,-0.6071987152099609,29.852144507458434,11.045661914413746,11.85019296386006,27,39,0.0,16399,376849288980403,10,32.3,-83.44377136230469,0.9214999675750732,16,0.0,0.0,1575420030,,,,0,0.0,5,-57.04,25.299999999999997,-1543.0794677734375,63.02256393432617,,,P,766887541183136,0
Raw,1730968845418,919095643000000,18,0.0,-1414084967775317481,-0.6071987152099609,29.852144507458434,11.045661914413746,11.85019296386006,27,40,0.0,16399,376849293344497,6,38.2,-185.5839080810547,0.6089999675750732,16,0.0,0.0,1575420030,,,,0,0.0,5,-57.04,31.200000000000003,-1543.0794677734375,63.02256393432617,,,P,766887541183136,0
Raw,1730968845418,919095643000000,18,0.0,-1414084967775317481,-0.6071987152099609,29.852144507458434,11.045661914413746,11.85019296386006,27,41,0.0,16399,376849335846530,3,45.8,546.808837890625,0.3659999966621399,16,0.0,0.0,1575420030,,,,0,0.0,5,-57.04,38.8,-1543.0794677734375,63.02256393432617,,,P,766887541183136,0
Agc,1730968845418,919095643000000,18,0.0,-1414084967775317481,-0.6071987152099609,29.852144507458434,11.045661914413746,11.85019296386006,27,-53.15,1575420000,1
Agc,1730968845418,919095643000000,18,0.0,-1414084967775317481,-0.6071987152099609,29.852144507458434,11.045661914413746,11.85019296386006,27,-53.15,1575420000,4
Agc,1730968845418,919095643000000,18,0.0,-1414084967775317481,-0.6071987152099609,29.852144507458434,11.045661914413746,11.85019296386006,27,-55.05,1602000000,3
Agc,1730968845418,919095643000000,18,0.0,-1414084967775317481,-0.6071987152099609,29.852144507458434,11.045661914413746,11.85019296386006,27,-60.98,1561098000,5
Agc,1730968845418,919095643000000,18,0.0,-1414084967775317481,-0.6071987152099609,29.852144507458434,11.045661914413746,11.85019296386006,27,-57.04,1575420000,6
Agc,1730968845418,919095643000000,18,0.0,-1414084967775317481,-0.6071987152099609,29.852144507458434,11.045661914413746,11.85019296386006,27,-43.99,1176450000,1
Agc,1730968845418,919095643000000,18,0.0,-1414084967775317481,-0.6071987152099609,29.852144507458434,11.045661914413746,11.85019296386006,27,-43.99,1176450000,4
Agc,1730968845418,919095643000000,18,0.0,-1414084967775317481,-0.6071987152099609,29.852144507458434,11.045661914413746,11.85019296386006,27,-43.99,1176450000,6
Agc,1730968845418,919095643000000,18,0.0,-1414084967775317481,-0.6071987152099609,29.852144507458434,11.045661914413746,11.85019296386006,27,-43.99,1176450000,5
Agc,1730968845418,919095643000000,18,0.0,-1414084967775317481,-0.6071987152099609,29.852144507458434,11.045661914413746,11.85019296386006,27,-57.04,1575420000,5
Fix,GPS,12.9283705300,77.5201699100,738.0888671875,0.0,3.7900925,,1730968846000,0.070704065,,766888123184228,2.5,0,,,
Fix,FLP,12.9283705000,77.5201699000,751.2999877929688,0.024368698,3.79,,1730968845622,0.070704065,,766888123184228,1.5083745,0,,,
Status,1730968846000,61,0,1,2,1575420030,22.90,188.54144,8.008415,1,1,1,17.9
Status,1730968846000,61,1,1,3,1575420030,34.00,216.35928,55.97388,1,1,1,29.0
Status,1730968846000,61,2,1,4,1575420030,29.20,4.024909,52.771957,1,1,1,24.2
Status,1730968846000,61,3,1,7,1575420030,33.70,297.14328,21.797468,1,1,1,28.7
Status,1730968846000,61,4,1,8,1575420030,44.60,143.65236,41.045258,1,1,1,39.6
Status,1730968846000,61,5,1,9,1575420030,26.80,333.99084,29.674116,1,1,1,21.8
Status,1730968846000,61,6,1,16,1575420030,33.70,31.524448,36.567703,1,1,1,28.7
Status,1730968846000,61,7,1,21,1575420030,23.80,173.18663,7.652095,1,1,1,18.8
Status,1730968846000,61,8,1,27,1575420030,20.00,98.85132,37.63368,1,1,1,15.0
Status,1730968846000,61,9,1,31,1575420030,23.40,61.232784,5.9547057,1,1,1,18.4
Status,1730968846000,61,10,4,194,1575420030,27.10,54.252357,25.148975,1,1,1,22.1
Status,1730968846000,61,11,4,196,1575420030,21.10,126.79038,24.795296,0,1,1,16.1
Status,1730968846000,61,12,2,128,1575420030,38.30,0.0,0.0,0,0,0,33.3
Status,1730968846000,61,13,3,6,1599750020,30.40,138.27655,46.43491,0,1,0,25.4
Status,1730968846000,61,14,3,9,1600875010,30.90,14.001507,25.09748,1,1,1,25.9
Status,1730968846000,61,15,3,11,1602000000,37.50,252.35707,30.394503,1,1,1,32.5
Status,1730968846000,61,16,3,7,1604812540,34.60,19.389708,71.82212,1,1,1,29.6
Status,1730968846000,61,17,3,8,1605374980,21.30,339.30286,24.920979,0,1,0,16.3
Status,1730968846000,61,18,5,60,1561097980,37.40,170.25731,72.57256,0,1,0,32.4
Status,1730968846000,61,19,5,41,1561097980,38.90,146.19434,26.385794,1,1,1,33.9
Status,1730968846000,61,20,5,40,1561097980,29.50,96.13398,47.18127,1,1,1,24.5
Status,1730968846000,61,21,5,39,1561097980,30.10,50.492672,27.772587,1,1,1,25.1
Status,1730968846000,61,22,5,37,1561097980,31.60,339.9706,51.134617,1,1,1,26.6
Status,1730968846000,61,23,5,32,1561097980,34.40,158.94987,83.323204,1,1,1,29.4
Status,1730968846000,61,24,5,28,1561097980,30.10,127.002625,16.37214,1,1,1,25.1
Status,1730968846000,61,25,5,27,1561097980,31.80,171.39706,13.751223,1,1,1,26.8
Status,1730968846000,61,26,5,23,1561097980,28.90,34.07528,20.09031,1,1,1,23.9
Status,1730968846000,61,27,5,20,1561097980,34.90,324.50052,36.617733,1,1,1,29.9
Status,1730968846000,61,28,5,16,1561097980,31.90,43.334244,29.444965,0,1,0,26.9
Status,1730968846000,61,29,5,13,1561097980,35.50,180.1785,28.625854,1,1,1,30.5
Status,1730968846000,61,30,5,10,1561097980,26.40,129.72362,59.138306,1,1,1,21.4
Status,1730968846000,61,31,5,9,1561097980,29.50,21.204784,38.446377,1,1,1,24.5
Status,1730968846000,61,32,5,8,1561097980,24.60,172.61732,18.778145,1,1,1,19.6
Status,1730968846000,61,33,5,7,1561097980,26.30,106.48685,56.52142,1,1,1,21.3
Status,1730968846000,61,34,5,2,1561097980,32.60,153.44193,72.96771,1,1,1,27.6
Status,1730968846000,61,35,6,7,1575420030,29.50,0.7855074,51.314632,1,1,1,24.5
Status,1730968846000,61,36,6,8,1575420030,30.60,90.69969,46.58855,1,1,1,25.6
Status,1730968846000,61,37,6,13,1575420030,23.10,202.82007,10.690022,1,1,1,18.1
Status,1730968846000,61,38,6,21,1575420030,23.60,220.75748,13.399586,1,1,1,18.6
Status,1730968846000,61,39,6,27,1575420030,33.60,235.61989,65.21678,1,1,1,28.6
Status,1730968846000,61,40,6,30,1575420030,36.30,25.720245,56.277977,1,1,1,31.3
Status,1730968846000,61,41,1,3,1176450050,25.10,216.35928,55.97388,1,1,1,20.1
Status,1730968846000,61,42,1,8,1176450050,32.90,143.65236,41.045258,1,1,1,27.9
Status,1730968846000,61,43,1,27,1176450050,18.60,98.85132,37.63368,1,1,1,13.6
Status,1730968846000,61,44,4,194,1176450050,18.10,54.252357,25.148975,0,1,1,13.1
Status,1730968846000,61,45,6,7,1176450050,18.10,0.7855074,51.314632,1,1,1,13.1
Status,1730968846000,61,46,6,27,1176450050,20.50,235.61989,65.21678,1,1,1,15.5
Status,1730968846000,61,47,6,30,1176450050,18.90,25.720245,56.277977,0,1,1,13.9
Status,1730968846000,61,48,5,23,1176450050,20.40,34.07528,20.09031,1,1,1,15.4
Status,1730968846000,61,49,5,32,1176450050,24.20,158.94987,83.323204,1,1,1,19.2
Status,1730968846000,61,50,5,41,1176450050,24.10,146.19434,26.385794,1,1,1,19.1
Status,1730968846000,61,51,5,20,1575420030,30.50,324.50052,36.617733,1,1,1,25.5
Status,1730968846000,61,52,5,23,1575420030,27.00,34.07528,20.09031,1,1,1,22.0
Status,1730968846000,61,53,5,27,1575420030,28.40,171.39706,13.751223,1,1,1,23.4
Status,1730968846000,61,54,5,28,1575420030,22.00,127.002625,16.37214,1,1,1,17.0
Status,1730968846000,61,55,5,32,1575420030,39.80,158.94987,83.323204,1,1,1,34.8
Status,1730968846000,61,56,5,37,1575420030,34.80,339.9706,51.134617,1,1,1,29.8
Status,1730968846000,61,57,5,38,1575420030,20.70,163.41208,11.242619,1,1,1,15.7
Status,1730968846000,61,58,5,39,1575420030,23.70,50.492672,27.772587,1,1,1,18.7
Status,1730968846000,61,59,5,40,1575420030,32.80,96.13398,47.18127,1,1,1,27.8
Status,1730968846000,61,60,5,41,1575420030,38.20,146.19434,26.385794,1,1,1,33.2
Raw,1730968846418,919096643000000,18,0.0,-1414084967775317468,-0.10674667358398438,24.875285816960968,11.099171451589193,9.529636298429487,27,3,0.0,16399,376864348479525,16,39.0,351.3222961425781,0.045905232429504395,16,0.0,0.0,1575420030,,,,0,0.0,1,-53.15,34.0,0.0,0.0,,,C,766888533951937,0
Raw,1730968846418,919096643000000,18,0.0,-1414084967775317468,-0.10674667358398438,24.875285816960968,11.099171451589193,9.529636298429487,27,4,0.0,16399,376864348197041,27,34.2,-351.91009521484375,0.5914999842643738,16,0.0,0.0,1575420030,,,,0,0.0,1,-53.15,29.200000000000003,0.0,0.0,,,C,766888533951937,0
Raw,1730968846418,919096643000000,18,0.0,-1414084967775317468,-0.10674667358398438,24.875285816960968,11.099171451589193,9.529636298429487,27,7,0.0,16399,376864338248720,17,38.7,-102.0671157836914,0.0322943739593029,16,0.0,0.0,1575420030,,,,0,0.0,1,-53.15,33.7,0.0,0.0,,,C,766888533951937,0
Raw,1730968846418,919096643000000,18,0.0,-1414084967775317468,-0.10674667358398438,24.875285816960968,11.099171451589193,9.529636298429487,27,8,0.0,16399,376864346226796,6,49.6,-406.3086242675781,0.037792082875967026,16,0.0,0.0,1575420030,,,,0,0.0,1,-53.15,44.6,0.0,0.0,,,C,766888533951937,0
Raw,1730968846418,919096643000000,18,0.0,-1414084967775317468,-0.10674667358398438,24.875285816960968,11.099171451589193,9.529636298429487,27,9,0.0,16399,376864342905264,40,31.8,-542.8222045898438,0.750499963760376,16,0.0,0.0,1575420030,,,,0,0.0,1,-53.15,26.8,0.0,0.0,,,C,766888533951937,0
Raw,1730968846418,919096643000000,18,0.0,-1414084967775317468,-0.10674667358398438,24.875285816960968,11.099171451589193,9.529636298429487,27,16,0.0,16399,376864345150656,17,38.7,585.763671875,0.051794376224279404,16,0.0,0.0,1575420030,,,,0,0.0,1,-53.15,33.7,0.0,0.0,,,C,766888533951937,0
Raw,1730968846418,919096643000000,18,0.0,-1414084967775317468,-0.10674667358398438,24.875285816960968,11.099171451589193,9.529636298429487,27,27,0.0,16399,376864345175084,92,25.0,-125.87926483154297,2.314000129699707,16,0.0,0.0,1575420030,,,,0,0.0,1,-53.15,20.0,0.0,0.0,,,C,766888533951937,0
Raw,1730968846418,919096643000000,18,0.0,-1414084967775317468,-0.10674667358398438,24.875285816960968,11.099171451589193,9.529636298429487,27,31,0.0,16399,376864334150714,61,28.4,311.7961730957031,1.9275001287460327,16,0.0,0.0,1575420030,,,,0,0.0,1,-53.15,23.4,0.0,0.0,,,C,766888533951937,0
Raw,1730968846418,919096643000000,18,0.0,-1414084967775317468,-0.10674667358398438,24.875285816960968,11.099171451589193,9.529636298429487,27,196,0.0,16399,376864294916411,80,26.1,-42.34033966064453,1.6825000047683716,16,0.0,0.0,1575420030,,,,0,0.0,4,-53.15,21.1,0.0,0.0,,,C,766888533951937,0
Raw,1730968846418,919096643000000,18,0.0,-1414084967775317468,-0.10674667358398438,24.875285816960968,11.099171451589193,9.529636298429487,27,6,0.0,49359,42046349767296,24,34.4,453.8306579589844,0.10484738647937775,16,0.0,0.0,1599750020,,,,0,0.0,3,-55.11,30.4,3792.3984375,13.005579948425293,,,C,766888533951937,0
Raw,1730968846418,919096643000000,18,0.0,-1414084967775317468,-0.10674667358398438,24.875285816960968,11.099171451589193,9.529636298429487,27,9,0.0,49359,42046344571193,24,34.9,579.964111328125,0.11229478567838669,16,0.0,0.0,1600875010,,,,0,0.0,3,-55.11,30.9,3792.3984375,13.005579948425293,,,C,766888533951937,0
Raw,1730968846418,919096643000000,18,0.0,-1414084967775317468,-0.10674667358398438,24.875285816960968,11.099171451589193,9.529636298429487,27,11,0.0,49359,42046345979680,12,41.5,-243.2025604248047,0.04337317496538162,16,0.0,0.0,1602000000,,,,0,0.0,3,-55.11,37.5,3792.3984375,13.005579948425293,,,C,766888533951937,0
Raw,1730968846418,919096643000000,18,0.0,-1414084967775317468,-0.10674667358398438,24.875285816960968,11.099171451589193,9.529636298429487,27,7,0.0,49359,42046353829869,16,38.6,-253.080810546875,0.0381413958966732,16,0.0,0.0,1604812540,,,,0,0.0,3,-55.11,34.6,3792.3984375,13.005579948425293,,,C,766888533951937,0
Raw,1730968846418,919096643000000,18,0.0,-1414084967775317468,-0.10674667358398438,24.875285816960968,11.099171451589193,9.529636298429487,27,8,0.0,49359,42046344248561,80,25.3,-728.2507934570312,1.7575000524520874,16,0.0,0.0,1605374980,,,,0,0.0,3,-55.11,21.3,3792.3984375,13.005579948425293,,,C,766888533951937,0
Raw,1730968846418,919096643000000,18,0.0,-1414084967775317468,-0.10674667358398438,24.875285816960968,11.099171451589193,9.529636298429487,27,60,0.0,16399,376850298177758,12,41.7,9.141079902648926,1.2364000082015991,16,0.0,0.0,1561097980,,,,0,0.0,5,-61.03,37.400000000000006,-1530.224609375,7.406012535095215,,,I,766888533951937,0
Raw,1730968846418,919096643000000,18,0.0,-1414084967775317468,-0.10674667358398438,24.875285816960968,11.099171451589193,9.529636298429487,27,41,0.0,16399,376850335844692,11,43.2,546.976806640625,0.027759790420532227,16,0.0,0.0,1561097980,,,,0,0.0,5,-61.03,38.900000000000006,-1530.224609375,7.406012535095215,,,I,766888533951937,0
Raw,1730968846418,919096643000000,18,0.0,-1414084967775317468,-0.10674667358398438,24.875285816960968,11.099171451589193,9.529636298429487,27,40,0.0,16399,376850293345140,27,33.8,-185.54855346679688,0.6240000128746033,16,0.0,0.0,1561097980,,,,0,0.0,5,-61.03,29.499999999999996,-1530.224609375,7.406012535095215,,,I,766888533951937,0
Raw,1730968846418,919096643000000,18,0.0,-1414084967775317468,-0.10674667358398438,24.875285816960968,11.099171451589193,9.529636298429487,27,39,0.0,16399,376850288980758,24,34.4,-83.45186614990234,0.1082005649805069,16,0.0,0.0,1561097980,,,,0,0.0,5,-61.03,30.099999999999998,-1530.224609375,7.406012535095215,,,I,766888533951937,0
Raw,1730968846418,919096643000000,18,0.0,-1414084967775317468,-0.10674667358398438,24.875285816960968,11.099171451589193,9.529636298429487,27,37,0.0,16399,376850341877253,21,35.9,222.2821502685547,0.0864955484867096,16,0.0,0.0,1561097980,,,,0,0.0,5,-61.03,31.599999999999998,-1530.224609375,7.406012535095215,,,I,766888533951937,0
Raw,1730968846418,919096643000000,18,0.0,-1414084967775317468,-0.10674667358398438,24.875285816960968,11.099171451589193,9.529636298429487,27,32,0.0,16399,376850345585802,16,38.7,80.72990417480469,0.05053739249706268,16,0.0,0.0,1561097980,,,,0,0.0,5,-61.03,34.400000000000006,-1530.224609375,7.406012535095215,,,I,766888533951937,0
Raw,1730968846418,919096643000000,18,0.0,-1414084967775317468,-0.10674667358398438,24.875285816960968,11.099171451589193,9.529636298429487,27,28,0.0,16399,376850333828926,24,34.4,-235.4760284423828,0.10070057213306427,16,0.0,0.0,1561097980,,,,0,0.0,5,-61.03,30.099999999999998,-1530.224609375,7.406012535095215,,,I,766888533951937,0
Raw,1730968846418,919096643000000,18,0.0,-1414084967775317468,-0.10674667358398438,24.875285816960968,11.099171451589193,9.529636298429487,27,27,0.0,16399,376850333003785,21,36.1,-268.44287109375,0.06849554926156998,16,0.0,0.0,1561097980,,,,0,0.0,5,-61.03,31.8,-1530.224609375,7.406012535095215,,,I,766888533951937,0
Raw,1730968846418,919096643000000,18,0.0,-1414084967775317468,-0.10674667358398438,24.875285816960968,11.099171451589193,9.529636298429487,27,23,0.0,16399,376850333807780,31,33.2,422.6117248535156,0.6240000128746033,16,0.0,0.0,1561097980,,,,0,0.0,5,-61.03,28.900000000000002,-1530.224609375,7.406012535095215,,,I,766888533951937,0
Raw,1730968846418,919096643000000,18,0.0,-1414084967775317468,-0.10674667358398438,24.875285816960968,11.099171451589193,9.529636298429487,27,20,0.0,16399,376850338551038,16,39.2,-476.9749755859375,0.03103739023208618,16,0.0,0.0,1561097980,,,,0,0.0,5,-61.03,34.900000000000006,-1530.224609375,7.406012535095215,,,I,766888533951937,0
Raw,1730968846418,919096643000000,18,0.0,-1414084967775317468,-0.10674667358398438,24.875285816960968,11.099171451589193,9.529636298429487,27,16,0.0,16399,376850289086923,21,36.2,-70.9193115234375,0.07449555397033691,16,0.0,0.0,1561097980,,,,0,0.0,5,-61.03,31.900000000000002,-1530.224609375,7.406012535095215,,,I,766888533951937,0
Raw,1730968846418,919096643000000,18,0.0,-1414084967775317468,-0.10674667358398438,24.875285816960968,11.099171451589193,9.529636298429487,27,13,0.0,16399,376850289996658,14,39.8,310.9000244140625,0.03958277031779289,16,0.0,0.0,1561097980,,,,0,0.0,5,-61.03,35.5,-1530.224609375,7.406012535095215,,,I,766888533951937,0
Raw,1730968846418,919096643000000,18,0.0,-1414084967775317468,-0.10674667358398438,24.875285816960968,11.099171451589193,9.529636298429487,27,10,0.0,16399,376850295142996,40,30.7,-150.74139404296875,0.7910000085830688,16,0.0,0.0,1561097980,,,,0,0.0,5,-61.03,26.4,-1530.224609375,7.406012535095215,,,I,766888533951937,0
Raw,1730968846418,919096643000000,18,0.0,-1414084967775317468,-0.10674667358398438,24.875285816960968,11.099171451589193,9.529636298429487,27,9,0.0,16399,376850290203548,27,33.8,-30.265424728393555,0.6285000443458557,16,0.0,0.0,1561097980,,,,0,0.0,5,-61.03,29.499999999999996,-1530.224609375,7.406012535095215,,,I,766888533951937,0
Raw,1730968846418,919096643000000,18,0.0,-1414084967775317468,-0.10674667358398438,24.875285816960968,11.099171451589193,9.529636298429487,27,8,0.0,16399,376850285449473,53,28.9,314.5702819824219,0.9359999895095825,16,0.0,0.0,1561097980,,,,0,0.0,5,-61.03,24.599999999999998,-1530.224609375,7.406012535095215,,,I,766888533951937,0
Raw,1730968846418,919096643000000,18,0.0,-1414084967775317468,-0.10674667358398438,24.875285816960968,11.099171451589193,9.529636298429487,27,7,0.0,16399,376850295225046,40,30.6,-138.6813201904297,0.7910000085830688,16,0.0,0.0,1561097980,,,,0,0.0,5,-61.03,26.3,-1530.224609375,7.406012535095215,,,I,766888533951937,0
Raw,1730968846418,919096643000000,18,0.0,-1414084967775317468,-0.10674667358398438,24.875285816960968,11.099171451589193,9.529636298429487,27,2,0.0,16399,376850298922980,19,36.9,8.689786911010742,2.7462000846862793,16,0.0,0.0,1561097980,,,,0,0.0,5,-61.03,32.6,-1530.224609375,7.406012535095215,,,I,766888533951937,0
Raw,1730968846418,919096643000000,18,0.0,-1414084967775317468,-0.10674667358398438,24.875285816960968,11.099171451589193,9.529636298429487,27,7,0.0,23567,376864336925593,27,33.8,-294.3581848144531,0.06919142603874207,16,0.0,0.0,1575420030,,,,0,0.0,6,-57.03,29.499999999999996,-1449.0557861328125,8.067837715148926,,,C,766888533951937,0
Raw,1730968846418,919096643000000,18,0.0,-1414084967775317468,-0.10674667358398438,24.875285816960968,11.099171451589193,9.529636298429487,27,8,0.0,23567,376864335752037,24,34.9,63.96958541870117,0.05239181965589523,16,0.0,0.0,1575420030,,,,0,0.0,6,-57.03,30.599999999999998,-1449.0557861328125,8.067837715148926,,,C,766888533951937,0
Raw,1730968846418,919096643000000,18,0.0,-1414084967775317468,-0.10674667358398438,24.875285816960968,11.099171451589193,9.529636298429487,27,13,0.0,23567,376864325792306,61,27.4,206.0119171142578,1.037000060081482,16,0.0,0.0,1575420030,,,,0,0.0,6,-57.03,23.099999999999998,-1449.0557861328125,8.067837715148926,,,C,766888533951937,0
Raw,1730968846418,919096643000000,18,0.0,-1414084967775317468,-0.10674667358398438,24.875285816960968,11.099171451589193,9.529636298429487,27,21,0.0,23567,376864326111071,61,27.9,-472.31842041015625,1.0385000705718994,16,0.0,0.0,1575420030,,,,0,0.0,6,-57.03,23.599999999999998,-1449.0557861328125,8.067837715148926,,,C,766888533951937,0
Raw,1730968846418,919096643000000,18,0.0,-1414084967775317468,-0.10674667358398438,24.875285816960968,11.099171451589193,9.529636298429487,27,27,0.0,23567,376864338834009,17,37.9,-152.3234405517578,0.04090714827179909,16,0.0,0.0,1575420030,,,,0,0.0,6,-57.03,33.6,-1449.0557861328125,8.067837715148926,,,C,766888533951937,0
Raw,1730968846418,919096643000000,18,0.0,-1414084967775317468,-0.10674667358398438,24.875285816960968,11.099171451589193,9.529636298429487,27,30,0.0,23567,376864337110260,13,40.6,322.1427307128906,0.035391952842473984,16,0.0,0.0,1575420030,,,,0,0.0,6,-57.03,36.300000000000004,-1449.0557861328125,8.067837715148926,,,C,766888533951937,0
Raw,1730968846418,919096643000000,18,0.0,-1414084967775317468,-0.10674667358398438,24.875285816960968,11.099171451589193,9.529636298429487,27,3,0.0,81935,376864348479459,10,30.1,351.2662353515625,0.10274752229452133,16,0.0,0.0,1176450050,,,,0,0.0,1,-43.91,25.1,20.9335994720459,4.935825824737549,,,Q,766888533951937,0
Raw,1730968846418,919096643000000,18,0.0,-1414084967775317468,-0.10674667358398438,24.875285816960968,11.099171451589193,9.529636298429487,27,8,0.0,81935,376864346226729,5,37.9,-406.33203125,0.060045309364795685,16,0.0,0.0,1176450050,,,,0,0.0,1,-43.91,32.9,20.9335994720459,4.935825824737549,,,Q,766888533951937,0
Raw,1730968846418,919096643000000,18,0.0,-1414084967775317468,-0.10674667358398438,24.875285816960968,11.099171451589193,9.529636298429487,27,27,0.0,81935,376864345175067,23,23.6,-125.40087890625,2.0989999771118164,16,0.0,0.0,1176450050,,,,0,0.0,1,-43.91,18.6,20.9335994720459,4.935825824737549,,,Q,766888533951937,0
Raw,1730968846418,919096643000000,18,0.0,-1414084967775317468,-0.10674667358398438,24.875285816960968,11.099171451589193,9.529636298429487,27,194,0.0,16399,376864278087142,23,23.1,117.00428771972656,2.7785000801086426,16,0.0,0.0,1176450050,,,,0,0.0,4,-43.91,18.1,20.9335994720459,4.935825824737549,,,Q,766888533951937,0
Raw,1730968846418,919096643000000,18,0.0,-1414084967775317468,-0.10674667358398438,24.875285816960968,11.099171451589193,9.529636298429487,27,27,0.0,81935,376864338833965,18,25.8,-152.1068572998047,1.1784999370574951,16,0.0,0.0,1176450050,,,,0,0.0,6,-43.91,20.5,-1434.8505859375,56.9943962097168,,,Q,766888533951937,0
Raw,1730968846418,919096643000000,18,0.0,-1414084967775317468,-0.10674667358398438,24.875285816960968,11.099171451589193,9.529636298429487,27,30,0.0,81935,376864337110189,23,24.2,322.2555236816406,2.7669999599456787,16,0.0,0.0,1176450050,,,,0,0.0,6,-43.91,18.9,-1434.8505859375,56.9943962097168,,,Q,766888533951937,0
Raw,1730968846418,919096643000000,18,0.0,-1414084967775317468,-0.10674667358398438,24.875285816960968,11.099171451589193,9.529636298429487,27,23,0.0,16399,376850333807771,18,24.9,422.04620361328125,2.0410001277923584,16,0.0,0.0,1176450050,,,,0,0.0,5,-43.91,20.4,-1493.1832275390625,56.50185775756836,,,Q,766888533951937,0
Raw,1730968846418,919096643000000,18,0.0,-1414084967775317468,-0.10674667358398438,24.875285816960968,11.099171451589193,9.529636298429487,27,32,0.0,16399,376850345585714,11,28.7,80.65086364746094,0.20235151052474976,16,0.0,0.0,1176450050,,,,0,0.0,5,-43.91,24.2,-1493.1832275390625,56.50185775756836,,,Q,766888533951937,0
Raw,1730968846418,919096643000000,18,0.0,-1414084967775317468,-0.10674667358398438,24.875285816960968,11.099171451589193,9.529636298429487,27,41,0.0,16399,376850335844563,11,28.6,546.9409790039062,0.2173515111207962,16,0.0,0.0,1176450050,,,,0,0.0,5,-43.91,24.1,-1493.1832275390625,56.50185775756836,,,Q,766888533951937,0
Raw,1730968846418,919096643000000,18,0.0,-1414084967775317468,-0.10674667358398438,24.875285816960968,11.099171451589193,9.529636298429487,27,20,0.0,16399,376850338551028,6,37.5,-477.002685546875,0.08689182251691818,16,0.0,0.0,1575420030,,,,0,0.0,5,-57.03,30.5,-1543.3515625,53.20640182495117,,,P,766888533951937,0
Raw,1730968846418,919096643000000,18,0.0,-1414084967775317468,-0.10674667358398438,24.875285816960968,11.099171451589193,9.529636298429487,27,23,0.0,16399,376850333807870,8,34.0,421.9666748046875,0.7609999775886536,16,0.0,0.0,1575420030,,,,0,0.0,5,-57.03,27.0,-1543.3515625,53.20640182495117,,,P,766888533951937,0
Raw,1730968846418,919096643000000,18,0.0,-1414084967775317468,-0.10674667358398438,24.875285816960968,11.099171451589193,9.529636298429487,27,27,0.0,16399,376850333003793,8,35.4,-268.4875793457031,0.06420638412237167,16,0.0,0.0,1575420030,,,,0,0.0,5,-57.03,28.4,-1543.3515625,53.20640182495117,,,P,766888533951937,0
Raw,1730968846418,919096643000000,18,0.0,-1414084967775317468,-0.10674667358398438,24.875285816960968,11.099171451589193,9.529636298429487,27,28,0.0,16399,376850333828989,14,29.0,-235.36471557617188,1.1109999418258667,16,0.0,0.0,1575420030,,,,0,0.0,5,-57.03,22.0,-1543.3515625,53.20640182495117,,,P,766888533951937,0
Raw,1730968846418,919096643000000,18,0.0,-1414084967775317468,-0.10674667358398438,24.875285816960968,11.099171451589193,9.529636298429487,27,32,0.0,16399,376850345585784,2,46.8,80.68360137939453,0.05989910662174225,16,0.0,0.0,1575420030,,,,0,0.0,5,-57.03,39.8,-1543.3515625,53.20640182495117,,,P,766888533951937,0
Raw,1730968846418,919096643000000,18,0.0,-1414084967775317468,-0.10674667358398438,24.875285816960968,11.099171451589193,9.529636298429487,27,37,0.0,16399,376850341877260,4,41.8,222.2314910888672,0.05880868062376976,16,0.0,0.0,1575420030,,,,0,0.0,5,-57.03,34.8,-1543.3515625,53.20640182495117,,,P,766888533951937,0
Raw,1730968846418,919096643000000,18,0.0,-1414084967775317468,-0.10674667358398438,24.875285816960968,11.099171451589193,9.529636298429487,27,38,0.0,16399,376850283827052,18,27.7,254.7366180419922,1.7710000276565552,16,0.0,0.0,1575420030,,,,0,0.0,5,-57.03,20.7,-1543.3515625,53.20640182495117,,,P,766888533951937,0
Raw,1730968846418,919096643000000,18,0.0,-1414084967775317468,-0.10674667358398438,24.875285816960968,11.099171451589193,9.529636298429487,27,39,0.0,16399,376850288980701,12,30.7,-83.55795288085938,0.9584999680519104,16,0.0,0.0,1575420030,,,,0,0.0,5,-57.03,23.7,-1543.3515625,53.20640182495117,,,P,766888533951937,0
Raw,1730968846418,919096643000000,18,0.0,-1414084967775317468,-0.10674667358398438,24.875285816960968,11.099171451589193,9.529636298429487,27,40,0.0,16399,376850293345118,5,39.8,-185.6020965576172,0.06559552997350693,16,0.0,0.0,1575420030,,,,0,0.0,5,-57.03,32.8,-1543.3515625,53.20640182495117,,,P,766888533951937,0
Raw,1730968846418,919096643000000,18,0.0,-1414084967775317468,-0.10674667358398438,24.875285816960968,11.099171451589193,9.529636298429487,27,41,0.0,16399,376850335844715,3,45.2,546.9368286132812,0.060698337852954865,16,0.0,0.0,1575420030,,,,0,0.0,5,-57.03,38.2,-1543.3515625,53.20640182495117,,,P,766888533951937,0
Agc,1730968846418,919096643000000,18,0.0,-1414084967775317468,-0.10674667358398438,24.875285816960968,11.099171451589193,9.529636298429487,27,-53.15,1575420000,1
Agc,1730968846418,919096643000000,18,0.0,-1414084967775317468,-0.10674667358398438,24.875285816960968,11.099171451589193,9.529636298429487,27,-53.15,1575420000,4
Agc,1730968846418,919096643000000,18,0.0,-1414084967775317468,-0.10674667358398438,24.875285816960968,11.099171451589193,9.529636298429487,27,-55.11,1602000000,3
Agc,1730968846418,919096643000000,18,0.0,-1414084967775317468,-0.10674667358398438,24.875285816960968,11.099171451589193,9.529636298429487,27,-61.03,1561098000,5
Agc,1730968846418,919096643000000,18,0.0,-1414084967775317468,-0.10674667358398438,24.875285816960968,11.099171451589193,9.529636298429487,27,-57.03,1575420000,6
Agc,1730968846418,919096643000000,18,0.0,-1414084967775317468,-0.10674667358398438,24.875285816960968,11.099171451589193,9.529636298429487,27,-43.91,1176450000,1
Agc,1730968846418,919096643000000,18,0.0,-1414084967775317468,-0.10674667358398438,24.875285816960968,11.099171451589193,9.529636298429487,27,-43.91,1176450000,4
Agc,1730968846418,919096643000000,18,0.0,-1414084967775317468,-0.10674667358398438,24.875285816960968,11.099171451589193,9.529636298429487,27,-43.91,1176450000,6
Agc,1730968846418,919096643000000,18,0.0,-1414084967775317468,-0.10674667358398438,24.875285816960968,11.099171451589193,9.529636298429487,27,-43.91,1176450000,5
Agc,1730968846418,919096643000000,18,0.0,-1414084967775317468,-0.10674667358398438,24.875285816960968,11.099171451589193,9.529636298429487,27,-57.03,1575420000,5
Fix,GPS,12.9283703700,77.5201698900,738.0908203125,0.0,3.7900925,,1730968847000,0.07070389,,766889115953134,2.5,0,,,
Fix,FLP,12.9283704000,77.5201699000,751.2999877929688,0.012633937,3.79,,1730968846613,0.07070389,,766889115953134,1.47419,0,,,
Status,1730968847000,64,0,1,2,1575420030,23.50,188.54144,8.008415,1,1,1,18.5
Status,1730968847000,64,1,1,3,1575420030,32.40,216.35928,55.97388,1,1,1,27.4
Status,1730968847000,64,2,1,4,1575420030,26.90,4.024909,52.771957,1,1,1,21.9
Status,1730968847000,64,3,1,7,1575420030,32.60,297.14328,21.797468,1,1,1,27.6
Status,1730968847000,64,4,1,8,1575420030,44.50,143.65236,41.045258,1,1,1,39.5
Status,1730968847000,64,5,1,9,1575420030,24.70,333.99084,29.674116,1,1,1,19.7
Status,1730968847000,64,6,1,16,1575420030,32.90,31.524448,36.567703,1,1,1,27.9
Status,1730968847000,64,7,1,21,1575420030,21.80,173.18663,7.652095,1,1,1,16.8
Status,1730968847000,64,8,1,27,1575420030,20.00,98.85132,37.63368,1,1,1,15.0
Status,1730968847000,64,9,1,31,1575420030,24.60,61.232784,5.9547057,1,1,1,19.6
Status,1730968847000,64,10,4,194,1575420030,18.80,54.252357,25.148975,1,1,1,13.8
Status,1730968847000,64,11,4,196,1575420030,25.20,126.79038,24.795296,1,1,1,20.2
Status,1730968847000,64,12,2,128,1575420030,39.30,0.0,0.0,0,0,0,34.3
Status,1730968847000,64,13,3,6,1599750020,31.30,138.27655,46.43491,0,1,0,26.3
Status,1730968847000,64,14,3,9,1600875010,31.00,14.001507,25.09748,1,1,1,26.0
Status,1730968847000,64,15,3,11,1602000000,36.40,252.35707,30.394503,1,1,1,31.4
Status,1730968847000,64,16,3,7,1604812540,35.40,19.389708,71.82212,1,1,1,30.4
Status,1730968847000,64,17,3,8,1605374980,22.40,339.30286,24.920979,0,1,0,17.4
Status,1730968847000,64,18,5,60,1561097980,37.80,170.25731,72.57256,0,1,0,32.8
Status,1730968847000,64,19,5,41,1561097980,39.80,146.19434,26.385794,1,1,1,34.8
Status,1730968847000,64,20,5,40,1561097980,26.80,96.13398,47.18127,1,1,1,21.8
Status,1730968847000,64,21,5,39,1561097980,29.00,50.492672,27.772587,1,1,1,24.0
Status,1730968847000,64,22,5,37,1561097980,33.10,339.9706,51.134617,1,1,1,28.1
Status,1730968847000,64,23,5,32,1561097980,32.70,158.94987,83.323204,1,1,1,27.7
Status,1730968847000,64,24,5,28,1561097980,30.40,127.002625,16.37214,1,1,1,25.4
Status,1730968847000,64,25,5,27,1561097980,31.20,171.39706,13.751223,1,1,1,26.2
Status,1730968847000,64,26,5,23,1561097980,31.90,34.07528,20.09031,1,1,1,26.9
Status,1730968847000,64,27,5,20,1561097980,34.80,324.50052,36.617733,1,1,1,29.8
Status,1730968847000,64,28,5,16,1561097980,31.30,43.334244,29.444965,0,1,0,26.3
Status,1730968847000,64,29,5,13,1561097980,35.90,180.1785,28.625854,1,1,1,30.9
Status,1730968847000,64,30,5,10,1561097980,25.90,129.72362,59.138306,1,1,1,20.9
Status,1730968847000,64,31,5,9,1561097980,30.80,21.204784,38.446377,1,1,1,25.8
Status,1730968847000,64,32,5,8,1561097980,23.80,172.61732,18.778145,1,1,1,18.8
Status,1730968847000,64,33,5,7,1561097980,24.40,106.48685,56.52142,1,1,1,19.4
Status,1730968847000,64,34,5,5,1561097980,25.60,237.98357,63.707973,0,1,1,20.6
Status,1730968847000,64,35,5,2,1561097980,34.00,153.44193,72.96771,1,1,1,29.0
Status,1730968847000,64,36,6,7,1575420030,29.60,0.7855074,51.314632,1,1,1,24.6
Status,1730968847000,64,37,6,8,1575420030,32.60,90.69969,46.58855,1,1,1,27.6
Status,1730968847000,64,38,6,13,1575420030,21.60,202.82007,10.690022,1,1,1,16.6
Status,1730968847000,64,39,6,21,1575420030,22.60,220.75748,13.399586,1,1,1,17.6
Status,1730968847000,64,40,6,27,1575420030,34.00,235.61989,65.21678,1,1,1,29.0
Status,1730968847000,64,41,6,30,1575420030,34.90,25.720245,56.277977,1,1,1,29.9
Status,1730968847000,64,42,1,3,1176450050,25.10,216.35928,55.97388,1,1,1,20.1
Status,1730968847000,64,43,1,8,1176450050,34.30,143.65236,41.045258,1,1,1,29.3
Status,1730968847000,64,44,1,27,1176450050,18.60,98.85132,37.63368,1,1,1,13.6
Status,1730968847000,64,45,4,194,1176450050,18.10,54.252357,25.148975,1,1,1,13.1
Status,1730968847000,64,46,6,7,1176450050,18.60,0.7855074,51.314632,1,1,1,13.6
Status,1730968847000,64,47,6,8,1176450050,17.50,90.69969,46.58855,0,1,1,12.5
Status,1730968847000,64,48,6,27,1176450050,25.10,235.61989,65.21678,1,1,1,20.1
Status,1730968847000,64,49,6,30,1176450050,18.90,25.720245,56.277977,0,1,1,13.9
Status,1730968847000,64,50,5,20,1176450050,17.10,324.50052,36.617733,0,1,1,12.1
Status,1730968847000,64,51,5,23,1176450050,20.20,34.07528,20.09031,1,1,1,15.2
Status,1730968847000,64,52,5,32,1176450050,25.60,158.94987,83.323204,1,1,1,20.6
Status,1730968847000,64,53,5,41,1176450050,24.90,146.19434,26.385794,1,1,1,19.9
Status,1730968847000,64,54,5,20,1575420030,31.90,324.50052,36.617733,1,1,1,26.9
Status,1730968847000,64,55,5,23,1575420030,29.00,34.07528,20.09031,1,1,1,24.0
Status,1730968847000,64,56,5,27,1575420030,26.60,171.39706,13.751223,1,1,1,21.6
Status,1730968847000,64,57,5,28,1575420030,22.00,127.002625,16.37214,1,1,1,17.0
Status,1730968847000,64,58,5,32,1575420030,37.50,158.94987,83.323204,1,1,1,32.5
Status,1730968847000,64,59,5,37,1575420030,36.50,339.9706,51.134617,1,1,1,31.5
Status,1730968847000,64,60,5,38,1575420030,21.30,163.41208,11.242619,1,1,1,16.3
Status,1730968847000,64,61,5,39,1575420030,26.00,50.492672,27.772587,1,1,1,21.0
Status,1730968847000,64,62,5,40,1575420030,30.80,96.13398,47.18127,1,1,1,25.8
Status,1730968847000,64,63,5,41,1575420030,38.30,146.19434,26.385794,1,1,1,33.3
Raw,1730968847418,919097643000000,18,0.0,-1414084967775317456,-0.9904804229736328,23.121398044168018,11.2288249551885,9.49184146987105,27,2,0.0,16399,376865336140254,61,28.5,30.52310562133789,1.630500078201294,16,0.0,0.0,1575420030,,,,0,0.0,1,-52.53,23.5,0.0,0.0,,,C,766889542211676,0
Raw,1730968847418,919097643000000,18,0.0,-1414084967775317456,-0.9904804229736328,23.121398044168018,11.2288249551885,9.49184146987105,27,3,0.0,16399,376865348478341,19,37.4,351.4152526855469,0.057208675891160965,16,0.0,0.0,1575420030,,,,0,0.0,1,-52.53,32.4,0.0,0.0,,,C,766889542211676,0
Raw,1730968847418,919097643000000,18,0.0,-1414084967775317456,-0.9904804229736328,23.121398044168018,11.2288249551885,9.49184146987105,27,4,0.0,16399,376865348198226,40,31.9,-351.71026611328125,0.7414999604225159,16,0.0,0.0,1575420030,,,,0,0.0,1,-52.53,26.9,0.0,0.0,,,C,766889542211676,0
Raw,1730968847418,919097643000000,18,0.0,-1414084967775317456,-0.9904804229736328,23.121398044168018,11.2288249551885,9.49184146987105,27,7,0.0,16399,376865338249059,19,37.6,-102.02286529541016,0.04220867529511452,16,0.0,0.0,1575420030,,,,0,0.0,1,-52.53,32.6,0.0,0.0,,,C,766889542211676,0
Raw,1730968847418,919097643000000,18,0.0,-1414084967775317456,-0.9904804229736328,23.121398044168018,11.2288249551885,9.49184146987105,27,8,0.0,16399,376865346228147,6,49.5,-406.24859619140625,0.037792082875967026,16,0.0,0.0,1575420030,,,,0,0.0,1,-52.53,44.5,0.0,0.0,,,C,766889542211676,0
Raw,1730968847418,919097643000000,18,0.0,-1414084967775317456,-0.9904804229736328,23.121398044168018,11.2288249551885,9.49184146987105,27,9,0.0,16399,376865342907054,53,29.7,-542.736572265625,0.8704999685287476,16,0.0,0.0,1575420030,,,,0,0.0,1,-52.53,24.7,0.0,0.0,,,C,766889542211676,0
Raw,1730968847418,919097643000000,18,0.0,-1414084967775317456,-0.9904804229736328,23.121398044168018,11.2288249551885,9.49184146987105,27,16,0.0,16399,376865345148706,19,37.9,585.8209838867188,0.6325896978378296,16,0.0,0.0,1575420030,,,,0,0.0,1,-52.53,32.9,0.0,0.0,,,C,766889542211676,0
Raw,1730968847418,919097643000000,18,0.0,-1414084967775317456,-0.9904804229736328,23.121398044168018,11.2288249551885,9.49184146987105,27,21,0.0,16399,376865336538033,80,26.8,-43.94832229614258,1.7904999256134033,16,0.0,0.0,1575420030,,,,0,0.0,1,-52.53,21.8,0.0,0.0,,,C,766889542211676,0
Raw,1730968847418,919097643000000,18,0.0,-1414084967775317456,-0.9904804229736328,23.121398044168018,11.2288249551885,9.49184146987105,27,31,0.0,16399,376865334149645,53,29.6,310.8446960449219,0.8524999618530273,16,0.0,0.0,1575420030,,,,0,0.0,1,-52.53,24.6,0.0,0.0,,,C,766889542211676,0
Raw,1730968847418,919097643000000,18,0.0,-1414084967775317456,-0.9904804229736328,23.121398044168018,11.2288249551885,9.49184146987105,27,194,0.0,16399,376865278086650,122,23.8,117.03060913085938,3.498499870300293,16,0.0,0.0,1575420030,,,,0,0.0,4,-52.53,18.8,0.0,0.0,,,C,766889542211676,0
Raw,1730968847418,919097643000000,18,0.0,-1414084967775317456,-0.9904804229736328,23.121398044168018,11.2288249551885,9.49184146987105,27,196,0.0,16399,376865294916494,46,30.2,-41.531593322753906,0.7924999594688416,16,0.0,0.0,1575420030,,,,0,0.0,4,-52.53,25.2,0.0,0.0,,,C,766889542211676,0
Raw,1730968847418,919097643000000,18,0.0,-1414084967775317456,-0.9904804229736328,23.121398044168018,11.2288249551885,9.49184146987105,27,6,0.0,49359,42047349765719,21,35.3,453.9555969238281,0.07342047989368439,16,0.0,0.0,1599750020,,,,0,0.0,3,-55.02,31.299999999999997,3792.40087890625,13.029940605163574,,,C,766889542211676,0
Raw,1730968847418,919097643000000,18,0.0,-1414084967775317456,-0.9904804229736328,23.121398044168018,11.2288249551885,9.49184146987105,27,9,0.0,49359,42047344569250,21,35.0,579.9398193359375,0.08088997006416321,16,0.0,0.0,1600875010,,,,0,0.0,3,-55.02,31.0,3792.40087890625,13.029940605163574,,,C,766889542211676,0
Raw,1730968847418,919097643000000,18,0.0,-1414084967775317456,-0.9904804229736328,23.121398044168018,11.2288249551885,9.49184146987105,27,11,0.0,49359,42047345980504,13,40.4,-243.11268615722656,0.04425271600484848,16,0.0,0.0,1602000000,,,,0,0.0,3,-55.02,36.4,3792.40087890625,13.029940605163574,,,C,766889542211676,0
Raw,1730968847418,919097643000000,18,0.0,-1414084967775317456,-0.9904804229736328,23.121398044168018,11.2288249551885,9.49184146987105,27,7,0.0,49359,42047353830722,14,39.4,-252.93585205078125,0.03332173824310303,16,0.0,0.0,1604812540,,,,0,0.0,3,-55.02,35.4,3792.40087890625,13.029940605163574,,,C,766889542211676,0
Raw,1730968847418,919097643000000,18,0.0,-1414084967775317456,-0.9904804229736328,23.121398044168018,11.2288249551885,9.49184146987105,27,8,0.0,49359,42047344251230,70,26.4,-727.5785522460938,1.097499966621399,16,0.0,0.0,1605374980,,,,0,0.0,3,-55.02,22.4,3792.40087890625,13.029940605163574,,,C,766889542211676,0
Raw,1730968847418,919097643000000,18,0.0,-1414084967775317456,-0.9904804229736328,23.121398044168018,11.2288249551885,9.49184146987105,27,60,0.0,16399,376851298177737,12,42.1,9.88043212890625,1.1521999835968018,16,0.0,0.0,1561097980,,,,0,0.0,5,-61.11,37.800000000000004,-1530.477783203125,7.357766151428223,,,I,766889542211676,0
Raw,1730968847418,919097643000000,18,0.0,-1414084967775317456,-0.9904804229736328,23.121398044168018,11.2288249551885,9.49184146987105,27,41,0.0,16399,376851335842858,10,44.1,547.0299682617188,0.02695322595536709,16,0.0,0.0,1561097980,,,,0,0.0,5,-61.11,39.800000000000004,-1530.477783203125,7.357766151428223,,,I,766889542211676,0
Raw,1730968847418,919097643000000,18,0.0,-1414084967775317456,-0.9904804229736328,23.121398044168018,11.2288249551885,9.49184146987105,27,40,0.0,16399,376851293345734,40,31.1,-185.50054931640625,0.7339999675750732,16,0.0,0.0,1561097980,,,,0,0.0,5,-61.11,26.8,-1530.477783203125,7.357766151428223,,,I,766889542211676,0
Raw,1730968847418,919097643000000,18,0.0,-1414084967775317456,-0.9904804229736328,23.121398044168018,11.2288249551885,9.49184146987105,27,39,0.0,16399,376851288981027,27,33.3,-83.65240478515625,0.6315000057220459,16,0.0,0.0,1561097980,,,,0,0.0,5,-61.11,28.999999999999996,-1530.477783203125,7.357766151428223,,,I,766889542211676,0
Raw,1730968847418,919097643000000,18,0.0,-1414084967775317456,-0.9904804229736328,23.121398044168018,11.2288249551885,9.49184146987105,27,37,0.0,16399,376851341876532,17,37.4,222.29571533203125,0.057939279824495316,16,0.0,0.0,1561097980,,,,0,0.0,5,-61.11,33.1,-1530.477783203125,7.357766151428223,,,I,766889542211676,0
Raw,1730968847418,919097643000000,18,0.0,-1414084967775317456,-0.9904804229736328,23.121398044168018,11.2288249551885,9.49184146987105,27,32,0.0,16399,376851345585533,19,37.0,80.81865692138672,0.06194453686475754,16,0.0,0.0,1561097980,,,,0,0.0,5,-61.11,32.7,-1530.477783203125,7.357766151428223,,,I,766889542211676,0
