# 
# Header Description:
# 
# Version: v3.1.0.3 Platform: 12 Manufacturer: Xiaomi Model: 22120RN86I GNSS Hardware Model Name: MTK_MNLD_default,MNL_VER_default
# 
# Raw,utcTimeMillis,TimeNanos,LeapSecond,TimeUncertaintyNanos,FullBiasNanos,BiasNanos,BiasUncertaintyNanos,DriftNanosPerSecond,DriftUncertaintyNanosPerSecond,HardwareClockDiscontinuityCount,Svid,TimeOffsetNanos,State,ReceivedSvTimeNanos,ReceivedSvTimeUncertaintyNanos,Cn0DbHz,PseudorangeRateMetersPerSecond,PseudorangeRateUncertaintyMetersPerSecond,AccumulatedDeltaRangeState,AccumulatedDeltaRangeMeters,AccumulatedDeltaRangeUncertaintyMeters,CarrierFrequencyHz,CarrierCycles,CarrierPhase,CarrierPhaseUncertainty,MultipathIndicator,SnrInDb,ConstellationType,AgcDb,BasebandCn0DbHz,FullInterSignalBiasNanos,FullInterSignalBiasUncertaintyNanos,SatelliteInterSignalBiasNanos,SatelliteInterSignalBiasUncertaintyNanos,CodeType,ChipsetElapsedRealtimeNanos,IsFullTracking
# 
# UncalAccel,utcTimeMillis,elapsedRealtimeNanos,UncalAccelXMps2,UncalAccelYMps2,UncalAccelZMps2,BiasXMps2,BiasYMps2,BiasZMps2
# 
# Accel,utcTimeMillis,elapsedRealtimeNanos,AccelXMps2,AccelYMps2,AccelZMps2
# 
# UncalGyro,utcTimeMillis,elapsedRealtimeNanos,UncalGyroXRadPerSec,UncalGyroYRadPerSec,UncalGyroZRadPerSec,DriftXRadPerSec,DriftYRadPerSec,DriftZRadPerSec
# 
# Gyro,utcTimeMillis,elapsedRealtimeNanos,GyroXRadPerSec,GyroYRadPerSec,GyroZRadPerSec
# 
# UncalMag,utcTimeMillis,elapsedRealtimeNanos,UncalMagXMicroT,UncalMagYMicroT,UncalMagZMicroT,BiasXMicroT,BiasYMicroT,BiasZMicroT
# 
# Mag,utcTimeMillis,elapsedRealtimeNanos,MagXMicroT,MagYMicroT,MagZMicroT
# 
# Pressure,utcTimeMillis,elapsedRealtimeNanos,PressureHpa
# 
# OrientationDeg,utcTimeMillis,elapsedRealtimeNanos,yawDeg,rollDeg,pitchDeg
# 
# Fix,Provider,LatitudeDegrees,LongitudeDegrees,AltitudeMeters,SpeedMps,AccuracyMeters,BearingDegrees,UnixTimeMillis,SpeedAccuracyMps,BearingAccuracyDegrees,elapsedRealtimeNanos,VerticalAccuracyMeters,MockLocation,NumberOfUsedSignals,VerticalSpeedAccuracyMps,SolutionType
# 
# Nav,Svid,Type,Status,MessageId,Sub-messageId,Data(Bytes)
# 
# Status,UnixTimeMillis,SignalCount,SignalIndex,ConstellationType,Svid,CarrierFrequencyHz,Cn0DbHz,AzimuthDegrees,ElevationDegrees,UsedInFix,HasAlmanacData,HasEphemerisData,BasebandCn0DbHz
# 
# Agc,utcTimeMillis,TimeNanos,LeapSecond,TimeUncertaintyNanos,FullBiasNanos,BiasNanos,BiasUncertaintyNanos,DriftNanosPerSecond,DriftUncertaintyNanosPerSecond,HardwareClockDiscontinuityCount,AgcDb,CarrierFrequencyHz,ConstellationType
# 
Raw,1730969746999,1088643000000,18,95.00269198117819,-1415003876356999936,0.0,95.00269198117819,-3629.7453422341077,0.0,0,8,0.0,16431,377764929334762,396,23.816999435424805,-1436.968383825689,0.14999,16,0.0,0.0,1575420030,,,,0,2.66012716712666,1,6.0,23.816999435424805,0.0,0.0,0.0,66.7128,C,,
Raw,1730969746999,1088643000000,18,95.00269198117819,-1415003876356999936,0.0,95.00269198117819,-3629.7453422341077,0.0,0,4,0.0,16431,377764931158216,1797,14.199999809265137,-1394.8036544413285,0.14999,16,0.0,0.0,1575420030,,,,0,0.0,1,6.0,14.199999809265137,0.0,0.0,0.0,66.7128,C,,
Raw,1730969746999,1088643000000,18,95.00269198117819,-1415003876356999936,0.0,95.00269198117819,-3629.7453422341077,0.0,0,7,0.0,17,580325,797,17.100000381469727,-1208.5911865234375,0.14999,16,0.0,0.0,1561097980,,,,0,0.0,5,6.0,17.100000381469727,0.0,0.0,159.97267621611087,66.7128,I,,
Raw,1730969746999,1088643000000,18,95.00269198117819,-1415003876356999936,0.0,95.00269198117819,-3629.7453422341077,0.0,0,7,0.0,16431,377764919751442,2001,9.699999809265137,-1358.8522736409657,0.14999,16,0.0,0.0,1575420030,,,,0,0.0,6,6.0,9.699999809265137,0.0,0.0,27.86383594044668,66.7128,C,,
Raw,1730969746999,1088643000000,18,95.00269198117819,-1415003876356999936,0.0,95.00269198117819,-3629.7453422341077,0.0,0,3,0.0,16431,377764929284860,797,18.118999481201172,-667.4694594492901,0.14999,16,0.0,0.0,1575420030,,,,0,0.0,1,6.0,18.118999481201172,0.0,0.0,0.0,66.7128,C,,
Raw,1730969746999,1088643000000,18,95.00269198117819,-1415003876356999936,0.0,95.00269198117819,-3629.7453422341077,0.0,0,8,0.0,16431,377764917456780,1837,7.199999809265137,-976.3082853871128,0.14999,16,0.0,0.0,1575420030,,,,0,0.0,6,6.0,7.199999809265137,0.0,0.0,27.86383594044668,66.7128,C,,
Raw,1730969746999,1088643000000,18,95.00269198117819,-1415003876356999936,0.0,95.00269198117819,-3629.7453422341077,0.0,0,7,0.0,32995,42946936371048,396,23.0,-1210.7213958611335,0.14999,16,0.0,0.0,1604812540,,,,0,3.597684961456406,3,6.0,23.0,0.0,0.0,131.10996280539266,66.7128,C,,
Raw,1730969746999,1088643000000,18,95.00269198117819,-1415003876356999936,0.0,95.00269198117819,-3629.7453422341077,0.0,0,11,0.0,32995,42946928550659,235,28.0,-1243.891768417325,0.14999,16,0.0,0.0,1602000000,,,,0,9.931674689781891,3,6.0,28.0,0.0,0.0,131.10996280539266,66.7128,C,,
Raw,1730969746999,1088643000000,18,95.00269198117819,-1415003876356999936,0.0,95.00269198117819,-3629.7453422341077,0.0,0,10,0.0,17,542830,797,16.052000045776367,-1224.2330322265625,0.14999,16,0.0,0.0,1561097980,,,,0,0.0,5,6.0,16.052000045776367,0.0,0.0,159.97267621611087,66.7128,I,,
Raw,1730969746999,1088643000000,18,95.00269198117819,-1415003876356999936,0.0,95.00269198117819,-3629.7453422341077,0.0,0,9,0.0,17,300397,797,15.335000038146973,-1145.6083984375,0.14999,16,0.0,0.0,1561097980,,,,0,0.0,5,6.0,15.335000038146973,0.0,0.0,159.97267621611087,66.7128,I,,
Raw,1730969747999,1089643000000,18,94.4983898036368,-1415003876356999936,0.0,94.4983898036368,-3629.584924872791,0.0,0,8,0.0,16431,377765929339553,487,23.761999130249023,-1438.0144415250854,0.14999,16,0.0,0.0,1575420030,,,,0,1.7034321947362447,1,6.0,23.761999130249023,0.0,0.0,0.0,66.7128,C,,
Raw,1730969747999,1089643000000,18,94.4983898036368,-1415003876356999936,0.0,94.4983898036368,-3629.584924872791,0.0,0,4,0.0,16431,377765931162873,797,14.199999809265137,-1397.8238231623432,0.14999,16,0.0,0.0,1575420030,,,,0,0.0,1,6.0,14.199999809265137,0.0,0.0,0.0,66.7128,C,,
Raw,1730969747999,1089643000000,18,94.4983898036368,-1415003876356999936,0.0,94.4983898036368,-3629.584924872791,0.0,0,7,0.0,17,584354,487,17.104999542236328,-1208.3316650390625,0.14999,16,0.0,0.0,1561097980,,,,0,0.0,5,6.0,17.104999542236328,0.0,0.0,159.97267621611087,66.7128,I,,
Raw,1730969747999,1089643000000,18,94.4983898036368,-1415003876356999936,0.0,94.4983898036368,-3629.584924872791,0.0,0,7,0.0,16431,377765919755972,2001,9.699999809265137,-1358.109589399424,0.14999,16,0.0,0.0,1575420030,,,,0,0.0,6,6.0,9.699999809265137,0.0,0.0,30.276331033031912,66.7128,C,,
Raw,1730969747999,1089643000000,18,94.4983898036368,-1415003876356999936,0.0,94.4983898036368,-3629.584924872791,0.0,0,3,0.0,16431,377765929287030,797,18.058000564575195,-666.1458127130356,0.14999,16,0.0,0.0,1575420030,,,,0,0.0,1,6.0,18.058000564575195,0.0,0.0,0.0,66.7128,C,,
Raw,1730969747999,1089643000000,18,94.4983898036368,-1415003876356999936,0.0,94.4983898036368,-3629.584924872791,0.0,0,8,0.0,16431,377765917460060,1837,7.289999961853027,-976.0459811691882,0.14999,16,0.0,0.0,1575420030,,,,0,0.0,6,6.0,7.289999961853027,0.0,0.0,30.276331033031912,66.7128,C,,
Raw,1730969747999,1089643000000,18,94.4983898036368,-1415003876356999936,0.0,94.4983898036368,-3629.584924872791,0.0,0,7,0.0,32995,42947936375081,396,23.0,-1211.7513960910742,0.14999,16,0.0,0.0,1604812540,,,,0,2.0291528151755407,3,6.0,23.0,0.0,0.0,130.8137032607184,66.7128,C,,
Raw,1730969747999,1089643000000,18,94.4983898036368,-1415003876356999936,0.0,94.4983898036368,-3629.584924872791,0.0,0,11,0.0,32995,42947928554811,235,28.0,-1243.8271661660478,0.14999,16,0.0,0.0,1602000000,,,,0,9.158758766946459,3,6.0,28.0,0.0,0.0,130.8137032607184,66.7128,C,,
Raw,1730969747999,1089643000000,18,94.4983898036368,-1415003876356999936,0.0,94.4983898036368,-3629.584924872791,0.0,0,10,0.0,17,546913,797,16.034000396728516,-1224.3968505859375,0.14999,16,0.0,0.0,1561097980,,,,0,0.0,5,6.0,16.034000396728516,0.0,0.0,159.97267621611087,66.7128,I,,
Raw,1730969747999,1089643000000,18,94.4983898036368,-1415003876356999936,0.0,94.4983898036368,-3629.584924872791,0.0,0,9,0.0,17,304213,797,15.277999877929688,-1144.310302734375,0.14999,16,0.0,0.0,1561097980,,,,0,0.0,5,6.0,15.277999877929688,0.0,0.0,159.97267621611087,66.7128,I,,
Raw,1730969748999,1090643000000,18,95.67832901825642,-1415003876356999936,0.0,95.67832901825642,-3635.5965698433297,0.0,0,8,0.0,16431,377766929344354,487,23.643999099731445,-1439.4004819143106,0.14999,16,0.0,0.0,1575420030,,,,0,0.0,1,6.0,23.643999099731445,0.0,0.0,0.0,66.7128,C,,
Raw,1730969748999,1090643000000,18,95.67832901825642,-1415003876356999936,0.0,95.67832901825642,-3635.5965698433297,0.0,0,4,0.0,16431,377766931167563,797,14.199999809265137,-1398.352055354657,0.14999,16,0.0,0.0,1575420030,,,,0,0.0,1,6.0,14.199999809265137,0.0,0.0,0.0,66.7128,C,,
Raw,1730969748999,1090643000000,18,95.67832901825642,-1415003876356999936,0.0,95.67832901825642,-3635.5965698433297,0.0,0,7,0.0,17,588390,487,17.16900062561035,-1210.8963623046875,0.14999,16,0.0,0.0,1561097980,,,,0,0.0,5,6.0,17.16900062561035,0.0,0.0,159.97267621611087,66.7128,I,,
Raw,1730969748999,1090643000000,18,95.67832901825642,-1415003876356999936,0.0,95.67832901825642,-3635.5965698433297,0.0,0,7,0.0,16431,377766919760504,2001,9.699999809265137,-1359.0504652445197,0.14999,16,0.0,0.0,1575420030,,,,0,0.0,6,6.0,9.699999809265137,0.0,0.0,32.10275937493196,66.7128,C,,
Raw,1730969748999,1090643000000,18,95.67832901825642,-1415003876356999936,0.0,95.67832901825642,-3635.5965698433297,0.0,0,3,0.0,16431,377766929289256,797,18.0,-669.1005679840258,0.14999,16,0.0,0.0,1575420030,,,,0,0.0,1,6.0,18.0,0.0,0.0,0.0,66.7128,C,,
Raw,1730969748999,1090643000000,18,95.67832901825642,-1415003876356999936,0.0,95.67832901825642,-3635.5965698433297,0.0,0,8,0.0,16431,377766917463318,1797,7.375,-977.7447796163427,0.14999,16,0.0,0.0,1575420030,,,,0,0.0,6,6.0,7.375,0.0,0.0,32.10275937493196,66.7128,C,,
Raw,1730969748999,1090643000000,18,95.67832901825642,-1415003876356999936,0.0,95.67832901825642,-3635.5965698433297,0.0,0,7,0.0,32995,42948936379126,487,20.0,-1212.7165424276845,0.14999,16,0.0,0.0,1604812540,,,,0,0.0,3,6.0,20.0,0.0,0.0,130.03218635397351,66.7128,C,,
Raw,1730969748999,1090643000000,18,95.67832901825642,-1415003876356999936,0.0,95.67832901825642,-3635.5965698433297,0.0,0,11,0.0,32995,42948928558971,235,28.0,-1246.9705636854019,0.14999,16,0.0,0.0,1602000000,,,,0,10.102999566398122,3,6.0,28.0,0.0,0.0,130.03218635397351,66.7128,C,,
Raw,1730969748999,1090643000000,18,95.67832901825642,-1415003876356999936,0.0,95.67832901825642,-3635.5965698433297,0.0,0,10,0.0,17,551000,797,16.091999053955078,-1226.7186279296875,0.14999,16,0.0,0.0,1561097980,,,,0,0.0,5,6.0,16.091999053955078,0.0,0.0,159.97267621611087,66.7128,I,,
Raw,1730969748999,1090643000000,18,95.67832901825642,-1415003876356999936,0.0,95.67832901825642,-3635.5965698433297,0.0,0,9,0.0,17,308030,797,15.223999977111816,-1146.4708251953125,0.14999,16,0.0,0.0,1561097980,,,,0,0.0,5,6.0,15.223999977111816,0.0,0.0,159.97267621611087,66.7128,I,,
Raw,1730969749999,1091643000000,18,96.83570776455382,-1415003876356999936,0.0,96.83570776455382,-3639.7590919688137,0.0,0,8,0.0,16431,377767929349159,396,23.60099983215332,-1439.9344749502345,0.14999,16,0.0,0.0,1575420030,,,,0,1.762721774011026,1,6.0,23.60099983215332,0.0,0.0,0.0,66.7128,C,,
Raw,1730969749999,1091643000000,18,96.83570776455382,-1415003876356999936,0.0,96.83570776455382,-3639.7590919688137,0.0,0,4,0.0,16431,377767931172222,797,14.199999809265137,-1396.0144536846076,0.14999,16,0.0,0.0,1575420030,,,,0,0.0,1,6.0,14.199999809265137,0.0,0.0,0.0,66.7128,C,,
Raw,1730969749999,1091643000000,18,96.83570776455382,-1415003876356999936,0.0,96.83570776455382,-3639.7590919688137,0.0,0,7,0.0,17,592427,487,17.264999389648438,-1210.3734130859375,0.14999,16,0.0,0.0,1561097980,,,,0,0.0,5,6.0,17.264999389648438,0.0,0.0,159.97267621611087,66.7128,I,,
Raw,1730969749999,1091643000000,18,96.83570776455382,-1415003876356999936,0.0,96.83570776455382,-3639.7590919688137,0.0,0,7,0.0,16431,377767919765038,1934,9.699999809265137,-1359.558906151528,0.14999,16,0.0,0.0,1575420030,,,,0,0.0,6,6.0,9.699999809265137,0.0,0.0,34.24597231538502,66.7128,C,,
Raw,1730969749999,1091643000000,18,96.83570776455382,-1415003876356999936,0.0,96.83570776455382,-3639.7590919688137,0.0,0,3,0.0,16431,377767929291494,797,18.00200080871582,-669.6450141635971,0.14999,16,0.0,0.0,1575420030,,,,0,0.0,1,6.0,18.00200080871582,0.0,0.0,0.0,66.7128,C,,
Raw,1730969749999,1091643000000,18,96.83570776455382,-1415003876356999936,0.0,96.83570776455382,-3639.7590919688137,0.0,0,8,0.0,16431,377767917466582,1797,7.455999851226807,-978.8235440407514,0.14999,16,0.0,0.0,1575420030,,,,0,0.0,6,6.0,7.455999851226807,0.0,0.0,34.24597231538502,66.7128,C,,
Raw,1730969749999,1091643000000,18,96.83570776455382,-1415003876356999936,0.0,96.83570776455382,-3639.7590919688137,0.0,0,7,0.0,32995,42949936383176,487,20.0,-1215.5050774108156,0.14999,16,0.0,0.0,1604812540,,,,0,0.7039150062224049,3,6.0,20.0,0.0,0.0,130.30906631737471,66.7128,C,,
Raw,1730969749999,1091643000000,18,96.83570776455382,-1415003876356999936,0.0,96.83570776455382,-3639.7590919688137,0.0,0,11,0.0,32995,42949928563134,235,28.0,-1247.1227947329655,0.14999,16,0.0,0.0,1602000000,,,,0,9.89700043360188,3,6.0,28.0,0.0,0.0,130.30906631737471,66.7128,C,,
Raw,1730969750999,1092643000000,18,94.27741682400686,-1415003876356999936,0.0,94.27741682400686,-3641.3182705230693,0.0,0,8,0.0,16431,377768929353960,396,23.54599952697754,-1440.2337600674628,0.14999,16,0.0,0.0,1575420030,,,,0,1.3389357926122645,1,6.0,23.54599952697754,0.0,0.0,0.0,66.7128,C,,
Raw,1730969750999,1092643000000,18,94.27741682400686,-1415003876356999936,0.0,94.27741682400686,-3641.3182705230693,0.0,0,4,0.0,16431,377768931176884,797,14.199999809265137,-1398.7647919242715,0.14999,16,0.0,0.0,1575420030,,,,0,0.0,1,6.0,14.199999809265137,0.0,0.0,0.0,66.7128,C,,
Raw,1730969750999,1092643000000,18,94.27741682400686,-1415003876356999936,0.0,94.27741682400686,-3641.3182705230693,0.0,0,7,0.0,17,596468,487,17.31599998474121,-1212.048095703125,0.14999,16,0.0,0.0,1561097980,,,,0,0.0,5,6.0,17.31599998474121,0.0,0.0,159.97267621611087,66.7128,I,,
Raw,1730969750999,1092643000000,18,94.27741682400686,-1415003876356999936,0.0,94.27741682400686,-3641.3182705230693,0.0,0,7,0.0,16431,377768919769574,2001,9.699999809265137,-1359.7688981927995,0.14999,16,0.0,0.0,1575420030,,,,0,0.0,6,6.0,9.699999809265137,0.0,0.0,35.14615174638098,66.7128,C,,
Raw,1730969750999,1092643000000,18,94.27741682400686,-1415003876356999936,0.0,94.27741682400686,-3641.3182705230693,0.0,0,3,0.0,16431,377768929293731,487,18.003999710083008,-671.1798144015285,0.14999,16,0.0,0.0,1575420030,,,,0,0.0,1,6.0,18.003999710083008,0.0,0.0,0.0,66.7128,C,,
Raw,1730969750999,1092643000000,18,94.27741682400686,-1415003876356999936,0.0,94.27741682400686,-3641.3182705230693,0.0,0,8,0.0,16431,377768917469848,1797,7.5329999923706055,-979.5381673989019,0.14999,16,0.0,0.0,1575420030,,,,0,0.0,6,6.0,7.5329999923706055,0.0,0.0,35.14615174638098,66.7128,C,,
Raw,1730969750999,1092643000000,18,94.27741682400686,-1415003876356999936,0.0,94.27741682400686,-3641.3182705230693,0.0,0,7,0.0,32995,42950936387229,396,21.0,-1213.9451177993699,0.14999,16,0.0,0.0,1604812540,,,,0,0.9095077911138161,3,6.0,21.0,0.0,0.0,128.5646894521988,66.7128,C,,
Raw,1730969750999,1092643000000,18,94.27741682400686,-1415003876356999936,0.0,94.27741682400686,-3641.3182705230693,0.0,0,11,0.0,32995,42950928567294,235,29.0,-1247.539922423319,0.14999,16,0.0,0.0,1602000000,,,,0,10.66145320097625,3,6.0,29.0,0.0,0.0,128.5646894521988,66.7128,C,,
Raw,1730969751999,1093643000000,18,95.44187673252722,-1415003876356999936,0.0,95.44187673252722,-3642.0090020311486,0.0,0,8,0.0,16431,377769929358769,396,23.57900047302246,-1440.6588545757893,0.14999,16,0.0,0.0,1575420030,,,,0,3.8995320643211007,1,6.0,23.57900047302246,0.0,0.0,0.0,66.7128,C,,
Raw,1730969751999,1093643000000,18,95.44187673252722,-1415003876356999936,0.0,95.44187673252722,-3642.0090020311486,0.0,0,4,0.0,16431,377769931181540,797,17.426000595092773,-1398.0211785144056,0.14999,16,0.0,0.0,1575420030,,,,0,0.0,1,6.0,17.426000595092773,0.0,0.0,0.0,66.7128,C,,
Raw,1730969751999,1093643000000,18,95.44187673252722,-1415003876356999936,0.0,95.44187673252722,-3642.0090020311486,0.0,0,7,0.0,17,600512,797,17.389999389648438,-1213.7784423828125,0.14999,16,0.0,0.0,1561097980,,,,0,0.0,5,6.0,17.389999389648438,0.0,0.0,159.97267621611087,66.7128,I,,
Raw,1730969751999,1093643000000,18,95.44187673252722,-1415003876356999936,0.0,95.44187673252722,-3642.0090020311486,0.0,0,3,0.0,16431,377769929296046,396,24.246000289916992,-671.0687787867853,0.14999,16,0.0,0.0,1575420030,,,,0,3.945611162512386,1,6.0,24.246000289916992,0.0,0.0,0.0,66.7128,C,,
Raw,1730969751999,1093643000000,18,95.44187673252722,-1415003876356999936,0.0,95.44187673252722,-3642.0090020311486,0.0,0,8,0.0,16431,377769917473115,1797,7.605999946594238,-979.8900434432805,0.14999,16,0.0,0.0,1575420030,,,,0,0.0,6,6.0,7.605999946594238,0.0,0.0,36.238477753804574,66.7128,C,,
Raw,1730969751999,1093643000000,18,95.44187673252722,-1415003876356999936,0.0,95.44187673252722,-3642.0090020311486,0.0,0,7,0.0,32995,42951936391275,487,19.0,-1214.4967863603583,0.14999,16,0.0,0.0,1604812540,,,,0,0.0,3,6.0,19.0,0.0,0.0,128.29282011959674,66.7128,C,,
Raw,1730969751999,1093643000000,18,95.44187673252722,-1415003876356999936,0.0,95.44187673252722,-3642.0090020311486,0.0,0,11,0.0,32995,42951928571453,316,24.0,-1247.362928702352,0.14999,16,0.0,0.0,1602000000,,,,0,6.287879144439254,3,6.0,24.0,0.0,0.0,128.29282011959674,66.7128,C,,
Raw,1730969752999,1094643000000,18,97.22651411739122,-1415003876356999936,0.0,97.22651411739122,-3639.7600106436716,0.0,0,8,0.0,16431,377770929363574,487,23.610000610351562,-1439.9542662355402,0.14999,16,0.0,0.0,1575420030,,,,0,3.8995320643211007,1,6.0,23.610000610351562,0.0,0.0,0.0,66.7128,C,,
Raw,1730969752999,1094643000000,18,97.22651411739122,-1415003876356999936,0.0,97.22651411739122,-3639.7600106436716,0.0,0,4,0.0,16431,377770931186198,487,17.426000595092773,-1396.618970596339,0.14999,16,0.0,0.0,1575420030,,,,0,0.0,1,6.0,17.426000595092773,0.0,0.0,0.0,66.7128,C,,
Raw,1730969752999,1094643000000,18,97.22651411739122,-1415003876356999936,0.0,97.22651411739122,-3639.7600106436716,0.0,0,27,0.0,16431,377770927408060,797,16.729999542236328,-1125.3616583668747,0.14999,16,0.0,0.0,1575420030,,,,0,0.0,1,6.0,16.729999542236328,0.0,0.0,0.0,66.7128,C,,
Raw,1730969752999,1094643000000,18,97.22651411739122,-1415003876356999936,0.0,97.22651411739122,-3639.7600106436716,0.0,0,3,0.0,16431,377770929298282,487,24.246000289916992,-670.8721667693823,0.14999,16,0.0,0.0,1575420030,,,,0,3.945611162512386,1,6.0,24.246000289916992,0.0,0.0,0.0,66.7128,C,,
Raw,1730969752999,1094643000000,18,97.22651411739122,-1415003876356999936,0.0,97.22651411739122,-3639.7600106436716,0.0,0,8,0.0,16431,377770917476383,797,7.675000190734863,-979.3916375541738,0.14999,16,0.0,0.0,1575420030,,,,0,0.0,6,6.0,7.675000190734863,0.0,0.0,37.606267968228366,66.7128,C,,
Raw,1730969752999,1094643000000,18,97.22651411739122,-1415003876356999936,0.0,97.22651411739122,-3639.7600106436716,0.0,0,7,0.0,32995,42952936395327,797,17.0,-1213.7243774029428,0.14999,16,0.0,0.0,1604812540,,,,0,0.0,3,6.0,17.0,0.0,0.0,128.32736910479724,66.7128,C,,
Raw,1730969752999,1094643000000,18,97.22651411739122,-1415003876356999936,0.0,97.22651411739122,-3639.7600106436716,0.0,0,11,0.0,32995,42952928575610,396,23.0,-1247.1741475833444,0.14999,16,0.0,0.0,1602000000,,,,0,3.3758404062836367,3,6.0,23.0,0.0,0.0,128.32736910479724,66.7128,C,,
Raw,1730969752999,1094643000000,18,97.22651411739122,-1415003876356999936,0.0,97.22651411739122,-3639.7600106436716,0.0,0,10,0.0,17,567375,1797,13.699999809265137,-1228.581787109375,0.14999,16,0.0,0.0,1561097980,,,,0,0.0,5,6.0,13.699999809265137,0.0,0.0,159.97267621611087,66.7128,I,,
Raw,1730969752999,1094643000000,18,97.22651411739122,-1415003876356999936,0.0,97.22651411739122,-3639.7600106436716,0.0,0,9,0.0,17,323360,487,20.399999618530273,-1146.423583984375,0.14999,16,0.0,0.0,1561097980,,,,0,0.0,5,6.0,20.399999618530273,0.0,0.0,159.97267621611087,66.7128,I,,
Raw,1730969753999,1095643000000,18,98.38555976800345,-1415003876356999936,0.0,98.38555976800345,-3642.1272856224036,0.0,0,8,0.0,16431,377771929368386,316,25.610000610351562,-1441.0037618577362,0.14999,16,0.0,0.0,1575420030,,,,0,5.874615138449634,1,6.0,25.610000610351562,0.0,0.0,0.0,66.7128,C,,
Raw,1730969753999,1095643000000,18,98.38555976800345,-1415003876356999936,0.0,98.38555976800345,-3642.1272856224036,0.0,0,7,0.0,16431,377771920570478,316,26.06399917602539,-1206.5323165006084,0.14999,16,0.0,0.0,1575420030,,,,0,6.478785502563862,1,6.0,26.06399917602539,0.0,0.0,0.0,66.7128,C,,
Raw,1730969753999,1095643000000,18,98.38555976800345,-1415003876356999936,0.0,98.38555976800345,-3642.1272856224036,0.0,0,4,0.0,16431,377771931190860,487,17.510000228881836,-1399.1041241962732,0.14999,16,0.0,0.0,1575420030,,,,0,0.0,1,6.0,17.510000228881836,0.0,0.0,0.0,66.7128,C,,
Raw,1730969753999,1095643000000,18,98.38555976800345,-1415003876356999936,0.0,98.38555976800345,-3642.1272856224036,0.0,0,27,0.0,16431,377771927411836,797,18.042999267578125,-1126.0657821229615,0.14999,16,0.0,0.0,1575420030,,,,0,0.0,1,6.0,18.042999267578125,0.0,0.0,0.0,66.7128,C,,
Raw,1730969753999,1095643000000,18,98.38555976800345,-1415003876356999936,0.0,98.38555976800345,-3642.1272856224036,0.0,0,7,0.0,17,608606,487,18.799999237060547,-1213.45751953125,0.14999,16,0.0,0.0,1561097980,,,,0,0.0,5,6.0,18.799999237060547,0.0,0.0,159.97267621611087,66.7128,I,,
Raw,1730969753999,1095643000000,18,98.38555976800345,-1415003876356999936,0.0,98.38555976800345,-3642.1272856224036,0.0,0,3,0.0,16431,377771929300485,487,21.048999786376953,-670.2007497383076,0.14999,16,0.0,0.0,1575420030,,,,0,0.0,1,6.0,21.048999786376953,0.0,0.0,0.0,66.7128,C,,
Raw,1730969753999,1095643000000,18,98.38555976800345,-1415003876356999936,0.0,98.38555976800345,-3642.1272856224036,0.0,0,8,0.0,16431,377771917479651,1797,7.741000175476074,-980.1411047244823,0.14999,16,0.0,0.0,1575420030,,,,0,0.0,6,6.0,7.741000175476074,0.0,0.0,38.62940087995443,66.7128,C,,
Raw,1730969753999,1095643000000,18,98.38555976800345,-1415003876356999936,0.0,98.38555976800345,-3642.1272856224036,0.0,0,7,0.0,32995,42953936399378,487,18.0,-1214.034417323379,0.14999,16,0.0,0.0,1604812540,,,,0,0.0,3,6.0,18.0,0.0,0.0,126.71884301469504,66.7128,C,,
Raw,1730969753999,1095643000000,18,98.38555976800345,-1415003876356999936,0.0,98.38555976800345,-3642.1272856224036,0.0,0,11,0.0,32995,42953928579767,396,21.0,-1246.5688784002334,0.14999,16,0.0,0.0,1602000000,,,,0,0.0,3,6.0,21.0,0.0,0.0,126.71884301469504,66.7128,C,,
Raw,1730969753999,1095643000000,18,98.38555976800345,-1415003876356999936,0.0,98.38555976800345,-3642.1272856224036,0.0,0,10,0.0,17,571490,797,14.600000381469727,-1229.1617431640625,0.14999,16,0.0,0.0,1561097980,,,,0,0.0,5,6.0,14.600000381469727,0.0,0.0,159.97267621611087,66.7128,I,,
Raw,1730969753999,1095643000000,18,98.38555976800345,-1415003876356999936,0.0,98.38555976800345,-3642.1272856224036,0.0,0,9,0.0,17,327198,797,16.700000762939453,-1147.153564453125,0.14999,16,0.0,0.0,1561097980,,,,0,0.0,5,6.0,16.700000762939453,0.0,0.0,159.97267621611087,66.7128,I,,
Raw,1730969754999,1096643000000,18,95.91959751225409,-1415003876356999936,0.0,95.91959751225409,-3643.731062097871,0.0,0,8,0.0,16431,377772929373194,487,25.459999084472656,-1442.0466603848304,0.14999,16,0.0,0.0,1575420030,,,,0,5.650931799399361,1,6.0,25.459999084472656,0.0,0.0,0.0,66.7128,C,,
Raw,1730969754999,1096643000000,18,95.91959751225409,-1415003876356999936,0.0,95.91959751225409,-3643.731062097871,0.0,0,7,0.0,16431,377772920574537,235,27.81800079345703,-1206.7733427639087,0.14999,16,0.0,0.0,1575420030,,,,0,8.812934954561879,1,6.0,27.81800079345703,0.0,0.0,0.0,66.7128,C,,
Raw,1730969754999,1096643000000,18,95.91959751225409,-1415003876356999936,0.0,95.91959751225409,-3643.731062097871,0.0,0,4,0.0,16431,377772931195532,797,17.59000015258789,-1399.1435209332199,0.14999,16,0.0,0.0,1575420030,,,,0,0.0,1,6.0,17.59000015258789,0.0,0.0,0.0,66.7128,C,,
Raw,1730969754999,1096643000000,18,95.91959751225409,-1415003876356999936,0.0,95.91959751225409,-3643.731062097871,0.0,0,7,0.0,17,612653,487,18.100000381469727,-1212.255615234375,0.14999,16,0.0,0.0,1561097980,,,,0,0.0,5,6.0,18.100000381469727,0.0,0.0,159.97267621611087,66.7128,I,,
Raw,1730969754999,1096643000000,18,95.91959751225409,-1415003876356999936,0.0,95.91959751225409,-3643.731062097871,0.0,0,3,0.0,16431,377772929302725,396,24.304000854492188,-671.6714373618684,0.14999,16,0.0,0.0,1575420030,,,,0,4.0370424240020535,1,6.0,24.304000854492188,0.0,0.0,0.0,66.7128,C,,
Raw,1730969754999,1096643000000,18,95.91959751225409,-1415003876356999936,0.0,95.91959751225409,-3643.731062097871,0.0,0,8,0.0,16431,377772917482922,1797,7.802999973297119,-980.6490810473283,0.14999,16,0.0,0.0,1575420030,,,,0,0.0,6,6.0,7.802999973297119,0.0,0.0,39.5166571484103,66.7128,C,,
Raw,1730969754999,1096643000000,18,95.91959751225409,-1415003876356999936,0.0,95.91959751225409,-3643.731062097871,0.0,0,7,0.0,32995,42954936403432,487,18.0,-1214.0010326187955,0.14999,16,0.0,0.0,1604812540,,,,0,0.0,3,6.0,18.0,0.0,0.0,126.07044512376063,66.7128,C,,
Raw,1730969754999,1096643000000,18,95.91959751225409,-1415003876356999936,0.0,95.91959751225409,-3643.731062097871,0.0,0,11,0.0,32995,42954928583930,316,25.0,-1247.8877877282864,0.14999,16,0.0,0.0,1602000000,,,,0,5.911341999249581,3,6.0,25.0,0.0,0.0,126.07044512376063,66.7128,C,,
Raw,1730969754999,1096643000000,18,95.91959751225409,-1415003876356999936,0.0,95.91959751225409,-3643.731062097871,0.0,0,10,0.0,17,575590,797,14.600000381469727,-1229.0523681640625,0.14999,16,0.0,0.0,1561097980,,,,0,0.0,5,6.0,14.600000381469727,0.0,0.0,159.97267621611087,66.7128,I,,
Raw,1730969754999,1096643000000,18,95.91959751225409,-1415003876356999936,0.0,95.91959751225409,-3643.731062097871,0.0,0,9,0.0,17,331022,487,14.300000190734863,-1148.44580078125,0.14999,16,0.0,0.0,1561097980,,,,0,0.0,5,6.0,14.300000190734863,0.0,0.0,159.97267621611087,66.7128,I,,
Raw,1730969755999,1097643000000,18,98.54748488906074,-1415003876356999936,0.0,98.54748488906074,-3645.340637061395,0.0,0,8,0.0,16431,377773929378011,797,25.459999084472656,-1444.6827109206165,0.14999,16,0.0,0.0,1575420030,,,,0,5.650931799399361,1,6.0,25.459999084472656,0.0,0.0,0.0,66.7128,C,,
Raw,1730969755999,1097643000000,18,98.54748488906074,-1415003876356999936,0.0,98.54748488906074,-3645.340637061395,0.0,0,7,0.0,16431,377773920578563,316,25.756999969482422,-1206.867839182481,0.14999,16,0.0,0.0,1575420030,,,,0,6.056715930544872,1,6.0,25.756999969482422,0.0,0.0,0.0,66.7128,C,,
Raw,1730969755999,1097643000000,18,98.54748488906074,-1415003876356999936,0.0,98.54748488906074,-3645.340637061395,0.0,0,4,0.0,16431,377773931200180,797,17.6299991607666,-1399.4102851591008,0.14999,16,0.0,0.0,1575420030,,,,0,0.0,1,6.0,17.6299991607666,0.0,0.0,0.0,66.7128,C,,
Raw,1730969755999,1097643000000,18,98.54748488906074,-1415003876356999936,0.0,98.54748488906074,-3645.340637061395,0.0,0,7,0.0,17,616698,487,18.899999618530273,-1212.7742919921875,0.14999,16,0.0,0.0,1561097980,,,,0,0.0,5,6.0,18.899999618530273,0.0,0.0,159.97267621611087,66.7128,I,,
Raw,1730969755999,1097643000000,18,98.54748488906074,-1415003876356999936,0.0,98.54748488906074,-3645.340637061395,0.0,0,16,0.0,16431,377773925305922,797,17.426000595092773,-463.81151218538554,0.14999,16,0.0,0.0,1575420030,,,,0,0.0,1,6.0,17.426000595092773,0.0,0.0,0.0,66.7128,C,,
Raw,1730969755999,1097643000000,18,98.54748488906074,-1415003876356999936,0.0,98.54748488906074,-3645.340637061395,0.0,0,3,0.0,16431,377773929304956,487,24.218000411987305,-672.8111087699291,0.14999,16,0.0,0.0,1575420030,,,,0,1.4621419667086333,1,6.0,24.218000411987305,0.0,0.0,0.0,66.7128,C,,
Raw,1730969755999,1097643000000,18,98.54748488906074,-1415003876356999936,0.0,98.54748488906074,-3645.340637061395,0.0,0,8,0.0,16431,377773917486367,797,12.100000381469727,-981.3364797735794,0.14999,16,0.0,0.0,1575420030,,,,0,0.0,6,6.0,12.100000381469727,0.0,0.0,38.93698511581351,66.7128,C,,
Raw,1730969755999,1097643000000,18,98.54748488906074,-1415003876356999936,0.0,98.54748488906074,-3645.340637061395,0.0,0,7,0.0,32995,42955936407475,487,20.0,-1214.120433105954,0.14999,16,0.0,0.0,1604812540,,,,0,0.0,3,6.0,20.0,0.0,0.0,125.59621652292762,66.7128,C,,
Raw,1730969755999,1097643000000,18,98.54748488906074,-1415003876356999936,0.0,98.54748488906074,-3645.340637061395,0.0,0,11,0.0,32995,42955928588088,396,23.0,-1247.81459621022,0.14999,16,0.0,0.0,1602000000,,,,0,4.014274679280265,3,6.0,23.0,0.0,0.0,125.59621652292762,66.7128,C,,
Raw,1730969755999,1097643000000,18,98.54748488906074,-1415003876356999936,0.0,98.54748488906074,-3645.340637061395,0.0,0,10,0.0,17,579699,487,16.600000381469727,-1228.9544677734375,0.14999,16,0.0,0.0,1561097980,,,,0,0.0,5,6.0,16.600000381469727,0.0,0.0,159.97267621611087,66.7128,I,,
Raw,1730969755999,1097643000000,18,98.54748488906074,-1415003876356999936,0.0,98.54748488906074,-3645.340637061395,0.0,0,9,0.0,17,334844,487,18.200000762939453,-1149.5682373046875,0.14999,16,0.0,0.0,1561097980,,,,0,0.0,5,6.0,18.200000762939453,0.0,0.0,159.97267621611087,66.7128,I,,
Raw,1730969756999,1098643000000,18,108.40891626457868,-1415003876356999936,0.0,108.40891626457868,-3644.196699183682,0.0,0,8,0.0,16431,377774929382857,1797,12.699999809265137,-1445.8169466939805,0.14999,16,0.0,0.0,1575420030,,,,0,0.0,1,6.0,12.699999809265137,0.0,0.0,0.0,66.7128,C,,
Raw,1730969756999,1098643000000,18,108.40891626457868,-1415003876356999936,0.0,108.40891626457868,-3644.196699183682,0.0,0,7,0.0,16431,377774920582592,316,25.020999908447266,-1206.7419368745504,0.14999,16,0.0,0.0,1575420030,,,,0,5.06514427735961,1,6.0,25.020999908447266,0.0,0.0,0.0,66.7128,C,,
Raw,1730969756999,1098643000000,18,108.40891626457868,-1415003876356999936,0.0,108.40891626457868,-3644.196699183682,0.0,0,4,0.0,16431,377774931204844,797,17.667999267578125,-1397.2973563898454,0.14999,16,0.0,0.0,1575420030,,,,0,0.0,1,6.0,17.667999267578125,0.0,0.0,0.0,66.7128,C,,
Raw,1730969756999,1098643000000,18,108.40891626457868,-1415003876356999936,0.0,108.40891626457868,-3644.196699183682,0.0,0,7,0.0,17,620742,797,16.600000381469727,-1213.2493896484375,0.14999,16,0.0,0.0,1561097980,,,,0,0.0,5,6.0,16.600000381469727,0.0,0.0,159.97267621611087,66.7128,I,,
Raw,1730969756999,1098643000000,18,108.40891626457868,-1415003876356999936,0.0,108.40891626457868,-3644.196699183682,0.0,0,9,0.0,16431,377774926546455,235,29.152999877929688,-1623.298503303468,0.14999,16,0.0,0.0,1575420030,,,,0,10.500896140736904,1,6.0,29.152999877929688,0.0,0.0,0.0,66.7128,C,,
Raw,1730969756999,1098643000000,18,108.40891626457868,-1415003876356999936,0.0,108.40891626457868,-3644.196699183682,0.0,0,16,0.0,16431,377774925307464,797,17.426000595092773,-462.9195570525594,0.14999,16,0.0,0.0,1575420030,,,,0,0.0,1,6.0,17.426000595092773,0.0,0.0,0.0,66.7128,C,,
Raw,1730969756999,1098643000000,18,108.40891626457868,-1415003876356999936,0.0,108.40891626457868,-3644.196699183682,0.0,0,3,0.0,16431,377774929307172,316,24.341999053955078,-671.9559487027417,0.14999,16,0.0,0.0,1575420030,,,,0,7.359535705891888,1,6.0,24.341999053955078,0.0,0.0,0.0,66.7128,C,,
Raw,1730969756999,1098643000000,18,108.40891626457868,-1415003876356999936,0.0,108.40891626457868,-3644.196699183682,0.0,0,8,0.0,16431,377774917489640,1797,12.100000381469727,-980.9031156671675,0.14999,16,0.0,0.0,1575420030,,,,0,0.0,6,6.0,12.100000381469727,0.0,0.0,37.6760631933833,66.7128,C,,
Raw,1730969756999,1098643000000,18,108.40891626457868,-1415003876356999936,0.0,108.40891626457868,-3644.196699183682,0.0,0,7,0.0,32995,42956936411435,487,18.0,-1214.569849607275,0.14999,16,0.0,0.0,1604812540,,,,0,0.0,3,6.0,18.0,0.0,0.0,128.35703631792782,66.7128,C,,
Raw,1730969756999,1098643000000,18,108.40891626457868,-1415003876356999936,0.0,108.40891626457868,-3644.196699183682,0.0,0,8,0.0,32995,42956928417373,396,22.0,-1782.4891455597503,0.14999,16,0.0,0.0,1605374980,,,,0,2.18932099904185,3,6.0,22.0,0.0,0.0,128.35703631792782,66.7128,C,,
Raw,1730969756999,1098643000000,18,108.40891626457868,-1415003876356999936,0.0,108.40891626457868,-3644.196699183682,0.0,0,11,0.0,32995,42956928592245,797,22.0,-1245.3150281993505,0.14999,16,0.0,0.0,1602000000,,,,0,3.3776577281101345,3,6.0,22.0,0.0,0.0,128.35703631792782,66.7128,C,,
Raw,1730969756999,1098643000000,18,108.40891626457868,-1415003876356999936,0.0,108.40891626457868,-3644.196699183682,0.0,0,10,0.0,17,583807,797,16.670000076293945,-1228.3656005859375,0.14999,16,0.0,0.0,1561097980,,,,0,0.0,5,6.0,16.670000076293945,0.0,0.0,159.97267621611087,66.7128,I,,
Raw,1730969756999,1098643000000,18,108.40891626457868,-1415003876356999936,0.0,108.40891626457868,-3644.196699183682,0.0,0,9,0.0,17,338673,797,17.200000762939453,-1146.85986328125,0.14999,16,0.0,0.0,1561097980,,,,0,0.0,5,6.0,17.200000762939453,0.0,0.0,159.97267621611087,66.7128,I,,
Raw,1730969757999,1099643000000,18,107.88877849604631,-1415003876356999936,0.0,107.88877849604631,-3645.1900615787567,0.0,0,8,0.0,16431,377775929387678,1837,12.699999809265137,-1442.1890089720996,0.14999,16,0.0,0.0,1575420030,,,,0,0.0,1,6.0,12.699999809265137,0.0,0.0,0.0,66.7128,C,,
Raw,1730969757999,1099643000000,18,107.88877849604631,-1415003876356999936,0.0,107.88877849604631,-3645.1900615787567,0.0,0,7,0.0,16431,377775920586622,487,23.701000213623047,-1208.0297641719064,0.14999,16,0.0,0.0,1575420030,,,,0,3.1269440171984817,1,6.0,23.701000213623047,0.0,0.0,0.0,66.7128,C,,
Raw,1730969757999,1099643000000,18,107.88877849604631,-1415003876356999936,0.0,107.88877849604631,-3645.1900615787567,0.0,0,4,0.0,16431,377775931209522,487,17.768999099731445,-1397.6050040219916,0.14999,16,0.0,0.0,1575420030,,,,0,0.0,1,6.0,17.768999099731445,0.0,0.0,0.0,66.7128,C,,
Raw,1730969757999,1099643000000,18,107.88877849604631,-1415003876356999936,0.0,107.88877849604631,-3645.1900615787567,0.0,0,7,0.0,17,624784,797,16.600000381469727,-1211.1680908203125,0.14999,16,0.0,0.0,1561097980,,,,0,0.0,5,6.0,16.600000381469727,0.0,0.0,159.97267621611087,66.7128,I,,
Raw,1730969757999,1099643000000,18,107.88877849604631,-1415003876356999936,0.0,107.88877849604631,-3645.1900615787567,0.0,0,18,0.0,16431,377775907808920,797,13.399999618530273,-1207.3848284380717,0.14999,16,0.0,0.0,1575420030,,,,0,0.0,6,6.0,13.399999618530273,0.0,0.0,36.79249664012747,66.7128,C,,
Raw,1730969757999,1099643000000,18,107.88877849604631,-1415003876356999936,0.0,107.88877849604631,-3645.1900615787567,0.0,0,9,0.0,16431,377775926551876,235,27.111000061035156,-1623.9334969362335,0.14999,16,0.0,0.0,1575420030,,,,0,7.900700360572608,1,6.0,27.111000061035156,0.0,0.0,0.0,66.7128,C,,
Raw,1730969757999,1099643000000,18,107.88877849604631,-1415003876356999936,0.0,107.88877849604631,-3645.1900615787567,0.0,0,16,0.0,16431,377775925309043,487,19.23900032043457,-462.80689539324885,0.14999,16,0.0,0.0,1575420030,,,,0,0.0,1,6.0,19.23900032043457,0.0,0.0,0.0,66.7128,C,,
Raw,1730969757999,1099643000000,18,107.88877849604631,-1415003876356999936,0.0,107.88877849604631,-3645.1900615787567,0.0,0,3,0.0,16431,377775929309414,487,24.381000518798828,-671.982476458398,0.14999,16,0.0,0.0,1575420030,,,,0,5.1855049511396,1,6.0,24.381000518798828,0.0,0.0,0.0,66.7128,C,,
Raw,1730969757999,1099643000000,18,107.88877849604631,-1415003876356999936,0.0,107.88877849604631,-3645.1900615787567,0.0,0,8,0.0,16431,377775917492912,1837,12.100000381469727,-981.2006353645799,0.14999,16,0.0,0.0,1575420030,,,,0,0.0,6,6.0,12.100000381469727,0.0,0.0,36.79249664012747,66.7128,C,,
Raw,1730969757999,1099643000000,18,107.88877849604631,-1415003876356999936,0.0,107.88877849604631,-3645.1900615787567,0.0,0,7,0.0,32995,42957936415488,1797,14.0,-1216.4505212988192,0.14999,16,0.0,0.0,1604812540,,,,0,0.0,3,6.0,14.0,0.0,0.0,129.71941819190945,66.7128,C,,
Raw,1730969757999,1099643000000,18,107.88877849604631,-1415003876356999936,0.0,107.88877849604631,-3645.1900615787567,0.0,0,8,0.0,32995,42957928423404,316,25.0,-1782.6332148252427,0.14999,16,0.0,0.0,1605374980,,,,0,6.190362117790001,3,6.0,25.0,0.0,0.0,129.71941819190945,66.7128,C,,
Raw,1730969757999,1099643000000,18,107.88877849604631,-1415003876356999936,0.0,107.88877849604631,-3645.1900615787567,0.0,0,11,0.0,32995,42957928596402,1797,25.100000381469727,-1246.9193022102017,0.14999,16,0.0,0.0,1602000000,,,,0,3.3776577281101345,3,6.0,25.100000381469727,0.0,0.0,129.71941819190945,66.7128,C,,
Raw,1730969758999,1100643000000,18,108.62972382622317,-1415003876356999936,0.0,108.62972382622317,-3648.2507265279296,0.0,0,8,0.0,16431,377776929392487,797,12.699999809265137,-1441.609207937792,0.14999,16,0.0,0.0,1575420030,,,,0,0.0,1,6.0,12.699999809265137,0.0,0.0,0.0,66.7128,C,,
Raw,1730969758999,1100643000000,18,108.62972382622317,-1415003876356999936,0.0,108.62972382622317,-3648.2507265279296,0.0,0,7,0.0,16431,377776920590654,487,20.482999801635742,-1209.2074850228437,0.14999,16,0.0,0.0,1575420030,,,,0,0.0,1,6.0,20.482999801635742,0.0,0.0,0.0,66.7128,C,,
Raw,1730969758999,1100643000000,18,108.62972382622317,-1415003876356999936,0.0,108.62972382622317,-3648.2507265279296,0.0,0,4,0.0,16431,377776931214187,797,17.864999771118164,-1400.0397037819212,0.14999,16,0.0,0.0,1575420030,,,,0,0.0,1,6.0,17.864999771118164,0.0,0.0,0.0,66.7128,C,,
Raw,1730969758999,1100643000000,18,108.62972382622317,-1415003876356999936,0.0,108.62972382622317,-3648.2507265279296,0.0,0,27,0.0,16431,377776927430541,1797,14.800000190734863,-1126.5653959308897,0.14999,16,0.0,0.0,1575420030,,,,0,0.0,1,6.0,14.800000190734863,0.0,0.0,0.0,66.7128,C,,
Raw,1730969758999,1100643000000,18,108.62972382622317,-1415003876356999936,0.0,108.62972382622317,-3648.2507265279296,0.0,0,7,0.0,17,628825,797,16.5,-1211.9288330078125,0.14999,16,0.0,0.0,1561097980,,,,0,0.0,5,6.0,16.5,0.0,0.0,159.97267621611087,66.7128,I,,
Raw,1730969758999,1100643000000,18,108.62972382622317,-1415003876356999936,0.0,108.62972382622317,-3648.2507265279296,0.0,0,18,0.0,16431,377776907812947,1797,13.399999618530273,-1207.816055457338,0.14999,16,0.0,0.0,1575420030,,,,0,0.0,6,6.0,13.399999618530273,0.0,0.0,35.89874839804625,66.7128,C,,
Raw,1730969758999,1100643000000,18,108.62972382622317,-1415003876356999936,0.0,108.62972382622317,-3648.2507265279296,0.0,0,9,0.0,16431,377776926557298,74,30.07900047302246,-1624.9355120570624,0.14999,16,0.0,0.0,1575420030,,,,0,11.633684639124889,1,6.0,30.07900047302246,0.0,0.0,0.0,66.7128,C,,
Raw,1730969758999,1100643000000,18,108.62972382622317,-1415003876356999936,0.0,108.62972382622317,-3648.2507265279296,0.0,0,16,0.0,16431,377776925310576,487,19.32200050354004,-465.1595495901505,0.14999,16,0.0,0.0,1575420030,,,,0,0.0,1,6.0,19.32200050354004,0.0,0.0,0.0,66.7128,C,,
Raw,1730969758999,1100643000000,18,108.62972382622317,-1415003876356999936,0.0,108.62972382622317,-3648.2507265279296,0.0,0,3,0.0,16431,377776929311656,487,21.614999771118164,-674.2705069983508,0.14999,16,0.0,0.0,1575420030,,,,0,0.0,1,6.0,21.614999771118164,0.0,0.0,0.0,66.7128,C,,
Raw,1730969758999,1100643000000,18,108.62972382622317,-1415003876356999936,0.0,108.62972382622317,-3648.2507265279296,0.0,0,8,0.0,16431,377776917496186,1837,12.100000381469727,-982.3889487344129,0.14999,16,0.0,0.0,1575420030,,,,0,0.0,6,6.0,12.100000381469727,0.0,0.0,35.89874839804625,66.7128,C,,
Raw,1730969758999,1100643000000,18,108.62972382622317,-1415003876356999936,0.0,108.62972382622317,-3648.2507265279296,0.0,0,7,0.0,32995,42958936419549,1797,14.0,-1215.720436119892,0.14999,16,0.0,0.0,1604812540,,,,0,0.0,3,6.0,14.0,0.0,0.0,130.9536924302803,66.7128,C,,
Raw,1730969758999,1100643000000,18,108.62972382622317,-1415003876356999936,0.0,108.62972382622317,-3648.2507265279296,0.0,0,8,0.0,32995,42958928429359,316,24.0,-1783.9692293049861,0.14999,16,0.0,0.0,1605374980,,,,0,5.327770200175346,3,6.0,24.0,0.0,0.0,130.9536924302803,66.7128,C,,
Raw,1730969758999,1100643000000,18,108.62972382622317,-1415003876356999936,0.0,108.62972382622317,-3648.2507265279296,0.0,0,11,0.0,32995,42958928600579,1797,24.399999618530273,-1251.4372565413819,0.14999,16,0.0,0.0,1602000000,,,,0,0.0,3,6.0,24.399999618530273,0.0,0.0,130.9536924302803,66.7128,C,,
Raw,1730969759999,1101643000000,18,111.79254115679885,-1415003876356999936,0.0,111.79254115679885,-3651.0778466269767,0.0,0,8,0.0,16431,377777929397276,797,14.800000190734863,-1444.3544357516728,0.14999,16,0.0,0.0,1575420030,,,,0,0.0,1,6.0,14.800000190734863,0.0,0.0,0.0,66.7128,C,,
Raw,1730969759999,1101643000000,18,111.79254115679885,-1415003876356999936,0.0,111.79254115679885,-3651.0778466269767,0.0,0,7,0.0,16431,377777920594689,797,19.812000274658203,-1210.8666079825543,0.14999,16,0.0,0.0,1575420030,,,,0,0.0,1,6.0,19.812000274658203,0.0,0.0,0.0,66.7128,C,,
Raw,1730969759999,1101643000000,18,111.79254115679885,-1415003876356999936,0.0,111.79254115679885,-3651.0778466269767,0.0,0,4,0.0,16431,377777931218861,797,17.95599937438965,-1403.3072171108406,0.14999,16,0.0,0.0,1575420030,,,,0,0.0,1,6.0,17.95599937438965,0.0,0.0,0.0,66.7128,C,,
Raw,1730969759999,1101643000000,18,111.79254115679885,-1415003876356999936,0.0,111.79254115679885,-3651.0778466269767,0.0,0,27,0.0,16431,377777927434327,396,21.656999588012695,-1127.2082874944113,0.14999,16,0.0,0.0,1575420030,,,,0,0.0,1,6.0,21.656999588012695,0.0,0.0,0.0,66.7128,C,,
Raw,1730969759999,1101643000000,18,111.79254115679885,-1415003876356999936,0.0,111.79254115679885,-3651.0778466269767,0.0,0,7,0.0,17,632875,487,16.56999969482422,-1215.2216796875,0.14999,16,0.0,0.0,1561097980,,,,0,0.0,5,6.0,16.56999969482422,0.0,0.0,159.97267621611087,66.7128,I,,
Raw,1730969759999,1101643000000,18,111.79254115679885,-1415003876356999936,0.0,111.79254115679885,-3651.0778466269767,0.0,0,9,0.0,16431,377777926562724,74,30.07900047302246,-1625.3309660958466,0.14999,16,0.0,0.0,1575420030,,,,0,11.633684639124889,1,6.0,30.07900047302246,0.0,0.0,0.0,66.7128,C,,
Raw,1730969759999,1101643000000,18,111.79254115679885,-1415003876356999936,0.0,111.79254115679885,-3651.0778466269767,0.0,0,16,0.0,16431,377777925312132,797,19.400999069213867,-467.51917254948376,0.14999,16,0.0,0.0,1575420030,,,,0,0.0,1,6.0,19.400999069213867,0.0,0.0,0.0,66.7128,C,,
Raw,1730969759999,1101643000000,18,111.79254115679885,-1415003876356999936,0.0,111.79254115679885,-3651.0778466269767,0.0,0,3,0.0,16431,377777929313905,396,21.582000732421875,-673.8762144199719,0.14999,16,0.0,0.0,1575420030,,,,0,0.0,1,6.0,21.582000732421875,0.0,0.0,0.0,66.7128,C,,
Raw,1730969759999,1101643000000,18,111.79254115679885,-1415003876356999936,0.0,111.79254115679885,-3651.0778466269767,0.0,0,8,0.0,16431,377777917499446,1797,12.104999542236328,-983.0288669592969,0.14999,16,0.0,0.0,1575420030,,,,0,0.0,6,6.0,12.104999542236328,0.0,0.0,34.94759135602894,66.7128,C,,
Raw,1730969759999,1101643000000,18,111.79254115679885,-1415003876356999936,0.0,111.79254115679885,-3651.0778466269767,0.0,0,7,0.0,32995,42959936423662,797,17.0,-1215.3291235989527,0.14999,16,0.0,0.0,1604812540,,,,0,0.0,3,6.0,17.0,0.0,0.0,130.4862786559282,66.7128,C,,
Raw,1730969759999,1101643000000,18,111.79254115679885,-1415003876356999936,0.0,111.79254115679885,-3651.0778466269767,0.0,0,8,0.0,32995,42959928435317,235,27.0,-1784.0481938517687,0.14999,16,0.0,0.0,1605374980,,,,0,7.958800173440752,3,6.0,27.0,0.0,0.0,130.4862786559282,66.7128,C,,
Raw,1730969759999,1101643000000,18,111.79254115679885,-1415003876356999936,0.0,111.79254115679885,-3651.0778466269767,0.0,0,11,0.0,32995,42959928604756,1797,26.5,-1253.5777201003152,0.14999,16,0.0,0.0,1602000000,,,,0,0.0,3,6.0,26.5,0.0,0.0,130.4862786559282,66.7128,C,,
Raw,1730969759999,1101643000000,18,111.79254115679885,-1415003876356999936,0.0,111.79254115679885,-3651.0778466269767,0.0,0,9,0.0,17,350151,487,18.600000381469727,-1149.29736328125,0.14999,16,0.0,0.0,1561097980,,,,0,0.0,5,6.0,18.600000381469727,0.0,0.0,159.97267621611087,66.7128,I,,
Raw,1730969760999,1102643000000,18,112.12330078092073,-1415003876356999936,0.0,112.12330078092073,-3652.229864131934,0.0,0,8,0.0,16431,377778929402087,487,20.235000610351562,-1442.4559590316453,0.14999,16,0.0,0.0,1575420030,,,,0,0.0,1,6.0,20.235000610351562,0.0,0.0,0.0,66.7128,C,,
Raw,1730969760999,1102643000000,18,112.12330078092073,-1415003876356999936,0.0,112.12330078092073,-3652.229864131934,0.0,0,7,0.0,16431,377778920598724,797,18.53499984741211,-1209.75615891829,0.14999,16,0.0,0.0,1575420030,,,,0,0.0,1,6.0,18.53499984741211,0.0,0.0,0.0,66.7128,C,,
Raw,1730969760999,1102643000000,18,112.12330078092073,-1415003876356999936,0.0,112.12330078092073,-3652.229864131934,0.0,0,4,0.0,16431,377778931223540,1797,11.800000190734863,-1403.2430115796378,0.14999,16,0.0,0.0,1575420030,,,,0,0.0,1,6.0,11.800000190734863,0.0,0.0,0.0,66.7128,C,,
Raw,1730969760999,1102643000000,18,112.12330078092073,-1415003876356999936,0.0,112.12330078092073,-3652.229864131934,0.0,0,27,0.0,16431,377778927438122,316,28.131000518798828,-1127.5903615093266,0.14999,16,0.0,0.0,1575420030,,,,0,9.222964574864978,1,6.0,28.131000518798828,0.0,0.0,0.0,66.7128,C,,
Raw,1730969760999,1102643000000,18,112.12330078092073,-1415003876356999936,0.0,112.12330078092073,-3652.229864131934,0.0,0,7,0.0,17,636929,797,16.535999298095703,-1215.55224609375,0.14999,16,0.0,0.0,1561097980,,,,0,0.0,5,6.0,16.535999298095703,0.0,0.0,159.97267621611087,66.7128,I,,
Raw,1730969760999,1102643000000,18,112.12330078092073,-1415003876356999936,0.0,112.12330078092073,-3652.229864131934,0.0,0,9,0.0,16431,377778926568148,396,25.68400001525879,-1626.2809477905196,0.14999,16,0.0,0.0,1575420030,,,,0,5.984333098010257,1,6.0,25.68400001525879,0.0,0.0,0.0,66.7128,C,,
Raw,1730969760999,1102643000000,18,112.12330078092073,-1415003876356999936,0.0,112.12330078092073,-3652.229864131934,0.0,0,16,0.0,16431,377778925313689,487,19.47599983215332,-465.21074676481453,0.14999,16,0.0,0.0,1575420030,,,,0,0.0,1,6.0,19.47599983215332,0.0,0.0,0.0,66.7128,C,,
Raw,1730969760999,1102643000000,18,112.12330078092073,-1415003876356999936,0.0,112.12330078092073,-3652.229864131934,0.0,0,3,0.0,16431,377778929316159,487,21.6299991607666,-675.7042601810242,0.14999,16,0.0,0.0,1575420030,,,,0,1.4007573321551017,1,6.0,21.6299991607666,0.0,0.0,0.0,66.7128,C,,
Raw,1730969760999,1102643000000,18,112.12330078092073,-1415003876356999936,0.0,112.12330078092073,-3652.229864131934,0.0,0,8,0.0,16431,377778917502726,797,12.109000205993652,-983.5704791754794,0.14999,16,0.0,0.0,1575420030,,,,0,0.0,6,6.0,12.109000205993652,0.0,0.0,34.09125046893908,66.7128,C,,
Raw,1730969760999,1102643000000,18,112.12330078092073,-1415003876356999936,0.0,112.12330078092073,-3652.229864131934,0.0,0,7,0.0,32995,42960936427717,797,17.0,-1215.2389119245452,0.14999,16,0.0,0.0,1604812540,,,,0,0.0,3,6.0,17.0,0.0,0.0,130.0851147205242,66.7128,C,,
Raw,1730969760999,1102643000000,18,112.12330078092073,-1415003876356999936,0.0,112.12330078092073,-3652.229864131934,0.0,0,8,0.0,32995,42960928441267,396,23.0,-1784.1567017162852,0.14999,16,0.0,0.0,1605374980,,,,0,8.005624489738803,3,6.0,23.0,0.0,0.0,130.0851147205242,66.7128,C,,
Raw,1730969760999,1102643000000,18,112.12330078092073,-1415003876356999936,0.0,112.12330078092073,-3652.229864131934,0.0,0,11,0.0,32995,42960928608931,797,26.600000381469727,-1249.0265052041211,0.14999,16,0.0,0.0,1602000000,,,,0,0.0,3,6.0,26.600000381469727,0.0,0.0,130.0851147205242,66.7128,C,,
Raw,1730969760999,1102643000000,18,112.12330078092073,-1415003876356999936,0.0,112.12330078092073,-3652.229864131934,0.0,0,10,0.0,17,600246,797,16.5,-1232.98583984375,0.14999,16,0.0,0.0,1561097980,,,,0,0.0,5,6.0,16.5,0.0,0.0,159.97267621611087,66.7128,I,,
Raw,1730969760999,1102643000000,18,112.12330078092073,-1415003876356999936,0.0,112.12330078092073,-3652.229864131934,0.0,0,9,0.0,17,353995,396,20.899999618530273,-1150.8563232421875,0.14999,16,0.0,0.0,1561097980,,,,0,0.5417418093796317,5,6.0,20.899999618530273,0.0,0.0,159.97267621611087,66.7128,I,,
Raw,1730969761999,1103643000000,18,111.67522163173908,-1415003876356999936,0.0,111.67522163173908,-3651.951993806596,0.0,0,8,0.0,16431,377779929406874,487,18.929000854492188,-1444.1853271166665,0.14999,16,0.0,0.0,1575420030,,,,0,0.0,1,6.0,18.929000854492188,0.0,0.0,0.0,66.7128,C,,
Raw,1730969761999,1103643000000,18,111.67522163173908,-1415003876356999936,0.0,111.67522163173908,-3651.951993806596,0.0,0,7,0.0,16431,377779920602760,1797,18.53499984741211,-1209.8494474180409,0.14999,16,0.0,0.0,1575420030,,,,0,0.0,1,6.0,18.53499984741211,0.0,0.0,0.0,66.7128,C,,
Raw,1730969761999,1103643000000,18,111.67522163173908,-1415003876356999936,0.0,111.67522163173908,-3651.951993806596,0.0,0,4,0.0,16431,377779931228211,1797,11.800000190734863,-1399.275277001593,0.14999,16,0.0,0.0,1575420030,,,,0,0.0,1,6.0,11.800000190734863,0.0,0.0,0.0,66.7128,C,,
Raw,1730969761999,1103643000000,18,111.67522163173908,-1415003876356999936,0.0,111.67522163173908,-3651.951993806596,0.0,0,27,0.0,16431,377779927441881,487,20.336000442504883,-1126.2606287205485,0.14999,16,0.0,0.0,1575420030,,,,0,0.0,1,6.0,20.336000442504883,0.0,0.0,0.0,66.7128,C,,
Raw,1730969761999,1103643000000,18,111.67522163173908,-1415003876356999936,0.0,111.67522163173908,-3651.951993806596,0.0,0,7,0.0,17,640982,797,16.503999710083008,-1214.94921875,0.14999,16,0.0,0.0,1561097980,,,,0,0.0,5,6.0,16.503999710083008,0.0,0.0,159.97267621611087,66.7128,I,,
Raw,1730969761999,1103643000000,18,111.67522163173908,-1415003876356999936,0.0,111.67522163173908,-3651.951993806596,0.0,0,9,0.0,16431,377779926573572,487,23.701000213623047,-1625.0273138874945,0.14999,16,0.0,0.0,1575420030,,,,0,3.1269440171984817,1,6.0,23.701000213623047,0.0,0.0,0.0,66.7128,C,,
Raw,1730969761999,1103643000000,18,111.67522163173908,-1415003876356999936,0.0,111.67522163173908,-3651.951993806596,0.0,0,16,0.0,16431,377779925315259,396,22.87299919128418,-465.39072666921413,0.14999,16,0.0,0.0,1575420030,,,,0,1.8801004472929845,1,6.0,22.87299919128418,0.0,0.0,0.0,66.7128,C,,
Raw,1730969761999,1103643000000,18,111.67522163173908,-1415003876356999936,0.0,111.67522163173908,-3651.951993806596,0.0,0,3,0.0,16431,377779929318406,396,21.673999786376953,-674.897463325112,0.14999,16,0.0,0.0,1575420030,,,,0,1.3389357926122645,1,6.0,21.673999786376953,0.0,0.0,0.0,66.7128,C,,
Raw,1730969761999,1103643000000,18,111.67522163173908,-1415003876356999936,0.0,111.67522163173908,-3651.951993806596,0.0,0,8,0.0,16431,377779917506006,487,12.11299991607666,-982.9160659247377,0.14999,16,0.0,0.0,1575420030,,,,0,0.0,6,6.0,12.11299991607666,0.0,0.0,9.542228098459905,66.7128,C,,
Raw,1730969761999,1103643000000,18,111.67522163173908,-1415003876356999936,0.0,111.67522163173908,-3651.951993806596,0.0,0,7,0.0,32995,42961936431763,797,17.0,-1216.1854503930267,0.14999,16,0.0,0.0,1604812540,,,,0,0.0,3,6.0,17.0,0.0,0.0,130.34139738228333,66.7128,C,,
Raw,1730969761999,1103643000000,18,111.67522163173908,-1415003876356999936,0.0,111.67522163173908,-3651.951993806596,0.0,0,8,0.0,32995,42961928447216,487,18.0,-1783.9181667805078,0.14999,16,0.0,0.0,1605374980,,,,0,1.100951326618109,3,6.0,18.0,0.0,0.0,130.34139738228333,66.7128,C,,
Raw,1730969761999,1103643000000,18,111.67522163173908,-1415003876356999936,0.0,111.67522163173908,-3651.951993806596,0.0,0,11,0.0,32995,42961928613138,797,21.299999237060547,-1248.5977728660841,0.14999,16,0.0,0.0,1602000000,,,,0,0.0,3,6.0,21.299999237060547,0.0,0.0,130.34139738228333,66.7128,C,,
Raw,1730969761999,1103643000000,18,111.67522163173908,-1415003876356999936,0.0,111.67522163173908,-3651.951993806596,0.0,0,10,0.0,17,604357,1797,16.5,-1232.29736328125,0.14999,16,0.0,0.0,1561097980,,,,0,0.0,5,6.0,16.5,0.0,0.0,159.97267621611087,66.7128,I,,
Raw,1730969761999,1103643000000,18,111.67522163173908,-1415003876356999936,0.0,111.67522163173908,-3651.951993806596,0.0,0,9,0.0,17,357816,396,21.200000762939453,-1148.6666259765625,0.14999,16,0.0,0.0,1561097980,,,,0,1.0134897549299797,5,6.0,21.200000762939453,0.0,0.0,159.97267621611087,66.7128,I,,
Raw,1730969762999,1104643000000,18,112.51574858915214,-1415003876356999936,0.0,112.51574858915214,-3653.0905863906564,0.0,0,8,0.0,16431,377780929411691,797,18.929000854492188,-1444.7401335230527,0.14999,16,0.0,0.0,1575420030,,,,0,0.0,1,6.0,18.929000854492188,0.0,0.0,0.0,66.7128,C,,
Raw,1730969762999,1104643000000,18,112.51574858915214,-1415003876356999936,0.0,112.51574858915214,-3653.0905863906564,0.0,0,7,0.0,16431,377780920606794,1797,18.53499984741211,-1207.9151048006988,0.14999,16,0.0,0.0,1575420030,,,,0,0.0,1,6.0,18.53499984741211,0.0,0.0,0.0,66.7128,C,,
Raw,1730969762999,1104643000000,18,112.51574858915214,-1415003876356999936,0.0,112.51574858915214,-3653.0905863906564,0.0,0,27,0.0,16431,377780927445642,487,21.003000259399414,-1128.0402648119095,0.14999,16,0.0,0.0,1575420030,,,,0,0.0,1,6.0,21.003000259399414,0.0,0.0,0.0,66.7128,C,,
Raw,1730969762999,1104643000000,18,112.51574858915214,-1415003876356999936,0.0,112.51574858915214,-3653.0905863906564,0.0,0,7,0.0,17,645031,797,16.503000259399414,-1213.801025390625,0.14999,16,0.0,0.0,1561097980,,,,0,0.0,5,6.0,16.503000259399414,0.0,0.0,159.97267621611087,66.7128,I,,
Raw,1730969762999,1104643000000,18,112.51574858915214,-1415003876356999936,0.0,112.51574858915214,-3653.0905863906564,0.0,0,9,0.0,16431,377780926578993,797,23.701000213623047,-1624.9024336647205,0.14999,16,0.0,0.0,1575420030,,,,0,3.1269440171984817,1,6.0,23.701000213623047,0.0,0.0,0.0,66.7128,C,,
Raw,1730969762999,1104643000000,18,112.51574858915214,-1415003876356999936,0.0,112.51574858915214,-3653.0905863906564,0.0,0,16,0.0,16431,377780925316756,316,27.106000900268555,-465.3888218741495,0.14999,16,0.0,0.0,1575420030,,,,0,7.900210476494869,1,6.0,27.106000900268555,0.0,0.0,0.0,66.7128,C,,
Raw,1730969762999,1104643000000,18,112.51574858915214,-1415003876356999936,0.0,112.51574858915214,-3653.0905863906564,0.0,0,3,0.0,16431,377780929320657,797,21.739999771118164,-673.8573987614067,0.14999,16,0.0,0.0,1575420030,,,,0,2.1102036953994787,1,6.0,21.739999771118164,0.0,0.0,0.0,66.7128,C,,
Raw,1730969762999,1104643000000,18,112.51574858915214,-1415003876356999936,0.0,112.51574858915214,-3653.0905863906564,0.0,0,8,0.0,16431,377780917509284,797,12.116999626159668,-982.9281451129525,0.14999,16,0.0,0.0,1575420030,,,,0,0.0,6,6.0,12.116999626159668,0.0,0.0,-5.321729965921773,66.7128,C,,
Raw,1730969762999,1104643000000,18,112.51574858915214,-1415003876356999936,0.0,112.51574858915214,-3653.0905863906564,0.0,0,7,0.0,32995,42962936435819,487,19.0,-1216.2572366293855,0.14999,16,0.0,0.0,1604812540,,,,0,0.0,3,6.0,19.0,0.0,0.0,130.622599471675,66.7128,C,,
Raw,1730969762999,1104643000000,18,112.51574858915214,-1415003876356999936,0.0,112.51574858915214,-3653.0905863906564,0.0,0,8,0.0,32995,42962928453175,1797,14.0,-1788.652392264283,0.14999,16,0.0,0.0,1605374980,,,,0,1.100951326618109,3,6.0,14.0,0.0,0.0,130.622599471675,66.7128,C,,
Raw,1730969762999,1104643000000,18,112.51574858915214,-1415003876356999936,0.0,112.51574858915214,-3653.0905863906564,0.0,0,11,0.0,32995,42962928617305,1797,21.299999237060547,-1250.8780404482904,0.14999,16,0.0,0.0,1602000000,,,,0,0.0,3,6.0,21.299999237060547,0.0,0.0,130.622599471675,66.7128,C,,
Raw,1730969763999,1105643000000,18,111.43548007299165,-1415003876356999936,0.0,111.43548007299165,-3654.865679049585,0.0,0,8,0.0,16431,377781929416513,797,18.929000854492188,-1446.4736828655327,0.14999,16,0.0,0.0,1575420030,,,,0,0.0,1,6.0,18.929000854492188,0.0,0.0,0.0,66.7128,C,,
Raw,1730969763999,1105643000000,18,111.43548007299165,-1415003876356999936,0.0,111.43548007299165,-3654.865679049585,0.0,0,27,0.0,16431,377781927449404,487,20.913000106811523,-1128.3464257747369,0.14999,16,0.0,0.0,1575420030,,,,0,0.0,1,6.0,20.913000106811523,0.0,0.0,0.0,66.7128,C,,
Raw,1730969763999,1105643000000,18,111.43548007299165,-1415003876356999936,0.0,111.43548007299165,-3654.865679049585,0.0,0,16,0.0,16431,377781925318318,396,24.780000686645508,-466.0047675562688,0.14999,16,0.0,0.0,1575420030,,,,0,4.745297296391145,1,6.0,24.780000686645508,0.0,0.0,0.0,66.7128,C,,
Raw,1730969763999,1105643000000,18,111.43548007299165,-1415003876356999936,0.0,111.43548007299165,-3654.865679049585,0.0,0,3,0.0,16431,377781929322903,797,21.80299949645996,-674.4660504721809,0.14999,16,0.0,0.0,1575420030,,,,0,2.1102036953994787,1,6.0,21.80299949645996,0.0,0.0,0.0,66.7128,C,,
Raw,1730969763999,1105643000000,18,111.43548007299165,-1415003876356999936,0.0,111.43548007299165,-3654.865679049585,0.0,0,8,0.0,16431,377781917512563,1797,12.121000289916992,-983.2515886066102,0.14999,16,0.0,0.0,1575420030,,,,0,0.0,6,6.0,12.121000289916992,0.0,0.0,-14.873749585640294,66.7128,C,,
Raw,1730969763999,1105643000000,18,111.43548007299165,-1415003876356999936,0.0,111.43548007299165,-3654.865679049585,0.0,0,7,0.0,32995,42963936439915,487,19.0,-1217.433636998279,0.14999,16,0.0,0.0,1604812540,,,,0,0.0,3,6.0,19.0,0.0,0.0,126.9875256741495,66.7128,C,,
Raw,1730969763999,1105643000000,18,111.43548007299165,-1415003876356999936,0.0,111.43548007299165,-3654.865679049585,0.0,0,11,0.0,32995,42963928621462,797,15.0,-1250.3588466834299,0.14999,16,0.0,0.0,1602000000,,,,0,0.0,3,6.0,15.0,0.0,0.0,126.9875256741495,66.7128,C,,
Raw,1730969764999,1106643000000,18,112.1012874643965,-1415003876356999936,0.0,112.1012874643965,-3655.250227402446,0.0,0,8,0.0,16431,377782929421337,797,14.199999809265137,-1443.4921675468051,0.14999,16,0.0,0.0,1575420030,,,,0,0.0,1,6.0,14.199999809265137,0.0,0.0,0.0,66.7128,C,,
Raw,1730969764999,1106643000000,18,112.1012874643965,-1415003876356999936,0.0,112.1012874643965,-3655.250227402446,0.0,0,27,0.0,16431,377782927453168,797,20.913000106811523,-1127.879983275983,0.14999,16,0.0,0.0,1575420030,,,,0,0.0,1,6.0,20.913000106811523,0.0,0.0,0.0,66.7128,C,,
Raw,1730969764999,1106643000000,18,112.1012874643965,-1415003876356999936,0.0,112.1012874643965,-3655.250227402446,0.0,0,16,0.0,16431,377782925319873,487,22.523000717163086,-465.7676902583465,0.14999,16,0.0,0.0,1575420030,,,,0,1.3805449243417123,1,6.0,22.523000717163086,0.0,0.0,0.0,66.7128,C,,
Raw,1730969764999,1106643000000,18,112.1012874643965,-1415003876356999936,0.0,112.1012874643965,-3655.250227402446,0.0,0,3,0.0,16431,377782929325150,797,14.800000190734863,-674.8066371214204,0.14999,16,0.0,0.0,1575420030,,,,0,0.0,1,6.0,14.800000190734863,0.0,0.0,0.0,66.7128,C,,
Raw,1730969764999,1106643000000,18,112.1012874643965,-1415003876356999936,0.0,112.1012874643965,-3655.250227402446,0.0,0,8,0.0,16431,377782917515871,797,12.163999557495117,-985.209717933052,0.14999,16,0.0,0.0,1575420030,,,,0,0.0,6,6.0,12.163999557495117,0.0,0.0,-28.545549278001058,66.7128,C,,
Raw,1730969764999,1106643000000,18,112.1012874643965,-1415003876356999936,0.0,112.1012874643965,-3655.250227402446,0.0,0,7,0.0,32995,42964936443971,797,17.0,-1216.1734100077672,0.14999,16,0.0,0.0,1604812540,,,,0,0.0,3,6.0,17.0,0.0,0.0,123.84573529073982,66.7128,C,,
Raw,1730969764999,1106643000000,18,112.1012874643965,-1415003876356999936,0.0,112.1012874643965,-3655.250227402446,0.0,0,11,0.0,32995,42964928625631,797,16.0,-1249.6648522018888,0.14999,16,0.0,0.0,1602000000,,,,0,0.0,3,6.0,16.0,0.0,0.0,123.84573529073982,66.7128,C,,
Raw,1730969765999,1107643000000,18,113.46583315076963,-1415003876356999936,0.0,113.46583315076963,-3655.2827468444466,0.0,0,8,0.0,16431,377783929426155,1797,14.199999809265137,-1444.895118799531,0.14999,16,0.0,0.0,1575420030,,,,0,0.0,1,6.0,14.199999809265137,0.0,0.0,0.0,66.7128,C,,
Raw,1730969765999,1107643000000,18,113.46583315076963,-1415003876356999936,0.0,113.46583315076963,-3655.2827468444466,0.0,0,7,0.0,16431,377783920618884,797,17.709999084472656,-1209.4371754325887,0.14999,16,0.0,0.0,1575420030,,,,0,0.0,1,6.0,17.709999084472656,0.0,0.0,0.0,66.7128,C,,
Raw,1730969765999,1107643000000,18,113.46583315076963,-1415003876356999936,0.0,113.46583315076963,-3655.2827468444466,0.0,0,4,0.0,16431,377783931246891,797,17.86400032043457,-1400.9623679278625,0.14999,16,0.0,0.0,1575420030,,,,0,0.0,1,6.0,17.86400032043457,0.0,0.0,0.0,66.7128,C,,
Raw,1730969765999,1107643000000,18,113.46583315076963,-1415003876356999936,0.0,113.46583315076963,-3655.2827468444466,0.0,0,27,0.0,16431,377783927456926,797,20.913000106811523,-1127.2382067144508,0.14999,16,0.0,0.0,1575420030,,,,0,0.0,1,6.0,20.913000106811523,0.0,0.0,0.0,66.7128,C,,
