# 
# Header Description:
# 
# Version: v3.1.0.3 Platform: 12 Manufacturer: Xiaomi Model: 22120RN86I GNSS Hardware Model Name: MTK_MNLD_default,MNL_VER_default
# 
# Raw,utcTimeMillis,TimeNanos,LeapSecond,TimeUncertaintyNanos,FullBiasNanos,BiasNanos,BiasUncertaintyNanos,DriftNanosPerSecond,DriftUncertaintyNanosPerSecond,HardwareClockDiscontinuityCount,Svid,TimeOffsetNanos,State,ReceivedSvTimeNanos,ReceivedSvTimeUncertaintyNanos,Cn0DbHz,PseudorangeRateMetersPerSecond,PseudorangeRateUncertaintyMetersPerSecond,AccumulatedDeltaRangeState,AccumulatedDeltaRangeMeters,AccumulatedDeltaRangeUncertaintyMeters,CarrierFrequencyHz,CarrierCycles,CarrierPhase,CarrierPhaseUncertainty,MultipathIndicator,SnrInDb,ConstellationType,AgcDb,BasebandCn0DbHz,FullInterSignalBiasNanos,FullInterSignalBiasUncertaintyNanos,SatelliteInterSignalBiasNanos,SatelliteInterSignalBiasUncertaintyNanos,CodeType,ChipsetElapsedRealtimeNanos,IsFullTracking
# 
# UncalAccel,utcTimeMillis,elapsedRealtimeNanos,UncalAccelXMps2,UncalAccelYMps2,UncalAccelZMps2,BiasXMps2,BiasYMps2,BiasZMps2
# 
# Accel,utcTimeMillis,elapsedRealtimeNanos,AccelXMps2,AccelYMps2,AccelZMps2
# 
# UncalGyro,utcTimeMillis,elapsedRealtimeNanos,UncalGyroXRadPerSec,UncalGyroYRadPerSec,UncalGyroZRadPerSec,DriftXRadPerSec,DriftYRadPerSec,DriftZRadPerSec
# 
# Gyro,utcTimeMillis,elapsedRealtimeNanos,GyroXRadPerSec,GyroYRadPerSec,GyroZRadPerSec
# 
# UncalMag,utcTimeMillis,elapsedRealtimeNanos,UncalMagXMicroT,UncalMagYMicroT,UncalMagZMicroT,BiasXMicroT,BiasYMicroT,BiasZMicroT
# 
# Mag,utcTimeMillis,elapsedRealtimeNanos,MagXMicroT,MagYMicroT,MagZMicroT
# 
# Pressure,utcTimeMillis,elapsedRealtimeNanos,PressureHpa
# 
# OrientationDeg,utcTimeMillis,elapsedRealtimeNanos,yawDeg,rollDeg,pitchDeg
# 
# Fix,Provider,LatitudeDegrees,LongitudeDegrees,AltitudeMeters,SpeedMps,AccuracyMeters,BearingDegrees,UnixTimeMillis,SpeedAccuracyMps,BearingAccuracyDegrees,elapsedRealtimeNanos,VerticalAccuracyMeters,MockLocation,NumberOfUsedSignals,VerticalSpeedAccuracyMps,SolutionType
# 
# Nav,Svid,Type,Status,MessageId,Sub-messageId,Data(Bytes)
# 
# Status,UnixTimeMillis,SignalCount,SignalIndex,ConstellationType,Svid,CarrierFrequencyHz,Cn0DbHz,AzimuthDegrees,ElevationDegrees,UsedInFix,HasAlmanacData,HasEphemerisData,BasebandCn0DbHz
# 
# Agc,utcTimeMillis,TimeNanos,LeapSecond,TimeUncertaintyNanos,FullBiasNanos,BiasNanos,BiasUncertaintyNanos,DriftNanosPerSecond,DriftUncertaintyNanosPerSecond,HardwareClockDiscontinuityCount,AgcDb,CarrierFrequencyHz,ConstellationType
# 
Raw,1730970657000,1998640000000,18,39.42986128104482,-1415003876360000000,0.0,39.42986128104482,-3367.842030156582,0.0,0,3,0.0,16431,378674928098569,316,24.53499984741211,-532.5420002104235,0.14999,16,0.0,0.0,1575420030,,,,0,4.386580132795021,1,6.0,24.53499984741211,0.0,0.0,0.0,66.7128,C,,
Raw,1730970657000,1998640000000,18,39.42986128104482,-1415003876360000000,0.0,39.42986128104482,-3367.842030156582,0.0,0,8,0.0,16431,378674930461487,74,29.961000442504883,-1280.6157432414245,0.14999,16,0.0,0.0,1575420030,,,,0,11.494970344830724,1,6.0,29.961000442504883,0.0,0.0,0.0,66.7128,C,,
Raw,1730970657000,1998640000000,18,39.42986128104482,-1415003876360000000,0.0,39.42986128104482,-3367.842030156582,0.0,0,9,0.0,16431,378674928246811,487,18.60300064086914,-1513.2589570038353,0.14999,16,0.0,0.0,1575420030,,,,0,0.0,1,6.0,18.60300064086914,0.0,0.0,0.0,66.7128,C,,
Raw,1730970657000,1998640000000,18,39.42986128104482,-1415003876360000000,0.0,39.42986128104482,-3367.842030156582,0.0,0,196,0.0,16431,378674877198064,487,19.0,-1010.1559361846303,0.14999,16,0.0,0.0,1575420030,,,,0,0.0,4,6.0,19.0,0.0,,0.0,,C,,
Raw,1730970657000,1998640000000,18,39.42986128104482,-1415003876360000000,0.0,39.42986128104482,-3367.842030156582,0.0,0,30,0.0,16431,378674917071747,1934,9.100000381469727,-618.9088928220573,0.14999,16,0.0,0.0,1575420030,,,,0,0.0,6,6.0,9.100000381469727,0.0,0.0,-11.011901317358104,66.7128,C,,
Raw,1730970657000,1998640000000,18,39.42986128104482,-1415003876360000000,0.0,39.42986128104482,-3367.842030156582,0.0,0,7,0.0,17,90248,487,15.319999694824219,-1106.358154296875,0.14999,16,0.0,0.0,1561097980,,,,0,0.0,5,6.0,15.319999694824219,0.0,0.0,140.16308081769836,66.7128,I,,
Raw,1730970657000,1998640000000,18,39.42986128104482,-1415003876360000000,0.0,39.42986128104482,-3367.842030156582,0.0,0,10,0.0,16905,378660878107811,487,20.829999923706055,-1127.127685546875,0.14999,16,0.0,0.0,1561097980,,,,0,0.0,5,6.0,20.829999923706055,0.0,0.0,140.16308081769836,66.7128,I,,
Raw,1730970657000,1998640000000,18,39.42986128104482,-1415003876360000000,0.0,39.42986128104482,-3367.842030156582,0.0,0,20,0.0,16905,378660923240817,316,25.506000518798828,-1365.4027099609375,0.14999,16,0.0,0.0,1561097980,,,,0,6.899123073706255,5,6.0,25.506000518798828,0.0,0.0,140.16308081769836,66.7128,I,,
Raw,1730970657000,1998640000000,18,39.42986128104482,-1415003876360000000,0.0,39.42986128104482,-3367.842030156582,0.0,0,16,0.0,16905,378660871789673,487,17.882999420166016,-1120.4383544921875,0.14999,16,0.0,0.0,1561097980,,,,0,0.0,5,6.0,17.882999420166016,0.0,0.0,140.16308081769836,66.7128,I,,
Raw,1730970657000,1998640000000,18,39.42986128104482,-1415003876360000000,0.0,39.42986128104482,-3367.842030156582,0.0,0,32,0.0,16905,378660926707575,51,35.323001861572266,-751.38525390625,0.14999,16,0.0,0.0,1561097980,,,,0,18.45584476302236,5,6.0,35.323001861572266,0.0,0.0,140.16308081769836,66.7128,I,,
Raw,1730970657000,1998640000000,18,39.42986128104482,-1415003876360000000,0.0,39.42986128104482,-3367.842030156582,0.0,0,2,0.0,16905,378660881040370,74,29.959999084472656,-1005.4779663085938,0.14999,16,0.0,0.0,1561097980,,,,0,13.215807265848177,5,6.0,29.959999084472656,0.0,0.0,140.16308081769836,66.7128,I,,
Raw,1730970657000,1998640000000,18,39.42986128104482,-1415003876360000000,0.0,39.42986128104482,-3367.842030156582,0.0,0,27,0.0,16431,378674921501434,316,24.200000762939453,-1029.2168022706574,0.14999,16,0.0,0.0,1575420030,,,,0,5.053450607458682,6,6.0,24.200000762939453,0.0,0.0,-11.011901317358104,66.7128,C,,
Raw,1730970657000,1998640000000,18,39.42986128104482,-1415003876360000000,0.0,39.42986128104482,-3367.842030156582,0.0,0,7,0.0,32995,43856936706331,316,24.0,-986.7469701961446,0.14999,16,0.0,0.0,1604812540,,,,0,3.0522032641231664,3,6.0,24.0,0.0,0.0,91.98831033944046,66.7128,C,,
Raw,1730970657000,1998640000000,18,39.42986128104482,-1415003876360000000,0.0,39.42986128104482,-3367.842030156582,0.0,0,11,0.0,32995,43856929074975,316,16.71299934387207,-1081.6420721451805,0.14999,16,0.0,0.0,1602000000,,,,0,4.659295090436352,3,6.0,16.71299934387207,0.0,0.0,91.98831033944046,66.7128,C,,
Raw,1730970657000,1998640000000,18,39.42986128104482,-1415003876360000000,0.0,39.42986128104482,-3367.842030156582,0.0,0,8,0.0,32995,43856930545705,797,17.0,-1638.6259538268632,0.14999,16,0.0,0.0,1605374980,,,,0,0.0,3,6.0,17.0,0.0,0.0,91.98831033944046,66.7128,C,,
Raw,1730970657000,1998640000000,18,39.42986128104482,-1415003876360000000,0.0,39.42986128104482,-3367.842030156582,0.0,0,9,0.0,17,684597,797,14.310999870300293,-1085.851806640625,0.14999,16,0.0,0.0,1561097980,,,,0,0.0,5,6.0,14.310999870300293,0.0,0.0,140.16308081769836,66.7128,I,,
Raw,1730970657000,1998640000000,18,39.42986128104482,-1415003876360000000,0.0,39.42986128104482,-3367.842030156582,0.0,0,4,0.0,16431,378674932175476,797,21.003000259399414,-1254.9462603662807,0.14999,16,0.0,0.0,1575420030,,,,0,0.0,1,6.0,21.003000259399414,0.0,0.0,0.0,66.7128,C,,
Raw,1730970657000,1998640000000,18,39.42986128104482,-1415003876360000000,0.0,39.42986128104482,-3367.842030156582,0.0,0,27,0.0,16431,378674927515008,487,20.391000747680664,-940.899538888089,0.14999,16,0.0,0.0,1575420030,,,,0,0.0,1,6.0,20.391000747680664,0.0,0.0,0.0,66.7128,C,,
Raw,1730970657000,1998640000000,18,39.42986128104482,-1415003876360000000,0.0,39.42986128104482,-3367.842030156582,0.0,0,7,0.0,16431,378674921096526,797,21.933000564575195,-1139.8388441927377,0.14999,16,0.0,0.0,1575420030,,,,0,0.45449628907047734,1,6.0,21.933000564575195,0.0,0.0,0.0,66.7128,C,,
Raw,1730970658000,1999640000000,18,39.61121665316136,-1415003876360000000,0.0,39.61121665316136,-3371.230322752989,0.0,0,3,0.0,16431,378675928100350,235,29.378000259399414,-533.1560410974781,0.14999,16,0.0,0.0,1575420030,,,,0,10.778201840256575,1,6.0,29.378000259399414,0.0,0.0,0.0,66.7128,C,,
Raw,1730970658000,1999640000000,18,39.61121665316136,-1415003876360000000,0.0,39.61121665316136,-3371.230322752989,0.0,0,8,0.0,16431,378675930465758,74,30.371000289916992,-1282.8733435187596,0.14999,16,0.0,0.0,1575420030,,,,0,11.996218422882066,1,6.0,30.371000289916992,0.0,0.0,0.0,66.7128,C,,
Raw,1730970658000,1999640000000,18,39.61121665316136,-1415003876360000000,0.0,39.61121665316136,-3371.230322752989,0.0,0,9,0.0,16431,378675928251854,487,18.679000854492188,-1512.921483068482,0.14999,16,0.0,0.0,1575420030,,,,0,0.0,1,6.0,18.679000854492188,0.0,0.0,0.0,66.7128,C,,
Raw,1730970658000,1999640000000,18,39.61121665316136,-1415003876360000000,0.0,39.61121665316136,-3371.230322752989,0.0,0,196,0.0,16431,378675877201434,487,19.0,-1010.2963335184185,0.14999,16,0.0,0.0,1575420030,,,,0,0.0,4,6.0,19.0,0.0,,0.0,,C,,
Raw,1730970658000,1999640000000,18,39.61121665316136,-1415003876360000000,0.0,39.61121665316136,-3371.230322752989,0.0,0,30,0.0,16431,378675917073813,2001,9.100000381469727,-620.0009908119184,0.14999,16,0.0,0.0,1575420030,,,,0,0.0,6,6.0,9.100000381469727,0.0,0.0,-10.624555300985302,66.7128,C,,
Raw,1730970658000,1999640000000,18,39.61121665316136,-1415003876360000000,0.0,39.61121665316136,-3371.230322752989,0.0,0,7,0.0,17,93942,396,21.700000762939453,-1106.754150390625,0.14999,16,0.0,0.0,1561097980,,,,0,1.7469116762608392,5,6.0,21.700000762939453,0.0,0.0,136.86536382932758,66.7128,I,,
Raw,1730970658000,1999640000000,18,39.61121665316136,-1415003876360000000,0.0,39.61121665316136,-3371.230322752989,0.0,0,10,0.0,16905,378661878111572,235,28.0,-1127.2274169921875,0.14999,16,0.0,0.0,1561097980,,,,0,9.698675891732357,5,6.0,28.0,0.0,0.0,136.86536382932758,66.7128,I,,
Raw,1730970658000,1999640000000,18,39.61121665316136,-1415003876360000000,0.0,39.61121665316136,-3371.230322752989,0.0,0,20,0.0,16905,378661923245371,316,25.46500015258789,-1365.70458984375,0.14999,16,0.0,0.0,1561097980,,,,0,5.73650775898486,5,6.0,25.46500015258789,0.0,0.0,136.86536382932758,66.7128,I,,
Raw,1730970658000,1999640000000,18,39.61121665316136,-1415003876360000000,0.0,39.61121665316136,-3371.230322752989,0.0,0,16,0.0,16905,378661871793413,487,17.97800064086914,-1121.924560546875,0.14999,16,0.0,0.0,1561097980,,,,0,0.0,5,6.0,17.97800064086914,0.0,0.0,136.86536382932758,66.7128,I,,
Raw,1730970658000,1999640000000,18,39.61121665316136,-1415003876360000000,0.0,39.61121665316136,-3371.230322752989,0.0,0,32,0.0,16905,378661926710085,51,35.36600112915039,-752.4390258789062,0.14999,16,0.0,0.0,1561097980,,,,0,18.7288812369715,5,6.0,35.36600112915039,0.0,0.0,136.86536382932758,66.7128,I,,
Raw,1730970658000,1999640000000,18,39.61121665316136,-1415003876360000000,0.0,39.61121665316136,-3371.230322752989,0.0,0,2,0.0,16905,378661881043727,74,30.047000885009766,-1006.3563842773438,0.14999,16,0.0,0.0,1561097980,,,,0,13.918991271475887,5,6.0,30.047000885009766,0.0,0.0,136.86536382932758,66.7128,I,,
Raw,1730970658000,1999640000000,18,39.61121665316136,-1415003876360000000,0.0,39.61121665316136,-3371.230322752989,0.0,0,8,0.0,16431,378675917219494,797,14.600000381469727,-842.138516458224,0.14999,16,0.0,0.0,1575420030,,,,0,0.0,6,6.0,14.600000381469727,0.0,0.0,-10.624555300985302,66.7128,C,,
Raw,1730970658000,1999640000000,18,39.61121665316136,-1415003876360000000,0.0,39.61121665316136,-3371.230322752989,0.0,0,27,0.0,16431,378675921504869,316,24.2450008392334,-1030.2672270611777,0.14999,16,0.0,0.0,1575420030,,,,0,6.250820455058017,6,6.0,24.2450008392334,0.0,0.0,-10.624555300985302,66.7128,C,,
Raw,1730970658000,1999640000000,18,39.61121665316136,-1415003876360000000,0.0,39.61121665316136,-3371.230322752989,0.0,0,7,0.0,32995,43857936709619,235,29.0,-988.221917390454,0.14999,16,0.0,0.0,1604812540,,,,0,10.315413145643966,3,6.0,29.0,0.0,0.0,91.22718145729749,66.7128,C,,
Raw,1730970658000,1999640000000,18,39.61121665316136,-1415003876360000000,0.0,39.61121665316136,-3371.230322752989,0.0,0,11,0.0,32995,43857929078590,316,16.66699981689453,-1083.0357263693363,0.14999,16,0.0,0.0,1602000000,,,,0,6.3327013798911445,3,6.0,16.66699981689453,0.0,0.0,91.22718145729749,66.7128,C,,
Raw,1730970658000,1999640000000,18,39.61121665316136,-1415003876360000000,0.0,39.61121665316136,-3371.230322752989,0.0,0,8,0.0,32995,43857930551167,797,16.0,-1641.9964451747499,0.14999,16,0.0,0.0,1605374980,,,,0,0.0,3,6.0,16.0,0.0,0.0,91.22718145729749,66.7128,C,,
Raw,1730970658000,1999640000000,18,39.61121665316136,-1415003876360000000,0.0,39.61121665316136,-3371.230322752989,0.0,0,9,0.0,17,688230,797,14.414999961853027,-1089.969970703125,0.14999,16,0.0,0.0,1561097980,,,,0,0.0,5,6.0,14.414999961853027,0.0,0.0,136.86536382932758,66.7128,I,,
Raw,1730970658000,1999640000000,18,39.61121665316136,-1415003876360000000,0.0,39.61121665316136,-3371.230322752989,0.0,0,4,0.0,16431,378675932179663,797,21.003000259399414,-1253.8171350187,0.14999,16,0.0,0.0,1575420030,,,,0,0.0,1,6.0,21.003000259399414,0.0,0.0,0.0,66.7128,C,,
Raw,1730970658000,1999640000000,18,39.61121665316136,-1415003876360000000,0.0,39.61121665316136,-3371.230322752989,0.0,0,27,0.0,16431,378675927518148,396,22.893999099731445,-941.701225318218,0.14999,16,0.0,0.0,1575420030,,,,0,1.9525452504374743,1,6.0,22.893999099731445,0.0,0.0,0.0,66.7128,C,,
Raw,1730970658000,1999640000000,18,39.61121665316136,-1415003876360000000,0.0,39.61121665316136,-3371.230322752989,0.0,0,7,0.0,16431,378675921100354,487,18.6299991607666,-1143.1176933752126,0.14999,16,0.0,0.0,1575420030,,,,0,0.0,1,6.0,18.6299991607666,0.0,0.0,0.0,66.7128,C,,
Raw,1730970659000,2000640000000,18,39.88248624371104,-1415003876360000000,0.0,39.88248624371104,-3374.56214296707,0.0,0,3,0.0,16431,378676928102129,235,28.145999908447266,-534.5962055415886,0.14999,16,0.0,0.0,1575420030,,,,0,9.238053039724548,1,6.0,28.145999908447266,0.0,0.0,0.0,66.7128,C,,
Raw,1730970659000,2000640000000,18,39.88248624371104,-1415003876360000000,0.0,39.88248624371104,-3374.56214296707,0.0,0,8,0.0,16431,378676930470042,58,33.88800048828125,-1282.989117891956,0.14999,16,0.0,0.0,1575420030,,,,0,16.102262355608442,1,6.0,33.88800048828125,0.0,0.0,0.0,66.7128,C,,
Raw,1730970659000,2000640000000,18,39.88248624371104,-1415003876360000000,0.0,39.88248624371104,-3374.56214296707,0.0,0,9,0.0,16431,378676928256951,487,18.726999282836914,-1515.5015976711504,0.14999,16,0.0,0.0,1575420030,,,,0,0.0,1,6.0,18.726999282836914,0.0,0.0,0.0,66.7128,C,,
Raw,1730970659000,2000640000000,18,39.88248624371104,-1415003876360000000,0.0,39.88248624371104,-3374.56214296707,0.0,0,196,0.0,16431,378676877204808,487,18.0,-1011.4419980621703,0.14999,16,0.0,0.0,1575420030,,,,0,0.0,4,6.0,18.0,0.0,,0.0,,C,,
Raw,1730970659000,2000640000000,18,39.88248624371104,-1415003876360000000,0.0,39.88248624371104,-3374.56214296707,0.0,0,30,0.0,16431,378676917075882,1934,9.100000381469727,-621.0146205368,0.14999,16,0.0,0.0,1575420030,,,,0,0.0,6,6.0,9.100000381469727,0.0,0.0,-11.47674167800586,66.7128,C,,
Raw,1730970659000,2000640000000,18,39.88248624371104,-1415003876360000000,0.0,39.88248624371104,-3374.56214296707,0.0,0,7,0.0,17,97637,316,24.5,-1108.4031982421875,0.14999,16,0.0,0.0,1561097980,,,,0,5.465756810428971,5,6.0,24.5,0.0,0.0,133.83927689274145,66.7128,I,,
Raw,1730970659000,2000640000000,18,39.88248624371104,-1415003876360000000,0.0,39.88248624371104,-3374.56214296707,0.0,0,10,0.0,16905,378662878115335,235,28.024999618530273,-1128.110107421875,0.14999,16,0.0,0.0,1561097980,,,,0,10.270680902947722,5,6.0,28.024999618530273,0.0,0.0,133.83927689274145,66.7128,I,,
Raw,1730970659000,2000640000000,18,39.88248624371104,-1415003876360000000,0.0,39.88248624371104,-3374.56214296707,0.0,0,20,0.0,16905,378662923249930,396,25.361000061035156,-1367.294677734375,0.14999,16,0.0,0.0,1561097980,,,,0,4.023073259164967,5,6.0,25.361000061035156,0.0,0.0,133.83927689274145,66.7128,I,,
Raw,1730970659000,2000640000000,18,39.88248624371104,-1415003876360000000,0.0,39.88248624371104,-3374.56214296707,0.0,0,16,0.0,16905,378662871797157,487,18.048999786376953,-1121.3631591796875,0.14999,16,0.0,0.0,1561097980,,,,0,0.0,5,6.0,18.048999786376953,0.0,0.0,133.83927689274145,66.7128,I,,
Raw,1730970659000,2000640000000,18,39.88248624371104,-1415003876360000000,0.0,39.88248624371104,-3374.56214296707,0.0,0,32,0.0,16905,378662926712597,51,35.48699951171875,-753.4628295898438,0.14999,16,0.0,0.0,1561097980,,,,0,20.431972494387498,5,6.0,35.48699951171875,0.0,0.0,133.83927689274145,66.7128,I,,
Raw,1730970659000,2000640000000,18,39.88248624371104,-1415003876360000000,0.0,39.88248624371104,-3374.56214296707,0.0,0,2,0.0,16905,378662881047088,58,32.70000076293945,-1007.7547607421875,0.14999,16,0.0,0.0,1561097980,,,,0,14.97757080833547,5,6.0,32.70000076293945,0.0,0.0,133.83927689274145,66.7128,I,,
Raw,1730970659000,2000640000000,18,39.88248624371104,-1415003876360000000,0.0,39.88248624371104,-3374.56214296707,0.0,0,8,0.0,16431,378676917222306,487,14.600000381469727,-843.8720658007039,0.14999,16,0.0,0.0,1575420030,,,,0,0.0,6,6.0,14.600000381469727,0.0,0.0,-11.47674167800586,66.7128,C,,
Raw,1730970659000,2000640000000,18,39.88248624371104,-1415003876360000000,0.0,39.88248624371104,-3374.56214296707,0.0,0,27,0.0,16431,378676921508306,235,24.36199951171875,-1031.2383008768104,0.14999,16,0.0,0.0,1575420030,,,,0,7.9874665018965265,6,6.0,24.36199951171875,0.0,0.0,-11.47674167800586,66.7128,C,,
Raw,1730970659000,2000640000000,18,39.88248624371104,-1415003876360000000,0.0,39.88248624371104,-3374.56214296707,0.0,0,7,0.0,32995,43858936712925,235,27.0,-989.4166519823565,0.14999,16,0.0,0.0,1604812540,,,,0,8.693866042596646,3,6.0,27.0,0.0,0.0,88.98156265527604,66.7128,C,,
Raw,1730970659000,2000640000000,18,39.88248624371104,-1415003876360000000,0.0,39.88248624371104,-3374.56214296707,0.0,0,11,0.0,32995,43858929082201,235,16.62299919128418,-1084.4035214179455,0.14999,16,0.0,0.0,1602000000,,,,0,7.958800173440752,3,6.0,16.62299919128418,0.0,0.0,88.98156265527604,66.7128,C,,
Raw,1730970659000,2000640000000,18,39.88248624371104,-1415003876360000000,0.0,39.88248624371104,-3374.56214296707,0.0,0,8,0.0,32995,43858930556641,797,17.0,-1639.52647791927,0.14999,16,0.0,0.0,1605374980,,,,0,0.0,3,6.0,17.0,0.0,0.0,88.98156265527604,66.7128,C,,
Raw,1730970659000,2000640000000,18,39.88248624371104,-1415003876360000000,0.0,39.88248624371104,-3374.56214296707,0.0,0,16,0.0,16431,378676923522385,797,13.600000381469727,-355.46017181401146,0.14999,16,0.0,0.0,1575420030,,,,0,0.0,1,6.0,13.600000381469727,0.0,0.0,0.0,66.7128,C,,
Raw,1730970659000,2000640000000,18,39.88248624371104,-1415003876360000000,0.0,39.88248624371104,-3374.56214296707,0.0,0,9,0.0,17,691869,797,14.513999938964844,-1090.4451904296875,0.14999,16,0.0,0.0,1561097980,,,,0,0.0,5,6.0,14.513999938964844,0.0,0.0,133.83927689274145,66.7128,I,,
Raw,1730970659000,2000640000000,18,39.88248624371104,-1415003876360000000,0.0,39.88248624371104,-3374.56214296707,0.0,0,4,0.0,16431,378676932183827,797,19.009000778198242,-1253.9291927185996,0.14999,16,0.0,0.0,1575420030,,,,0,0.0,1,6.0,19.009000778198242,0.0,0.0,0.0,66.7128,C,,
Raw,1730970659000,2000640000000,18,39.88248624371104,-1415003876360000000,0.0,39.88248624371104,-3374.56214296707,0.0,0,27,0.0,16431,378676927521292,487,22.79199981689453,-942.1700836546148,0.14999,16,0.0,0.0,1575420030,,,,0,0.0,1,6.0,22.79199981689453,0.0,0.0,0.0,66.7128,C,,
Raw,1730970659000,2000640000000,18,39.88248624371104,-1415003876360000000,0.0,39.88248624371104,-3374.56214296707,0.0,0,7,0.0,16431,378676921104200,487,18.71500015258789,-1144.5077291882321,0.14999,16,0.0,0.0,1575420030,,,,0,0.0,1,6.0,18.71500015258789,0.0,0.0,0.0,66.7128,C,,
Raw,1730970660000,2001640000000,18,41.17386946379214,-1415003876360000000,0.0,41.17386946379214,-3374.5261155235194,0.0,0,3,0.0,16431,378677928103912,235,27.704999923706055,-534.3503011445863,0.14999,16,0.0,0.0,1575420030,,,,0,8.67500007158699,1,6.0,27.704999923706055,0.0,0.0,0.0,66.7128,C,,
Raw,1730970660000,2001640000000,18,41.17386946379214,-1415003876360000000,0.0,41.17386946379214,-3374.5261155235194,0.0,0,8,0.0,16431,378677930474320,58,32.94300079345703,-1282.630273085146,0.14999,16,0.0,0.0,1575420030,,,,0,15.026345707926872,1,6.0,32.94300079345703,0.0,0.0,0.0,66.7128,C,,
Raw,1730970660000,2001640000000,18,41.17386946379214,-1415003876360000000,0.0,41.17386946379214,-3374.5261155235194,0.0,0,9,0.0,16431,378677928262007,797,18.773000717163086,-1514.9743875639933,0.14999,16,0.0,0.0,1575420030,,,,0,0.0,1,6.0,18.773000717163086,0.0,0.0,0.0,66.7128,C,,
Raw,1730970660000,2001640000000,18,41.17386946379214,-1415003876360000000,0.0,41.17386946379214,-3374.5261155235194,0.0,0,196,0.0,16431,378677877208180,487,19.0,-1011.0660565581946,0.14999,16,0.0,0.0,1575420030,,,,0,0.0,4,6.0,19.0,0.0,,0.0,,C,,
Raw,1730970660000,2001640000000,18,41.17386946379214,-1415003876360000000,0.0,41.17386946379214,-3374.5261155235194,0.0,0,7,0.0,17,101334,396,24.385000228881836,-1108.9561767578125,0.14999,16,0.0,0.0,1561097980,,,,0,2.4231978383590294,5,6.0,24.385000228881836,0.0,0.0,131.01953711773518,66.7128,I,,
Raw,1730970660000,2001640000000,18,41.17386946379214,-1415003876360000000,0.0,41.17386946379214,-3374.5261155235194,0.0,0,10,0.0,16905,378663878119097,74,28.097999572753906,-1128.4825439453125,0.14999,16,0.0,0.0,1561097980,,,,0,11.382608965056855,5,6.0,28.097999572753906,0.0,0.0,131.01953711773518,66.7128,I,,
Raw,1730970660000,2001640000000,18,41.17386946379214,-1415003876360000000,0.0,41.17386946379214,-3374.5261155235194,0.0,0,20,0.0,16905,378663923254490,316,22.700000762939453,-1367.0369873046875,0.14999,16,0.0,0.0,1561097980,,,,0,3.1109294661984817,5,6.0,22.700000762939453,0.0,0.0,131.01953711773518,66.7128,I,,
Raw,1730970660000,2001640000000,18,41.17386946379214,-1415003876360000000,0.0,41.17386946379214,-3374.5261155235194,0.0,0,16,0.0,16905,378663871800899,487,18.090999603271484,-1121.519287109375,0.14999,16,0.0,0.0,1561097980,,,,0,0.0,5,6.0,18.090999603271484,0.0,0.0,131.01953711773518,66.7128,I,,
Raw,1730970660000,2001640000000,18,41.17386946379214,-1415003876360000000,0.0,41.17386946379214,-3374.5261155235194,0.0,0,32,0.0,16905,378663926715109,51,35.60200119018555,-753.0999755859375,0.14999,16,0.0,0.0,1561097980,,,,0,20.431972494387498,5,6.0,35.60200119018555,0.0,0.0,131.01953711773518,66.7128,I,,
Raw,1730970660000,2001640000000,18,41.17386946379214,-1415003876360000000,0.0,41.17386946379214,-3374.5261155235194,0.0,0,2,0.0,16905,378663881050450,58,32.685001373291016,-1007.9794921875,0.14999,16,0.0,0.0,1561097980,,,,0,14.681254994590267,5,6.0,32.685001373291016,0.0,0.0,131.01953711773518,66.7128,I,,
Raw,1730970660000,2001640000000,18,41.17386946379214,-1415003876360000000,0.0,41.17386946379214,-3374.5261155235194,0.0,0,8,0.0,16431,378677917225122,487,14.600000381469727,-844.5646678695707,0.14999,16,0.0,0.0,1575420030,,,,0,0.0,6,6.0,14.600000381469727,0.0,0.0,-11.991219638239821,66.7128,C,,
Raw,1730970660000,2001640000000,18,41.17386946379214,-1415003876360000000,0.0,41.17386946379214,-3374.5261155235194,0.0,0,27,0.0,16431,378677921511742,235,26.899999618530273,-1031.2200891776558,0.14999,16,0.0,0.0,1575420030,,,,0,8.379167186230887,6,6.0,26.899999618530273,0.0,0.0,-11.991219638239821,66.7128,C,,
Raw,1730970660000,2001640000000,18,41.17386946379214,-1415003876360000000,0.0,41.17386946379214,-3374.5261155235194,0.0,0,7,0.0,32995,43859936716219,235,27.0,-988.9127801022473,0.14999,16,0.0,0.0,1604812540,,,,0,8.519374645445621,3,6.0,27.0,0.0,0.0,87.60928725085506,66.7128,C,,
Raw,1730970660000,2001640000000,18,41.17386946379214,-1415003876360000000,0.0,41.17386946379214,-3374.5261155235194,0.0,0,11,0.0,32995,43859929085813,316,13.199999809265137,-1083.8352591821715,0.14999,16,0.0,0.0,1602000000,,,,0,5.495696496083098,3,6.0,13.199999809265137,0.0,0.0,87.60928725085506,66.7128,C,,
Raw,1730970660000,2001640000000,18,41.17386946379214,-1415003876360000000,0.0,41.17386946379214,-3374.5261155235194,0.0,0,8,0.0,32995,43859930562115,797,15.0,-1636.9943238036224,0.14999,16,0.0,0.0,1605374980,,,,0,0.0,3,6.0,15.0,0.0,0.0,87.60928725085506,66.7128,C,,
Raw,1730970660000,2001640000000,18,41.17386946379214,-1415003876360000000,0.0,41.17386946379214,-3374.5261155235194,0.0,0,9,0.0,17,695504,487,14.607999801635742,-1089.1964111328125,0.14999,16,0.0,0.0,1561097980,,,,0,0.0,5,6.0,14.607999801635742,0.0,0.0,131.01953711773518,66.7128,I,,
Raw,1730970660000,2001640000000,18,41.17386946379214,-1415003876360000000,0.0,41.17386946379214,-3374.5261155235194,0.0,0,6,0.0,17,644812,797,14.0,-1098.1514892578125,0.14999,16,0.0,0.0,1561097980,,,,0,0.0,5,6.0,14.0,0.0,0.0,131.01953711773518,66.7128,I,,
Raw,1730970660000,2001640000000,18,41.17386946379214,-1415003876360000000,0.0,41.17386946379214,-3374.5261155235194,0.0,0,4,0.0,16431,378677932188010,797,19.009000778198242,-1253.1942205741489,0.14999,16,0.0,0.0,1575420030,,,,0,0.0,1,6.0,19.009000778198242,0.0,0.0,0.0,66.7128,C,,
Raw,1730970660000,2001640000000,18,41.17386946379214,-1415003876360000000,0.0,41.17386946379214,-3374.5261155235194,0.0,0,27,0.0,16431,378677927524435,487,22.700000762939453,-942.3807261137134,0.14999,16,0.0,0.0,1575420030,,,,0,0.0,1,6.0,22.700000762939453,0.0,0.0,0.0,66.7128,C,,
Raw,1730970660000,2001640000000,18,41.17386946379214,-1415003876360000000,0.0,41.17386946379214,-3374.5261155235194,0.0,0,7,0.0,16431,378677921107955,396,22.356000900268555,-1143.8423517512647,0.14999,16,0.0,0.0,1575420030,,,,0,1.1103465569966282,1,6.0,22.356000900268555,0.0,0.0,0.0,66.7128,C,,
Raw,1730970661000,2002640000000,18,41.28746708417946,-1415003876360000000,0.0,41.28746708417946,-3373.352332054531,0.0,0,3,0.0,16431,378678928105693,74,29.860000610351562,-533.9719902613838,0.14999,16,0.0,0.0,1575420030,,,,0,11.379541541273216,1,6.0,29.860000610351562,0.0,0.0,0.0,66.7128,C,,
Raw,1730970661000,2002640000000,18,41.28746708417946,-1415003876360000000,0.0,41.28746708417946,-3373.352332054531,0.0,0,8,0.0,16431,378678930478602,58,32.69499969482422,-1282.062737072718,0.14999,16,0.0,0.0,1575420030,,,,0,14.74174903268192,1,6.0,32.69499969482422,0.0,0.0,0.0,66.7128,C,,
Raw,1730970661000,2002640000000,18,41.28746708417946,-1415003876360000000,0.0,41.28746708417946,-3373.352332054531,0.0,0,9,0.0,16431,378678928267062,797,18.816999435424805,-1515.4745588729158,0.14999,16,0.0,0.0,1575420030,,,,0,0.0,1,6.0,18.816999435424805,0.0,0.0,0.0,66.7128,C,,
Raw,1730970661000,2002640000000,18,41.28746708417946,-1415003876360000000,0.0,41.28746708417946,-3373.352332054531,0.0,0,196,0.0,16431,378678877211553,487,18.0,-1009.991937975407,0.14999,16,0.0,0.0,1575420030,,,,0,0.0,4,6.0,18.0,0.0,,0.0,,C,,
Raw,1730970661000,2002640000000,18,41.28746708417946,-1415003876360000000,0.0,41.28746708417946,-3373.352332054531,0.0,0,7,0.0,17,105030,396,24.264999389648438,-1108.3115234375,0.14999,16,0.0,0.0,1561097980,,,,0,2.1589678926925613,5,6.0,24.264999389648438,0.0,0.0,128.19182816185815,66.7128,I,,
Raw,1730970661000,2002640000000,18,41.28746708417946,-1415003876360000000,0.0,41.28746708417946,-3373.352332054531,0.0,0,10,0.0,16905,378664878122859,74,28.202999114990234,-1128.43212890625,0.14999,16,0.0,0.0,1561097980,,,,0,12.158650646275893,5,6.0,28.202999114990234,0.0,0.0,128.19182816185815,66.7128,I,,
Raw,1730970661000,2002640000000,18,41.28746708417946,-1415003876360000000,0.0,41.28746708417946,-3373.352332054531,0.0,0,20,0.0,16905,378664923259053,487,22.725000381469727,-1368.5743408203125,0.14999,16,0.0,0.0,1561097980,,,,0,3.803859361996494,5,6.0,22.725000381469727,0.0,0.0,128.19182816185815,66.7128,I,,
Raw,1730970661000,2002640000000,18,41.28746708417946,-1415003876360000000,0.0,41.28746708417946,-3373.352332054531,0.0,0,16,0.0,16905,378664871804644,797,18.076000213623047,-1121.8656005859375,0.14999,16,0.0,0.0,1561097980,,,,0,0.0,5,6.0,18.076000213623047,0.0,0.0,128.19182816185815,66.7128,I,,
Raw,1730970661000,2002640000000,18,41.28746708417946,-1415003876360000000,0.0,41.28746708417946,-3373.352332054531,0.0,0,32,0.0,16905,378664926717622,51,35.66600036621094,-752.5075073242188,0.14999,16,0.0,0.0,1561097980,,,,0,19.435984890343462,5,6.0,35.66600036621094,0.0,0.0,128.19182816185815,66.7128,I,,
Raw,1730970661000,2002640000000,18,41.28746708417946,-1415003876360000000,0.0,41.28746708417946,-3373.352332054531,0.0,0,2,0.0,16905,378664881053810,58,32.70500183105469,-1006.9445190429688,0.14999,16,0.0,0.0,1561097980,,,,0,15.367339617989979,5,6.0,32.70500183105469,0.0,0.0,128.19182816185815,66.7128,I,,
Raw,1730970661000,2002640000000,18,41.28746708417946,-1415003876360000000,0.0,41.28746708417946,-3373.352332054531,0.0,0,8,0.0,16431,378678917227939,487,14.600000381469727,-844.5080815186262,0.14999,16,0.0,0.0,1575420030,,,,0,0.0,6,6.0,14.600000381469727,0.0,0.0,-12.534578995747532,66.7128,C,,
Raw,1730970661000,2002640000000,18,41.28746708417946,-1415003876360000000,0.0,41.28746708417946,-3373.352332054531,0.0,0,27,0.0,16431,378678921515179,235,26.899999618530273,-1030.6840519714187,0.14999,16,0.0,0.0,1575420030,,,,0,8.406481327098383,6,6.0,26.899999618530273,0.0,0.0,-12.534578995747532,66.7128,C,,
Raw,1730970661000,2002640000000,18,41.28746708417946,-1415003876360000000,0.0,41.28746708417946,-3373.352332054531,0.0,0,7,0.0,32995,43860936719519,316,26.0,-988.4928260587965,0.14999,16,0.0,0.0,1604812540,,,,0,7.018868919916281,3,6.0,26.0,0.0,0.0,86.42504898784722,66.7128,C,,
Raw,1730970661000,2002640000000,18,41.28746708417946,-1415003876360000000,0.0,41.28746708417946,-3373.352332054531,0.0,0,11,0.0,32995,43860929089427,235,13.199999809265137,-1083.281891100511,0.14999,16,0.0,0.0,1602000000,,,,0,8.168108847004053,3,6.0,13.199999809265137,0.0,0.0,86.42504898784722,66.7128,C,,
Raw,1730970661000,2002640000000,18,41.28746708417946,-1415003876360000000,0.0,41.28746708417946,-3373.352332054531,0.0,0,8,0.0,32995,43860930567569,797,17.0,-1635.117958395203,0.14999,16,0.0,0.0,1605374980,,,,0,0.0,3,6.0,17.0,0.0,0.0,86.42504898784722,66.7128,C,,
Raw,1730970661000,2002640000000,18,41.28746708417946,-1415003876360000000,0.0,41.28746708417946,-3373.352332054531,0.0,0,9,0.0,17,699139,487,18.0,-1089.8778076171875,0.14999,16,0.0,0.0,1561097980,,,,0,0.0,5,6.0,18.0,0.0,0.0,128.19182816185815,66.7128,I,,
Raw,1730970661000,2002640000000,18,41.28746708417946,-1415003876360000000,0.0,41.28746708417946,-3373.352332054531,0.0,0,6,0.0,17,648473,797,14.0,-1097.0413818359375,0.14999,16,0.0,0.0,1561097980,,,,0,0.0,5,6.0,14.0,0.0,0.0,128.19182816185815,66.7128,I,,
Raw,1730970661000,2002640000000,18,41.28746708417946,-1415003876360000000,0.0,41.28746708417946,-3373.352332054531,0.0,0,4,0.0,16431,378678932192194,797,19.009000778198242,-1255.2435013131958,0.14999,16,0.0,0.0,1575420030,,,,0,0.0,1,6.0,19.009000778198242,0.0,0.0,0.0,66.7128,C,,
Raw,1730970661000,2002640000000,18,41.28746708417946,-1415003876360000000,0.0,41.28746708417946,-3373.352332054531,0.0,0,27,0.0,16431,378678927527581,316,22.770000457763672,-941.5192941603376,0.14999,16,0.0,0.0,1575420030,,,,0,3.7578693165651273,1,6.0,22.770000457763672,0.0,0.0,0.0,66.7128,C,,
Raw,1730970661000,2002640000000,18,41.28746708417946,-1415003876360000000,0.0,41.28746708417946,-3373.352332054531,0.0,0,7,0.0,16431,378678921111773,487,22.356000900268555,-1144.2776671111574,0.14999,16,0.0,0.0,1575420030,,,,0,1.1103465569966282,1,6.0,22.356000900268555,0.0,0.0,0.0,66.7128,C,,
Raw,1730970662000,2003640000000,18,40.81192536829929,-1415003876360000000,0.0,40.81192536829929,-3375.89252754314,0.0,0,3,0.0,16431,378679928107476,74,29.81599998474121,-534.9308455135531,0.14999,16,0.0,0.0,1575420030,,,,0,11.321246761128869,1,6.0,29.81599998474121,0.0,0.0,0.0,66.7128,C,,
Raw,1730970662000,2003640000000,18,40.81192536829929,-1415003876360000000,0.0,40.81192536829929,-3375.89252754314,0.0,0,8,0.0,16431,378679930482879,58,33.165000915527344,-1283.2375775018502,0.14999,16,0.0,0.0,1575420030,,,,0,15.277219165213348,1,6.0,33.165000915527344,0.0,0.0,0.0,66.7128,C,,
Raw,1730970662000,2003640000000,18,40.81192536829929,-1415003876360000000,0.0,40.81192536829929,-3375.89252754314,0.0,0,9,0.0,16431,378679928272095,396,22.790000915527344,-1514.3286155786668,0.14999,16,0.0,0.0,1575420030,,,,0,1.7788216667356216,1,6.0,22.790000915527344,0.0,0.0,0.0,66.7128,C,,
Raw,1730970662000,2003640000000,18,40.81192536829929,-1415003876360000000,0.0,40.81192536829929,-3375.89252754314,0.0,0,196,0.0,16431,378679877214927,797,17.0,-1010.9234292204284,0.14999,16,0.0,0.0,1575420030,,,,0,0.0,4,6.0,17.0,0.0,,0.0,,C,,
Raw,1730970662000,2003640000000,18,40.81192536829929,-1415003876360000000,0.0,40.81192536829929,-3375.89252754314,0.0,0,7,0.0,17,108726,487,18.299999237060547,-1107.5860595703125,0.14999,16,0.0,0.0,1561097980,,,,0,0.0,5,6.0,18.299999237060547,0.0,0.0,125.39939609849938,66.7128,I,,
Raw,1730970662000,2003640000000,18,40.81192536829929,-1415003876360000000,0.0,40.81192536829929,-3375.89252754314,0.0,0,10,0.0,16905,378665878126621,316,28.121999740600586,-1128.5570068359375,0.14999,16,0.0,0.0,1561097980,,,,0,8.09531991330385,5,6.0,28.121999740600586,0.0,0.0,125.39939609849938,66.7128,I,,
Raw,1730970662000,2003640000000,18,40.81192536829929,-1415003876360000000,0.0,40.81192536829929,-3375.89252754314,0.0,0,20,0.0,16905,378665923263614,396,18.299999237060547,-1367.9930419921875,0.14999,16,0.0,0.0,1561097980,,,,0,0.0,5,6.0,18.299999237060547,0.0,0.0,125.39939609849938,66.7128,I,,
Raw,1730970662000,2003640000000,18,40.81192536829929,-1415003876360000000,0.0,40.81192536829929,-3375.89252754314,0.0,0,16,0.0,16905,378665871808384,487,19.899999618530273,-1121.938720703125,0.14999,16,0.0,0.0,1561097980,,,,0,0.0,5,6.0,19.899999618530273,0.0,0.0,125.39939609849938,66.7128,I,,
Raw,1730970662000,2003640000000,18,40.81192536829929,-1415003876360000000,0.0,40.81192536829929,-3375.89252754314,0.0,0,32,0.0,16905,378665926720134,51,35.77199935913086,-753.5077514648438,0.14999,16,0.0,0.0,1561097980,,,,0,20.390962552113795,5,6.0,35.77199935913086,0.0,0.0,125.39939609849938,66.7128,I,,
Raw,1730970662000,2003640000000,18,40.81192536829929,-1415003876360000000,0.0,40.81192536829929,-3375.89252754314,0.0,0,2,0.0,16905,378665881057178,58,32.78900146484375,-1008.0234375,0.14999,16,0.0,0.0,1561097980,,,,0,16.80932690090408,5,6.0,32.78900146484375,0.0,0.0,125.39939609849938,66.7128,I,,
Raw,1730970662000,2003640000000,18,40.81192536829929,-1415003876360000000,0.0,40.81192536829929,-3375.89252754314,0.0,0,8,0.0,16431,378679917230870,487,18.700000762939453,-845.2262357164087,0.14999,16,0.0,0.0,1575420030,,,,0,0.0,6,6.0,18.700000762939453,0.0,0.0,-15.11813414334254,66.7128,C,,
Raw,1730970662000,2003640000000,18,40.81192536829929,-1415003876360000000,0.0,40.81192536829929,-3375.89252754314,0.0,0,27,0.0,16431,378679921518615,235,26.885000228881836,-1031.2133062488892,0.14999,16,0.0,0.0,1575420030,,,,0,8.04451688524246,6,6.0,26.885000228881836,0.0,0.0,-15.11813414334254,66.7128,C,,
Raw,1730970662000,2003640000000,18,40.81192536829929,-1415003876360000000,0.0,40.81192536829929,-3375.89252754314,0.0,0,7,0.0,32995,43861936722818,396,22.0,-989.8630583873627,0.14999,16,0.0,0.0,1604812540,,,,0,2.906637905002864,3,6.0,22.0,0.0,0.0,84.60898391174823,66.7128,C,,
Raw,1730970662000,2003640000000,18,40.81192536829929,-1415003876360000000,0.0,40.81192536829929,-3375.89252754314,0.0,0,11,0.0,32995,43861929093039,235,13.199999809265137,-1083.7479045114208,0.14999,16,0.0,0.0,1602000000,,,,0,10.850668665536151,3,6.0,13.199999809265137,0.0,0.0,84.60898391174823,66.7128,C,,
Raw,1730970662000,2003640000000,18,40.81192536829929,-1415003876360000000,0.0,40.81192536829929,-3375.89252754314,0.0,0,8,0.0,32995,43861930573035,797,15.0,-1642.660257992968,0.14999,16,0.0,0.0,1605374980,,,,0,0.0,3,6.0,15.0,0.0,0.0,84.60898391174823,66.7128,C,,
Raw,1730970662000,2003640000000,18,40.81192536829929,-1415003876360000000,0.0,40.81192536829929,-3375.89252754314,0.0,0,9,0.0,17,702780,797,17.959999084472656,-1093.1629638671875,0.14999,16,0.0,0.0,1561097980,,,,0,0.0,5,6.0,17.959999084472656,0.0,0.0,125.39939609849938,66.7128,I,,
Raw,1730970662000,2003640000000,18,40.81192536829929,-1415003876360000000,0.0,40.81192536829929,-3375.89252754314,0.0,0,6,0.0,17,652128,487,19.0,-1097.4349365234375,0.14999,16,0.0,0.0,1561097980,,,,0,0.0,5,6.0,19.0,0.0,0.0,125.39939609849938,66.7128,I,,
Raw,1730970662000,2003640000000,18,40.81192536829929,-1415003876360000000,0.0,40.81192536829929,-3375.89252754314,0.0,0,4,0.0,16431,378679932196324,396,23.33099937438965,-1254.4384698770996,0.14999,16,0.0,0.0,1575420030,,,,0,2.6146477335970966,1,6.0,23.33099937438965,0.0,0.0,0.0,66.7128,C,,
Raw,1730970662000,2003640000000,18,40.81192536829929,-1415003876360000000,0.0,40.81192536829929,-3375.89252754314,0.0,0,27,0.0,16431,378679927530728,316,25.798999786376953,-942.7988518596082,0.14999,16,0.0,0.0,1575420030,,,,0,6.145322522850743,1,6.0,25.798999786376953,0.0,0.0,0.0,66.7128,C,,
Raw,1730970662000,2003640000000,18,40.81192536829929,-1415003876360000000,0.0,40.81192536829929,-3375.89252754314,0.0,0,7,0.0,16431,378679921115592,797,19.37299919128418,-1141.4708354373815,0.14999,16,0.0,0.0,1575420030,,,,0,0.0,1,6.0,19.37299919128418,0.0,0.0,0.0,66.7128,C,,
Raw,1730970663000,2004640000000,18,40.93569937590642,-1415003876360000000,0.0,40.93569937590642,-3377.071960887163,0.0,0,3,0.0,16431,378680928109258,316,27.29800033569336,-535.4839794169558,0.14999,16,0.0,0.0,1575420030,,,,0,8.157505660793735,1,6.0,27.29800033569336,0.0,0.0,0.0,66.7128,C,,
Raw,1730970663000,2004640000000,18,40.93569937590642,-1415003876360000000,0.0,40.93569937590642,-3377.071960887163,0.0,0,8,0.0,16431,378680930487153,74,31.648000717163086,-1283.1619432002594,0.14999,16,0.0,0.0,1575420030,,,,0,13.514961038416729,1,6.0,31.648000717163086,0.0,0.0,0.0,66.7128,C,,
Raw,1730970663000,2004640000000,18,40.93569937590642,-1415003876360000000,0.0,40.93569937590642,-3377.071960887163,0.0,0,9,0.0,16431,378680928277144,316,22.909000396728516,-1515.448542159838,0.14999,16,0.0,0.0,1575420030,,,,0,5.290892900010006,1,6.0,22.909000396728516,0.0,0.0,0.0,66.7128,C,,
Raw,1730970663000,2004640000000,18,40.93569937590642,-1415003876360000000,0.0,40.93569937590642,-3377.071960887163,0.0,0,7,0.0,17,112426,316,23.899999618530273,-1109.5650634765625,0.14999,16,0.0,0.0,1561097980,,,,0,4.699562106884999,5,6.0,23.899999618530273,0.0,0.0,121.0869217209003,66.7128,I,,
Raw,1730970663000,2004640000000,18,40.93569937590642,-1415003876360000000,0.0,40.93569937590642,-3377.071960887163,0.0,0,10,0.0,16905,378666878130386,487,23.899999618530273,-1129.279541015625,0.14999,16,0.0,0.0,1561097980,,,,0,4.699562106884999,5,6.0,23.899999618530273,0.0,0.0,121.0869217209003,66.7128,I,,
Raw,1730970663000,2004640000000,18,40.93569937590642,-1415003876360000000,0.0,40.93569937590642,-3377.071960887163,0.0,0,20,0.0,16905,378666923268174,235,27.0,-1367.5784912109375,0.14999,16,0.0,0.0,1561097980,,,,0,8.556917913198914,5,6.0,27.0,0.0,0.0,121.0869217209003,66.7128,I,,
Raw,1730970663000,2004640000000,18,40.93569937590642,-1415003876360000000,0.0,40.93569937590642,-3377.071960887163,0.0,0,16,0.0,16905,378666871812128,487,16.799999237060547,-1122.8223876953125,0.14999,16,0.0,0.0,1561097980,,,,0,0.0,5,6.0,16.799999237060547,0.0,0.0,121.0869217209003,66.7128,I,,
Raw,1730970663000,2004640000000,18,40.93569937590642,-1415003876360000000,0.0,40.93569937590642,-3377.071960887163,0.0,0,32,0.0,16905,378666926722648,51,35.823001861572266,-753.6404418945312,0.14999,16,0.0,0.0,1561097980,,,,0,19.380748522075102,5,6.0,35.823001861572266,0.0,0.0,121.0869217209003,66.7128,I,,
Raw,1730970663000,2004640000000,18,40.93569937590642,-1415003876360000000,0.0,40.93569937590642,-3377.071960887163,0.0,0,2,0.0,16905,378666881060541,74,32.68899917602539,-1008.4983520507812,0.14999,16,0.0,0.0,1561097980,,,,0,12.85144500770205,5,6.0,32.68899917602539,0.0,0.0,121.0869217209003,66.7128,I,,
Raw,1730970663000,2004640000000,18,40.93569937590642,-1415003876360000000,0.0,40.93569937590642,-3377.071960887163,0.0,0,8,0.0,16431,378680917233693,797,18.700000762939453,-846.1675761456667,0.14999,16,0.0,0.0,1575420030,,,,0,0.0,6,6.0,18.700000762939453,0.0,0.0,-18.478516338070655,66.7128,C,,
Raw,1730970663000,2004640000000,18,40.93569937590642,-1415003876360000000,0.0,40.93569937590642,-3377.071960887163,0.0,0,27,0.0,16431,378680921522056,235,26.809999465942383,-1031.5957519311344,0.14999,16,0.0,0.0,1575420030,,,,0,6.559837261215195,6,6.0,26.809999465942383,0.0,0.0,-18.478516338070655,66.7128,C,,
Raw,1730970663000,2004640000000,18,40.93569937590642,-1415003876360000000,0.0,40.93569937590642,-3377.071960887163,0.0,0,7,0.0,32995,43862936726117,797,17.0,-988.8503890149927,0.14999,16,0.0,0.0,1604812540,,,,0,2.906637905002864,3,6.0,17.0,0.0,0.0,83.51668399456571,66.7128,C,,
Raw,1730970663000,2004640000000,18,40.93569937590642,-1415003876360000000,0.0,40.93569937590642,-3377.071960887163,0.0,0,11,0.0,32995,43862929096653,396,13.289999961853027,-1084.8408430227719,0.14999,16,0.0,0.0,1602000000,,,,0,4.075694990772417,3,6.0,13.289999961853027,0.0,0.0,83.51668399456571,66.7128,C,,
Raw,1730970663000,2004640000000,18,40.93569937590642,-1415003876360000000,0.0,40.93569937590642,-3377.071960887163,0.0,0,8,0.0,32995,43862930578485,797,17.0,-1640.479705831585,0.14999,16,0.0,0.0,1605374980,,,,0,0.0,3,6.0,17.0,0.0,0.0,83.51668399456571,66.7128,C,,
Raw,1730970663000,2004640000000,18,40.93569937590642,-1415003876360000000,0.0,40.93569937590642,-3377.071960887163,0.0,0,9,0.0,17,706422,487,17.95199966430664,-1090.6810302734375,0.14999,16,0.0,0.0,1561097980,,,,0,0.0,5,6.0,17.95199966430664,0.0,0.0,121.0869217209003,66.7128,I,,
Raw,1730970663000,2004640000000,18,40.93569937590642,-1415003876360000000,0.0,40.93569937590642,-3377.071960887163,0.0,0,6,0.0,17,655790,797,19.0,-1098.4532470703125,0.14999,16,0.0,0.0,1561097980,,,,0,0.0,5,6.0,19.0,0.0,0.0,121.0869217209003,66.7128,I,,
Raw,1730970663000,2004640000000,18,40.93569937590642,-1415003876360000000,0.0,40.93569937590642,-3377.071960887163,0.0,0,4,0.0,16431,378680932200517,487,23.316999435424805,-1256.28639984029,0.14999,16,0.0,0.0,1575420030,,,,0,2.2345794313203444,1,6.0,23.316999435424805,0.0,0.0,0.0,66.7128,C,,
Raw,1730970663000,2004640000000,18,40.93569937590642,-1415003876360000000,0.0,40.93569937590642,-3377.071960887163,0.0,0,27,0.0,16431,378680927533873,396,25.702999114990234,-942.2191437421332,0.14999,16,0.0,0.0,1575420030,,,,0,3.473836718504533,1,6.0,25.702999114990234,0.0,0.0,0.0,66.7128,C,,
Raw,1730970663000,2004640000000,18,40.93569937590642,-1415003876360000000,0.0,40.93569937590642,-3377.071960887163,0.0,0,7,0.0,16431,378680921119399,797,19.37299919128418,-1140.2723941328145,0.14999,16,0.0,0.0,1575420030,,,,0,0.0,1,6.0,19.37299919128418,0.0,0.0,0.0,66.7128,C,,
Raw,1730970664000,2005640000000,18,41.205362503328246,-1415003876360000000,0.0,41.205362503328246,-3377.248487236257,0.0,0,3,0.0,16431,378681928111047,235,27.29800033569336,-534.6255672606337,0.14999,16,0.0,0.0,1575420030,,,,0,8.157505660793735,1,6.0,27.29800033569336,0.0,0.0,0.0,66.7128,C,,
Raw,1730970664000,2005640000000,18,41.205362503328246,-1415003876360000000,0.0,41.205362503328246,-3377.248487236257,0.0,0,8,0.0,16431,378681930491430,316,26.8700008392334,-1282.3299658827611,0.14999,16,0.0,0.0,1575420030,,,,0,7.577263954940099,1,6.0,26.8700008392334,0.0,0.0,0.0,66.7128,C,,
Raw,1730970664000,2005640000000,18,41.205362503328246,-1415003876360000000,0.0,41.205362503328246,-3377.248487236257,0.0,0,9,0.0,16431,378681928282191,487,25.75200080871582,-1515.2557397325643,0.14999,16,0.0,0.0,1575420030,,,,0,6.0742719046840605,1,6.0,25.75200080871582,0.0,0.0,0.0,66.7128,C,,
Raw,1730970664000,2005640000000,18,41.205362503328246,-1415003876360000000,0.0,41.205362503328246,-3377.248487236257,0.0,0,30,0.0,16431,378681917086190,487,17.399999618530273,-616.0821769461434,0.14999,16,0.0,0.0,1575420030,,,,0,0.0,6,6.0,17.399999618530273,0.0,0.0,-23.320792695734532,66.7128,C,,
Raw,1730970664000,2005640000000,18,41.205362503328246,-1415003876360000000,0.0,41.205362503328246,-3377.248487236257,0.0,0,7,0.0,17,116129,487,19.799999237060547,-1109.4544677734375,0.14999,16,0.0,0.0,1561097980,,,,0,0.0,5,6.0,19.799999237060547,0.0,0.0,118.42602888149912,66.7128,I,,
Raw,1730970664000,2005640000000,18,41.205362503328246,-1415003876360000000,0.0,41.205362503328246,-3377.248487236257,0.0,0,10,0.0,16905,378667878134149,396,23.90999984741211,-1128.5625,0.14999,16,0.0,0.0,1561097980,,,,0,4.897539672169406,5,6.0,23.90999984741211,0.0,0.0,118.42602888149912,66.7128,I,,
Raw,1730970664000,2005640000000,18,41.205362503328246,-1415003876360000000,0.0,41.205362503328246,-3377.248487236257,0.0,0,20,0.0,16905,378667923272735,316,26.940000534057617,-1368.121337890625,0.14999,16,0.0,0.0,1561097980,,,,0,7.053200544209773,5,6.0,26.940000534057617,0.0,0.0,118.42602888149912,66.7128,I,,
Raw,1730970664000,2005640000000,18,41.205362503328246,-1415003876360000000,0.0,41.205362503328246,-3377.248487236257,0.0,0,32,0.0,16905,378667926725162,51,35.94599914550781,-753.6005859375,0.14999,16,0.0,0.0,1561097980,,,,0,20.971297229474786,5,6.0,35.94599914550781,0.0,0.0,118.42602888149912,66.7128,I,,
Raw,1730970664000,2005640000000,18,41.205362503328246,-1415003876360000000,0.0,41.205362503328246,-3377.248487236257,0.0,0,2,0.0,16905,378667881063903,74,30.0,-1007.9706420898438,0.14999,16,0.0,0.0,1561097980,,,,0,11.965622932752279,5,6.0,30.0,0.0,0.0,118.42602888149912,66.7128,I,,
Raw,1730970664000,2005640000000,18,41.205362503328246,-1415003876360000000,0.0,41.205362503328246,-3377.248487236257,0.0,0,8,0.0,16431,378681917236511,487,18.59000015258789,-845.1675122783187,0.14999,16,0.0,0.0,1575420030,,,,0,0.0,6,6.0,18.59000015258789,0.0,0.0,-23.320792695734532,66.7128,C,,
Raw,1730970664000,2005640000000,18,41.205362503328246,-1415003876360000000,0.0,41.205362503328246,-3377.248487236257,0.0,0,27,0.0,16431,378681921525497,396,23.600000381469727,-1031.332425628053,0.14999,16,0.0,0.0,1575420030,,,,0,4.255634592920579,6,6.0,23.600000381469727,0.0,0.0,-23.320792695734532,66.7128,C,,
Raw,1730970664000,2005640000000,18,41.205362503328246,-1415003876360000000,0.0,41.205362503328246,-3377.248487236257,0.0,0,7,0.0,32995,43863936729417,487,18.0,-990.1634295135755,0.14999,16,0.0,0.0,1604812540,,,,0,2.906637905002864,3,6.0,18.0,0.0,0.0,82.65158455803459,66.7128,C,,
Raw,1730970664000,2005640000000,18,41.205362503328246,-1415003876360000000,0.0,41.205362503328246,-3377.248487236257,0.0,0,11,0.0,32995,43863929100267,487,18.799999237060547,-1083.1954501815462,0.14999,16,0.0,0.0,1602000000,,,,0,4.075694990772417,3,6.0,18.799999237060547,0.0,0.0,82.65158455803459,66.7128,C,,
Raw,1730970664000,2005640000000,18,41.205362503328246,-1415003876360000000,0.0,41.205362503328246,-3377.248487236257,0.0,0,8,0.0,32995,43863930583952,487,20.0,-1640.677026015462,0.14999,16,0.0,0.0,1605374980,,,,0,0.0,3,6.0,20.0,0.0,0.0,82.65158455803459,66.7128,C,,
Raw,1730970664000,2005640000000,18,41.205362503328246,-1415003876360000000,0.0,41.205362503328246,-3377.248487236257,0.0,0,9,0.0,17,710053,797,17.884000778198242,-1088.115478515625,0.14999,16,0.0,0.0,1561097980,,,,0,0.0,5,6.0,17.884000778198242,0.0,0.0,118.42602888149912,66.7128,I,,
Raw,1730970664000,2005640000000,18,41.205362503328246,-1415003876360000000,0.0,41.205362503328246,-3377.248487236257,0.0,0,6,0.0,17,659455,797,19.0,-1098.963623046875,0.14999,16,0.0,0.0,1561097980,,,,0,0.0,5,6.0,19.0,0.0,0.0,118.42602888149912,66.7128,I,,
Raw,1730970664000,2005640000000,18,41.205362503328246,-1415003876360000000,0.0,41.205362503328246,-3377.248487236257,0.0,0,4,0.0,16431,378681932204720,487,18.825000762939453,-1254.4705261842848,0.14999,16,0.0,0.0,1575420030,,,,0,0.0,1,6.0,18.825000762939453,0.0,0.0,0.0,66.7128,C,,
Raw,1730970664000,2005640000000,18,41.205362503328246,-1415003876360000000,0.0,41.205362503328246,-3377.248487236257,0.0,0,27,0.0,16431,378681927537014,396,25.61199951171875,-942.9569033915565,0.14999,16,0.0,0.0,1575420030,,,,0,3.473836718504533,1,6.0,25.61199951171875,0.0,0.0,0.0,66.7128,C,,
Raw,1730970664000,2005640000000,18,41.205362503328246,-1415003876360000000,0.0,41.205362503328246,-3377.248487236257,0.0,0,7,0.0,16431,378681921123218,797,13.699999809265137,-1143.8109458619065,0.14999,16,0.0,0.0,1575420030,,,,0,0.0,1,6.0,13.699999809265137,0.0,0.0,0.0,66.7128,C,,
Raw,1730970665000,2006640000000,18,38.77965725922832,-1415003876360000000,0.0,38.77965725922832,-3379.1805121554057,0.0,0,3,0.0,16431,378682928112841,74,30.190000534057617,-534.9061296361291,0.14999,16,0.0,0.0,1575420030,,,,0,11.777004525713593,1,6.0,30.190000534057617,0.0,0.0,0.0,66.7128,C,,
Raw,1730970665000,2006640000000,18,38.77965725922832,-1415003876360000000,0.0,38.77965725922832,-3379.1805121554057,0.0,0,8,0.0,16431,378682930495713,396,24.53499984741211,-1284.3238681896848,0.14999,16,0.0,0.0,1575420030,,,,0,4.386580132795021,1,6.0,24.53499984741211,0.0,0.0,0.0,66.7128,C,,
Raw,1730970665000,2006640000000,18,38.77965725922832,-1415003876360000000,0.0,38.77965725922832,-3379.1805121554057,0.0,0,9,0.0,16431,378682928287252,487,19.37299919128418,-1517.027199142672,0.14999,16,0.0,0.0,1575420030,,,,0,0.0,1,6.0,19.37299919128418,0.0,0.0,0.0,66.7128,C,,
Raw,1730970665000,2006640000000,18,38.77965725922832,-1415003876360000000,0.0,38.77965725922832,-3379.1805121554057,0.0,0,30,0.0,16431,378682917088245,487,17.399999618530273,-616.2589976782407,0.14999,16,0.0,0.0,1575420030,,,,0,0.0,6,6.0,17.399999618530273,0.0,0.0,-30.159823814933567,66.7128,C,,
Raw,1730970665000,2006640000000,18,38.77965725922832,-1415003876360000000,0.0,38.77965725922832,-3379.1805121554057,0.0,0,16,0.0,16431,378682923529469,797,17.54400062561035,-358.5076580837579,0.14999,16,0.0,0.0,1575420030,,,,0,0.0,1,6.0,17.54400062561035,0.0,0.0,0.0,66.7128,C,,
Raw,1730970665000,2006640000000,18,38.77965725922832,-1415003876360000000,0.0,38.77965725922832,-3379.1805121554057,0.0,0,7,0.0,17,119831,487,19.864999771118164,-1109.6842041015625,0.14999,16,0.0,0.0,1561097980,,,,0,0.9366229732947751,5,6.0,19.864999771118164,0.0,0.0,116.31779840241819,66.7128,I,,
Raw,1730970665000,2006640000000,18,38.77965725922832,-1415003876360000000,0.0,38.77965725922832,-3379.1805121554057,0.0,0,10,0.0,16905,378668878137915,487,23.8439998626709,-1128.9114990234375,0.14999,16,0.0,0.0,1561097980,,,,0,2.9287013215533286,5,6.0,23.8439998626709,0.0,0.0,116.31779840241819,66.7128,I,,
Raw,1730970665000,2006640000000,18,38.77965725922832,-1415003876360000000,0.0,38.77965725922832,-3379.1805121554057,0.0,0,20,0.0,16905,378668923277300,316,26.868000030517578,-1368.4383544921875,0.14999,16,0.0,0.0,1561097980,,,,0,6.742263015909953,5,6.0,26.868000030517578,0.0,0.0,116.31779840241819,66.7128,I,,
Raw,1730970665000,2006640000000,18,38.77965725922832,-1415003876360000000,0.0,38.77965725922832,-3379.1805121554057,0.0,0,32,0.0,16905,378668926727675,51,35.99300003051758,-753.835693359375,0.14999,16,0.0,0.0,1561097980,,,,0,19.435984890343462,5,6.0,35.99300003051758,0.0,0.0,116.31779840241819,66.7128,I,,
Raw,1730970665000,2006640000000,18,38.77965725922832,-1415003876360000000,0.0,38.77965725922832,-3379.1805121554057,0.0,0,2,0.0,16905,378668881067268,74,30.0,-1009.1852416992188,0.14999,16,0.0,0.0,1561097980,,,,0,11.965622932752279,5,6.0,30.0,0.0,0.0,116.31779840241819,66.7128,I,,
Raw,1730970665000,2006640000000,18,38.77965725922832,-1415003876360000000,0.0,38.77965725922832,-3379.1805121554057,0.0,0,8,0.0,16431,378682917239327,797,18.485000610351562,-844.5681987092026,0.14999,16,0.0,0.0,1575420030,,,,0,0.0,6,6.0,18.485000610351562,0.0,0.0,-30.159823814933567,66.7128,C,,
Raw,1730970665000,2006640000000,18,38.77965725922832,-1415003876360000000,0.0,38.77965725922832,-3379.1805121554057,0.0,0,27,0.0,16431,378682921528939,396,20.200000762939453,-1031.7262071638536,0.14999,16,0.0,0.0,1575420030,,,,0,0.0,6,6.0,20.200000762939453,0.0,0.0,-30.159823814933567,66.7128,C,,
Raw,1730970665000,2006640000000,18,38.77965725922832,-1415003876360000000,0.0,38.77965725922832,-3379.1805121554057,0.0,0,7,0.0,32995,43864936732720,487,18.0,-989.3238862868332,0.14999,16,0.0,0.0,1604812540,,,,0,0.0,3,6.0,18.0,0.0,0.0,83.69143032308415,66.7128,C,,
Raw,1730970665000,2006640000000,18,38.77965725922832,-1415003876360000000,0.0,38.77965725922832,-3379.1805121554057,0.0,0,11,0.0,32995,43864929103870,316,18.799999237060547,-1085.0298982673155,0.14999,16,0.0,0.0,1602000000,,,,0,6.1258847131267675,3,6.0,18.799999237060547,0.0,0.0,83.69143032308415,66.7128,C,,
Raw,1730970665000,2006640000000,18,38.77965725922832,-1415003876360000000,0.0,38.77965725922832,-3379.1805121554057,0.0,0,8,0.0,32995,43864930589421,797,17.0,-1638.3746532599664,0.14999,16,0.0,0.0,1605374980,,,,0,0.0,3,6.0,17.0,0.0,0.0,83.69143032308415,66.7128,C,,
Raw,1730970665000,2006640000000,18,38.77965725922832,-1415003876360000000,0.0,38.77965725922832,-3379.1805121554057,0.0,0,9,0.0,17,713685,797,17.804000854492188,-1092.4473876953125,0.14999,16,0.0,0.0,1561097980,,,,0,0.0,5,6.0,17.804000854492188,0.0,0.0,116.31779840241819,66.7128,I,,
Raw,1730970665000,2006640000000,18,38.77965725922832,-1415003876360000000,0.0,38.77965725922832,-3379.1805121554057,0.0,0,6,0.0,17,663117,797,18.889999389648438,-1098.3775634765625,0.14999,16,0.0,0.0,1561097980,,,,0,0.0,5,6.0,18.889999389648438,0.0,0.0,116.31779840241819,66.7128,I,,
Raw,1730970665000,2006640000000,18,38.77965725922832,-1415003876360000000,0.0,38.77965725922832,-3379.1805121554057,0.0,0,4,0.0,16431,378682932208927,797,18.91699981689453,-1255.7426505369617,0.14999,16,0.0,0.0,1575420030,,,,0,0.0,1,6.0,18.91699981689453,0.0,0.0,0.0,66.7128,C,,
Raw,1730970665000,2006640000000,18,38.77965725922832,-1415003876360000000,0.0,38.77965725922832,-3379.1805121554057,0.0,0,27,0.0,16431,378682927540162,487,25.51799964904785,-945.0340591803297,0.14999,16,0.0,0.0,1575420030,,,,0,3.229835009707856,1,6.0,25.51799964904785,0.0,0.0,0.0,66.7128,C,,
Raw,1730970665000,2006640000000,18,38.77965725922832,-1415003876360000000,0.0,38.77965725922832,-3379.1805121554057,0.0,0,7,0.0,16431,378682921127041,797,13.699999809265137,-1147.0523495609157,0.14999,16,0.0,0.0,1575420030,,,,0,0.0,1,6.0,13.699999809265137,0.0,0.0,0.0,66.7128,C,,
Raw,1730970666000,2007640000000,18,39.18549119982013,-1415003876360000000,0.0,39.18549119982013,-3377.734306706976,0.0,0,3,0.0,16431,378683928114623,235,29.393999099731445,-534.1998687928965,0.14999,16,0.0,0.0,1575420030,,,,0,10.79893189696538,1,6.0,29.393999099731445,0.0,0.0,0.0,66.7128,C,,
Raw,1730970666000,2007640000000,18,39.18549119982013,-1415003876360000000,0.0,39.18549119982013,-3377.734306706976,0.0,0,8,0.0,16431,378683930499991,487,22.790000915527344,-1280.5703069103706,0.14999,16,0.0,0.0,1575420030,,,,0,1.7788216667356216,1,6.0,22.790000915527344,0.0,0.0,0.0,66.7128,C,,
Raw,1730970666000,2007640000000,18,39.18549119982013,-1415003876360000000,0.0,39.18549119982013,-3377.734306706976,0.0,0,9,0.0,16431,378683928292313,487,19.416000366210938,-1515.3469840620019,0.14999,16,0.0,0.0,1575420030,,,,0,0.0,1,6.0,19.416000366210938,0.0,0.0,0.0,66.7128,C,,
Raw,1730970666000,2007640000000,18,39.18549119982013,-1415003876360000000,0.0,39.18549119982013,-3377.734306706976,0.0,0,196,0.0,16431,378683877228451,797,16.0,-1011.1160458140372,0.14999,16,0.0,0.0,1575420030,,,,0,0.0,4,6.0,16.0,0.0,,0.0,,C,,
Raw,1730970666000,2007640000000,18,39.18549119982013,-1415003876360000000,0.0,39.18549119982013,-3377.734306706976,0.0,0,30,0.0,16431,378683917090297,797,15.100000381469727,-616.0483087607258,0.14999,16,0.0,0.0,1575420030,,,,0,0.0,6,6.0,15.100000381469727,0.0,0.0,-32.07717298325688,66.7128,C,,
Raw,1730970666000,2007640000000,18,39.18549119982013,-1415003876360000000,0.0,39.18549119982013,-3377.734306706976,0.0,0,16,0.0,16431,378683923530668,487,19.256000518798828,-356.45103691494984,0.14999,16,0.0,0.0,1575420030,,,,0,0.0,1,6.0,19.256000518798828,0.0,0.0,0.0,66.7128,C,,
Raw,1730970666000,2007640000000,18,39.18549119982013,-1415003876360000000,0.0,39.18549119982013,-3377.734306706976,0.0,0,7,0.0,17,123533,487,19.805999755859375,-1109.7291259765625,0.14999,16,0.0,0.0,1561097980,,,,0,0.0,5,6.0,19.805999755859375,0.0,0.0,116.48091712927733,66.7128,I,,
Raw,1730970666000,2007640000000,18,39.18549119982013,-1415003876360000000,0.0,39.18549119982013,-3377.734306706976,0.0,0,10,0.0,16905,378669878141682,487,19.899999618530273,-1129.4566650390625,0.14999,16,0.0,0.0,1561097980,,,,0,0.0,5,6.0,19.899999618530273,0.0,0.0,116.48091712927733,66.7128,I,,
Raw,1730970666000,2007640000000,18,39.18549119982013,-1415003876360000000,0.0,39.18549119982013,-3377.734306706976,0.0,0,20,0.0,16905,378669923281860,487,22.100000381469727,-1367.025634765625,0.14999,16,0.0,0.0,1561097980,,,,0,2.2920875808626824,5,6.0,22.100000381469727,0.0,0.0,116.48091712927733,66.7128,I,,
Raw,1730970666000,2007640000000,18,39.18549119982013,-1415003876360000000,0.0,39.18549119982013,-3377.734306706976,0.0,0,32,0.0,16905,378669926730186,51,36.05799865722656,-753.2897338867188,0.14999,16,0.0,0.0,1561097980,,,,0,19.917914383791754,5,6.0,36.05799865722656,0.0,0.0,116.48091712927733,66.7128,I,,
Raw,1730970666000,2007640000000,18,39.18549119982013,-1415003876360000000,0.0,39.18549119982013,-3377.734306706976,0.0,0,2,0.0,16905,378669881070627,235,29.989999771118164,-1005.5733642578125,0.14999,16,0.0,0.0,1561097980,,,,0,11.768207852226393,5,6.0,29.989999771118164,0.0,0.0,116.48091712927733,66.7128,I,,
Raw,1730970666000,2007640000000,18,39.18549119982013,-1415003876360000000,0.0,39.18549119982013,-3377.734306706976,0.0,0,8,0.0,16431,378683917242151,797,15.199999809265137,-847.9449822330495,0.14999,16,0.0,0.0,1575420030,,,,0,0.0,6,6.0,15.199999809265137,0.0,0.0,-32.07717298325688,66.7128,C,,
Raw,1730970666000,2007640000000,18,39.18549119982013,-1415003876360000000,0.0,39.18549119982013,-3377.734306706976,0.0,0,27,0.0,16431,378683921532382,487,18.700000762939453,-1030.2128707142115,0.14999,16,0.0,0.0,1575420030,,,,0,0.0,6,6.0,18.700000762939453,0.0,0.0,-32.07717298325688,66.7128,C,,
Raw,1730970666000,2007640000000,18,39.18549119982013,-1415003876360000000,0.0,39.18549119982013,-3377.734306706976,0.0,0,7,0.0,32995,43865936736024,487,19.0,-987.7279879496881,0.14999,16,0.0,0.0,1604812540,,,,0,0.0,3,6.0,19.0,0.0,0.0,83.57628086367211,66.7128,C,,
Raw,1730970666000,2007640000000,18,39.18549119982013,-1415003876360000000,0.0,39.18549119982013,-3377.734306706976,0.0,0,11,0.0,32995,43865929107483,396,18.799999237060547,-1083.5135271782867,0.14999,16,0.0,0.0,1602000000,,,,0,5.6968646914141186,3,6.0,18.799999237060547,0.0,0.0,83.57628086367211,66.7128,C,,
Raw,1730970666000,2007640000000,18,39.18549119982013,-1415003876360000000,0.0,39.18549119982013,-3377.734306706976,0.0,0,8,0.0,32995,43865930594887,797,17.0,-1639.418699519389,0.14999,16,0.0,0.0,1605374980,,,,0,0.0,3,6.0,17.0,0.0,0.0,83.57628086367211,66.7128,C,,
Raw,1730970666000,2007640000000,18,39.18549119982013,-1415003876360000000,0.0,39.18549119982013,-3377.734306706976,0.0,0,5,0.0,17,77252,235,28.399999618530273,-1009.4801635742188,0.14999,16,0.0,0.0,1561097980,,,,0,10.191236236569004,5,6.0,28.399999618530273,0.0,0.0,116.48091712927733,66.7128,I,,
Raw,1730970666000,2007640000000,18,39.18549119982013,-1415003876360000000,0.0,39.18549119982013,-3377.734306706976,0.0,0,9,0.0,17,717332,797,17.72800064086914,-1093.313232421875,0.14999,16,0.0,0.0,1561097980,,,,0,0.0,5,6.0,17.72800064086914,0.0,0.0,116.48091712927733,66.7128,I,,
Raw,1730970666000,2007640000000,18,39.18549119982013,-1415003876360000000,0.0,39.18549119982013,-3377.734306706976,0.0,0,6,0.0,17,666780,1797,18.78499984741211,-1096.943603515625,0.14999,16,0.0,0.0,1561097980,,,,0,0.0,5,6.0,18.78499984741211,0.0,0.0,116.48091712927733,66.7128,I,,
Raw,1730970666000,2007640000000,18,39.18549119982013,-1415003876360000000,0.0,39.18549119982013,-3377.734306706976,0.0,0,4,0.0,16431,378683932213116,487,19.0049991607666,-1254.7548516914933,0.14999,16,0.0,0.0,1575420030,,,,0,0.0,1,6.0,19.0049991607666,0.0,0.0,0.0,66.7128,C,,
