# 
# Header Description:
# 
# Version: v3.1.0.2 Platform: 14 Manufacturer: samsung Model: SM-S918B GNSS Hardware Model Name: Qualcomm GNSS GEN9
# 
# Raw,utcTimeMillis,TimeNanos,LeapSecond,TimeUncertaintyNanos,FullBiasNanos,BiasNanos,BiasUncertaintyNanos,DriftNanosPerSecond,DriftUncertaintyNanosPerSecond,HardwareClockDiscontinuityCount,Svid,TimeOffsetNanos,State,ReceivedSvTimeNanos,ReceivedSvTimeUncertaintyNanos,Cn0DbHz,PseudorangeRateMetersPerSecond,PseudorangeRateUncertaintyMetersPerSecond,AccumulatedDeltaRangeState,AccumulatedDeltaRangeMeters,AccumulatedDeltaRangeUncertaintyMeters,CarrierFrequencyHz,CarrierCycles,CarrierPhase,CarrierPhaseUncertainty,MultipathIndicator,SnrInDb,ConstellationType,AgcDb,BasebandCn0DbHz,FullInterSignalBiasNanos,FullInterSignalBiasUncertaintyNanos,SatelliteInterSignalBiasNanos,SatelliteInterSignalBiasUncertaintyNanos,CodeType,ChipsetElapsedRealtimeNanos,IsFullTracking
# 
# UncalAccel,utcTimeMillis,elapsedRealtimeNanos,UncalAccelXMps2,UncalAccelYMps2,UncalAccelZMps2,BiasXMps2,BiasYMps2,BiasZMps2
# 
# Accel,utcTimeMillis,elapsedRealtimeNanos,AccelXMps2,AccelYMps2,AccelZMps2
# 
# UncalGyro,utcTimeMillis,elapsedRealtimeNanos,UncalGyroXRadPerSec,UncalGyroYRadPerSec,UncalGyroZRadPerSec,DriftXRadPerSec,DriftYRadPerSec,DriftZRadPerSec
# 
# Gyro,utcTimeMillis,elapsedRealtimeNanos,GyroXRadPerSec,GyroYRadPerSec,GyroZRadPerSec
# 
# UncalMag,utcTimeMillis,elapsedRealtimeNanos,UncalMagXMicroT,UncalMagYMicroT,UncalMagZMicroT,BiasXMicroT,BiasYMicroT,BiasZMicroT
# 
# Mag,utcTimeMillis,elapsedRealtimeNanos,MagXMicroT,MagYMicroT,MagZMicroT
# 
# Pressure,utcTimeMillis,elapsedRealtimeNanos,PressureHpa
# 
# OrientationDeg,utcTimeMillis,elapsedRealtimeNanos,yawDeg,rollDeg,pitchDeg
# 
# Fix,Provider,LatitudeDegrees,LongitudeDegrees,AltitudeMeters,SpeedMps,AccuracyMeters,BearingDegrees,UnixTimeMillis,SpeedAccuracyMps,BearingAccuracyDegrees,elapsedRealtimeNanos,VerticalAccuracyMeters,MockLocation,NumberOfUsedSignals,VerticalSpeedAccuracyMps,SolutionType
# 
# Nav,Svid,Type,Status,MessageId,Sub-messageId,Data(Bytes)
# 
# Status,UnixTimeMillis,SignalCount,SignalIndex,ConstellationType,Svid,CarrierFrequencyHz,Cn0DbHz,AzimuthDegrees,ElevationDegrees,UsedInFix,HasAlmanacData,HasEphemerisData,BasebandCn0DbHz
# 
# Agc,utcTimeMillis,TimeNanos,LeapSecond,TimeUncertaintyNanos,FullBiasNanos,BiasNanos,BiasUncertaintyNanos,DriftNanosPerSecond,DriftUncertaintyNanosPerSecond,HardwareClockDiscontinuityCount,AgcDb,CarrierFrequencyHz,ConstellationType
# 
Status,,74,0,1,3,1575420030,34.30,202.72374,43.78446,1,1,1,29.3
Status,,74,1,1,4,1575420030,25.10,21.57888,64.07743,1,1,1,20.1
Status,,74,2,1,7,1575420030,26.20,310.21826,24.4185,1,1,1,21.2
Status,,74,3,1,8,1575420030,42.30,126.46426,50.04731,1,1,1,37.3
Status,,74,4,1,9,1575420030,18.10,338.5002,41.802063,1,1,1,13.1
Status,,74,5,1,14,1575420030,23.70,227.50636,6.6125765,1,1,1,18.7
Status,,74,6,1,16,1575420030,24.70,31.597776,23.81616,1,1,1,19.7
Status,,74,7,1,27,1575420030,27.30,79.97123,37.82944,1,1,1,22.3
Status,,74,8,4,194,1575420030,27.10,52.32146,24.52685,1,1,1,22.1
Status,,74,9,4,196,1575420030,26.30,130.3188,21.998652,1,1,1,21.3
Status,,74,10,2,123,1575420030,41.40,0.0,0.0,0,0,0,36.4
Status,,74,11,3,94,1598625020,39.60,0.0,0.0,0,0,0,34.6
Status,,74,12,3,6,1599750020,25.50,151.19987,32.761898,0,1,0,20.5
Status,,74,13,3,9,1600875010,15.10,23.49079,14.585613,1,1,1,10.1
Status,,74,14,3,11,1602000000,39.20,271.8634,33.91148,1,1,1,34.2
Status,,74,15,3,7,1604812540,32.30,103.418015,83.16162,1,1,1,27.3
Status,,74,16,3,8,1605374980,34.80,338.0094,39.9909,1,1,1,29.8
Status,,74,17,5,60,1561097980,26.20,170.37361,72.31984,0,1,0,21.2
Status,,74,18,5,59,1561097980,29.50,98.407684,18.153337,0,1,0,24.5
Status,,74,19,5,41,1561097980,24.20,150.5331,15.493639,1,1,1,19.2
Status,,74,20,5,40,1561097980,30.80,86.488976,51.677532,1,1,1,25.8
Status,,74,21,5,39,1561097980,31.90,56.656937,29.562391,1,1,1,26.9
Status,,74,22,5,37,1561097980,35.70,354.97278,44.52914,1,1,1,30.7
Status,,74,23,5,32,1561097980,28.40,172.3038,68.90701,1,1,1,23.4
Status,,74,24,5,28,1561097980,28.00,115.00928,20.700714,1,1,1,23.0
Status,,74,25,5,27,1561097980,17.40,161.70598,19.273829,0,1,1,12.4
Status,,74,26,5,23,1561097980,22.90,42.028313,13.05428,0,1,1,17.9
Status,,74,27,5,20,1561097980,36.20,316.2386,47.53057,1,1,1,31.2
Status,,74,28,5,13,1561097980,16.90,180.27756,22.909307,0,1,1,11.9
Status,,74,29,5,10,1561097980,20.60,122.96178,65.42242,1,1,1,15.6
Status,,74,30,5,9,1561097980,22.60,25.975725,38.94849,1,1,1,17.6
Status,,74,31,5,7,1561097980,31.50,96.21286,60.988403,1,1,1,26.5
Status,,74,32,5,6,1561097980,34.60,41.631824,35.113564,0,1,0,29.6
Status,,74,33,5,5,1561097980,36.00,237.4124,63.539223,1,1,1,31.0
Status,,74,34,5,3,1561097980,30.20,111.04599,48.632122,0,1,1,25.2
Status,,74,35,5,2,1561097980,33.20,154.11652,72.58347,1,1,1,28.2
Status,,74,36,6,7,1575420030,41.10,11.299852,60.910492,1,1,1,36.1
Status,,74,37,6,8,1575420030,29.30,107.78975,43.621548,1,1,1,24.3
Status,,74,38,6,13,1575420030,12.30,193.62012,8.084506,0,1,1,7.3
Status,,74,39,6,21,1575420030,25.60,227.95415,21.285227,1,1,1,20.6
Status,,74,40,6,27,1575420030,34.80,267.82172,69.8977,1,1,1,29.8
Status,,74,41,6,29,1575420030,23.50,326.1086,17.021894,0,1,0,18.5
Status,,74,42,6,30,1575420030,27.00,23.622929,45.3583,1,1,1,22.0
Status,,74,43,1,3,1176450050,22.90,202.72374,43.78446,1,1,1,17.9
Status,,74,44,1,4,1176450050,26.80,21.57888,64.07743,1,1,1,21.8
Status,,74,45,1,8,1176450050,30.30,126.46426,50.04731,1,1,1,25.3
Status,,74,46,1,9,1176450050,25.90,338.5002,41.802063,1,1,1,20.9
Status,,74,47,1,14,1176450050,17.70,227.50636,6.6125765,0,1,1,12.7
Status,,74,48,1,27,1176450050,24.60,79.97123,37.82944,1,1,1,19.6
Status,,74,49,4,194,1176450050,22.10,52.32146,24.52685,1,1,1,17.1
Status,,74,50,4,196,1176450050,14.80,130.3188,21.998652,0,1,1,9.8
Status,,74,51,6,7,1176450050,23.40,11.299852,60.910492,1,1,1,18.4
Status,,74,52,6,8,1176450050,24.80,107.78975,43.621548,1,1,1,19.8
Status,,74,53,6,21,1176450050,17.90,227.95415,21.285227,0,1,1,12.9
Status,,74,54,6,27,1176450050,22.80,267.82172,69.8977,1,1,1,17.8
Status,,74,55,6,29,1176450050,14.80,326.1086,17.021894,0,1,0,9.8
Status,,74,56,6,30,1176450050,21.80,23.622929,45.3583,1,1,1,16.8
Status,,74,57,5,20,1176450050,23.70,316.2386,47.53057,1,1,1,18.7
Status,,74,58,5,23,1176450050,17.00,42.028313,13.05428,0,1,1,12.0
Status,,74,59,5,28,1176450050,16.30,115.00928,20.700714,1,1,1,11.3
Status,,74,60,5,32,1176450050,30.50,172.3038,68.90701,1,1,1,25.5
Status,,74,61,5,37,1176450050,17.30,354.97278,44.52914,1,1,1,12.3
Status,,74,62,5,39,1176450050,25.70,56.656937,29.562391,1,1,1,20.7
Status,,74,63,5,40,1176450050,22.90,86.488976,51.677532,1,1,1,17.9
Status,,74,64,5,20,1575420030,41.00,316.2386,47.53057,1,1,1,36.0
Status,,74,65,5,23,1575420030,23.00,42.028313,13.05428,1,1,1,18.0
Status,,74,66,5,27,1575420030,20.90,161.70598,19.273829,1,1,1,15.9
Status,,74,67,5,28,1575420030,24.20,115.00928,20.700714,1,1,1,19.2
Status,,74,68,5,32,1575420030,30.10,172.3038,68.90701,1,1,1,25.1
Status,,74,69,5,37,1575420030,35.70,354.97278,44.52914,1,1,1,30.7
Status,,74,70,5,38,1575420030,19.10,162.46602,7.420457,0,1,1,14.1
Status,,74,71,5,39,1575420030,35.00,56.656937,29.562391,1,1,1,30.0
Status,,74,72,5,40,1575420030,28.70,86.488976,51.677532,1,1,1,23.7
Status,,74,73,5,41,1575420030,19.10,150.5331,15.493639,1,1,1,14.1
Raw,1730970653419,920903642000000,18,0.0,-1414084967777461572,-0.4384784698486328,17.647802451392636,-3.7785837931873236,9.704535597441119,42,3,0.0,16399,378671347104501,16,39.3,475.41375732421875,0.04740523174405098,16,0.0,0.0,1575420030,,,,0,0.0,1,-51.81,34.3,0.0,0.0,,,C,768695528934631,0
Raw,1730970653419,920903642000000,18,0.0,-1414084967777461572,-0.4384784698486328,17.647802451392636,-3.7785837931873236,9.704535597441119,42,7,0.0,16399,378671340095270,40,31.2,-133.68130493164062,0.7534999847412109,16,0.0,0.0,1575420030,,,,0,0.0,1,-51.81,26.2,0.0,0.0,,,C,768695528934631,0
Raw,1730970653419,920903642000000,18,0.0,-1414084967777461572,-0.4384784698486328,17.647802451392636,-3.7785837931873236,9.704535597441119,42,8,0.0,16399,378671349458489,7,47.3,-272.9512634277344,0.034205492585897446,16,0.0,0.0,1575420030,,,,0,0.0,1,-51.81,42.3,0.0,0.0,,,C,768695528934631,0
Raw,1730970653419,920903642000000,18,0.0,-1414084967777461572,-0.4384784698486328,17.647802451392636,-3.7785837931873236,9.704535597441119,42,9,0.0,16399,378671347241035,122,23.1,-504.04034423828125,5.057000160217285,16,0.0,0.0,1575420030,,,,0,0.0,1,-51.81,18.1,0.0,0.0,,,C,768695528934631,0
Raw,1730970653419,920903642000000,18,0.0,-1414084967777461572,-0.4384784698486328,17.647802451392636,-3.7785837931873236,9.704535597441119,42,14,0.0,16399,378671336249605,61,28.7,-541.4901733398438,0.9194999933242798,16,0.0,0.0,1575420030,,,,0,0.0,1,-51.81,23.7,0.0,0.0,,,C,768695528934631,0
Raw,1730970653419,920903642000000,18,0.0,-1414084967777461572,-0.4384784698486328,17.647802451392636,-3.7785837931873236,9.704535597441119,42,27,0.0,16399,378671346516020,35,32.3,67.00240325927734,0.684499979019165,16,0.0,0.0,1575420030,,,,0,0.0,1,-51.81,27.299999999999997,0.0,0.0,,,C,768695528934631,0
Raw,1730970653419,920903642000000,18,0.0,-1414084967777461572,-0.4384784698486328,17.647802451392636,-3.7785837931873236,9.704535597441119,42,194,0.0,16399,378671278587640,35,32.1,97.43035888671875,0.6664999723434448,16,0.0,0.0,1575420030,,,,0,0.0,4,-51.81,27.1,0.0,0.0,,,C,768695528934631,0
Raw,1730970653419,920903642000000,18,0.0,-1414084967777461572,-0.4384784698486328,17.647802451392636,-3.7785837931873236,9.704535597441119,42,196,0.0,16399,378671296198253,40,31.3,-2.0932302474975586,0.7294999957084656,16,0.0,0.0,1575420030,,,,0,0.0,4,-51.81,26.3,0.0,0.0,,,C,768695528934631,0
Raw,1730970653419,920903642000000,18,0.0,-1414084967777461572,-0.4384784698486328,17.647802451392636,-3.7785837931873236,9.704535597441119,42,6,0.0,49359,43853347556800,46,29.5,650.2015380859375,0.8629999756813049,16,0.0,0.0,1599750020,,,,0,0.0,3,-54.73,25.5,3782.926513671875,9.015798568725586,,,C,768695528934631,0
Raw,1730970653419,920903642000000,18,0.0,-1414084967777461572,-0.4384784698486328,17.647802451392636,-3.7785837931873236,9.704535597441119,42,11,0.0,49359,43853348070679,10,43.2,-74.17449188232422,0.03730122745037079,16,0.0,0.0,1602000000,,,,0,0.0,3,-54.73,39.2,3782.926513671875,9.015798568725586,,,C,768695528934631,0
Raw,1730970653419,920903642000000,18,0.0,-1414084967777461572,-0.4384784698486328,17.647802451392636,-3.7785837931873236,9.704535597441119,42,7,0.0,49359,43853355703165,19,36.3,20.427907943725586,0.04623781889677048,16,0.0,0.0,1604812540,,,,0,0.0,3,-54.73,32.3,3782.926513671875,9.015798568725586,,,C,768695528934631,0
Raw,1730970653419,920903642000000,18,0.0,-1414084967777461572,-0.4384784698486328,17.647802451392636,-3.7785837931873236,9.704535597441119,42,8,0.0,49359,43853349534739,16,38.8,-629.2694091796875,0.04413644224405289,16,0.0,0.0,1605374980,,,,0,0.0,3,-54.73,34.8,3782.926513671875,9.015798568725586,,,C,768695528934631,0
Raw,1730970653419,920903642000000,18,0.0,-1414084967777461572,-0.4384784698486328,17.647802451392636,-3.7785837931873236,9.704535597441119,42,60,0.0,16399,378657299295077,40,30.5,0.09601974487304688,6.622200012207031,16,0.0,0.0,1561097980,,,,0,0.0,5,-60.72,26.2,-1541.912841796875,6.93842887878418,,,I,768695528934631,0
Raw,1730970653419,920903642000000,18,0.0,-1414084967777461572,-0.4384784698486328,17.647802451392636,-3.7785837931873236,9.704535597441119,42,40,0.0,16399,378657295462851,24,35.1,-134.38096618652344,0.0977005660533905,16,0.0,0.0,1561097980,,,,0,0.0,5,-60.72,30.8,-1541.912841796875,6.93842887878418,,,I,768695528934631,0
Raw,1730970653419,920903642000000,18,0.0,-1414084967777461572,-0.4384784698486328,17.647802451392636,-3.7785837931873236,9.704535597441119,42,39,0.0,16399,378657290737727,21,36.2,-116.6181869506836,0.07299555093050003,16,0.0,0.0,1561097980,,,,0,0.0,5,-60.72,31.900000000000002,-1541.912841796875,6.93842887878418,,,I,768695528934631,0
Raw,1730970653419,920903642000000,18,0.0,-1414084967777461572,-0.4384784698486328,17.647802451392636,-3.7785837931873236,9.704535597441119,42,37,0.0,16399,378657341615788,14,40.0,239.47537231445312,0.05158277228474617,16,0.0,0.0,1561097980,,,,0,0.0,5,-60.72,35.7,-1541.912841796875,6.93842887878418,,,I,768695528934631,0
Raw,1730970653419,920903642000000,18,0.0,-1414084967777461572,-0.4384784698486328,17.647802451392636,-3.7785837931873236,9.704535597441119,42,32,0.0,16399,378657345712607,31,32.7,256.1038513183594,0.6859999895095825,16,0.0,0.0,1561097980,,,,0,0.0,5,-60.72,28.400000000000002,-1541.912841796875,6.93842887878418,,,I,768695528934631,0
Raw,1730970653419,920903642000000,18,0.0,-1414084967777461572,-0.4384784698486328,17.647802451392636,-3.7785837931873236,9.704535597441119,42,28,0.0,16399,378657336393784,31,32.3,-225.88644409179688,0.6694999933242798,16,0.0,0.0,1561097980,,,,0,0.0,5,-60.72,27.999999999999996,-1541.912841796875,6.93842887878418,,,I,768695528934631,0
Raw,1730970653419,920903642000000,18,0.0,-1414084967777461572,-0.4384784698486328,17.647802451392636,-3.7785837931873236,9.704535597441119,42,27,0.0,16399,378657336022883,139,21.7,-345.69989013671875,6.810500144958496,16,0.0,0.0,1561097980,,,,0,0.0,5,-60.72,17.4,-1541.912841796875,6.93842887878418,,,I,768695528934631,0
Raw,1730970653419,920903642000000,18,0.0,-1414084967777461572,-0.4384784698486328,17.647802451392636,-3.7785837931873236,9.704535597441119,42,20,0.0,16399,378657342238542,13,40.5,-357.3147277832031,0.04896894097328186,16,0.0,0.0,1561097980,,,,0,0.0,5,-60.72,36.2,-1541.912841796875,6.93842887878418,,,I,768695528934631,0
Raw,1730970653419,920903642000000,18,0.0,-1414084967777461572,-0.4384784698486328,17.647802451392636,-3.7785837931873236,9.704535597441119,42,13,0.0,16399,378657289309638,159,21.2,295.9424743652344,9.80000114440918,16,0.0,0.0,1561097980,,,,0,0.0,5,-60.72,16.9,-1541.912841796875,6.93842887878418,,,I,768695528934631,0
Raw,1730970653419,920903642000000,18,0.0,-1414084967777461572,-0.4384784698486328,17.647802451392636,-3.7785837931873236,9.704535597441119,42,10,0.0,16399,378657297108265,92,24.9,-116.89443969726562,2.7220001220703125,16,0.0,0.0,1561097980,,,,0,0.0,5,-60.72,20.599999999999998,-1541.912841796875,6.93842887878418,,,I,768695528934631,0
Raw,1730970653419,920903642000000,18,0.0,-1414084967777461572,-0.4384784698486328,17.647802451392636,-3.7785837931873236,9.704535597441119,42,7,0.0,16399,378657297091067,21,35.8,-98.38541412353516,0.062495552003383636,16,0.0,0.0,1561097980,,,,0,0.0,5,-60.72,31.499999999999996,-1541.912841796875,6.93842887878418,,,I,768695528934631,0
Raw,1730970653419,920903642000000,18,0.0,-1414084967777461572,-0.4384784698486328,17.647802451392636,-3.7785837931873236,9.704535597441119,42,6,0.0,16399,378657292634770,16,38.9,-87.23345184326172,0.04003738984465599,16,0.0,0.0,1561097980,,,,0,0.0,5,-60.72,34.6,-1541.912841796875,6.93842887878418,,,I,768695528934631,0
Raw,1730970653419,920903642000000,18,0.0,-1414084967777461572,-0.4384784698486328,17.647802451392636,-3.7785837931873236,9.704535597441119,42,5,0.0,16399,378657298048912,13,40.3,1.6035298109054565,1.3622000217437744,16,0.0,0.0,1561097980,,,,0,0.0,5,-60.72,36.0,-1541.912841796875,6.93842887878418,,,I,768695528934631,0
Raw,1730970653419,920903642000000,18,0.0,-1414084967777461572,-0.4384784698486328,17.647802451392636,-3.7785837931873236,9.704535597441119,42,2,0.0,16399,378657300042384,17,37.5,0.9313914775848389,1.829800009727478,16,0.0,0.0,1561097980,,,,0,0.0,5,-60.72,33.2,-1541.912841796875,6.93842887878418,,,I,768695528934631,0
Raw,1730970653419,920903642000000,18,0.0,-1414084967777461572,-0.4384784698486328,17.647802451392636,-3.7785837931873236,9.704535597441119,42,7,0.0,23567,378671339723604,8,45.4,-246.3269805908203,0.058700256049633026,16,0.0,0.0,1575420030,,,,0,0.0,6,-55.56,41.1,-1455.330078125,7.182934284210205,,,C,768695528934631,0
Raw,1730970653419,920903642000000,18,0.0,-1414084967777461572,-0.4384784698486328,17.647802451392636,-3.7785837931873236,9.704535597441119,42,8,0.0,23567,378671336220495,27,33.6,164.72291564941406,0.03714597225189209,16,0.0,0.0,1575420030,,,,0,0.0,6,-55.56,29.3,-1455.330078125,7.182934284210205,,,C,768695528934631,0
Raw,1730970653419,920903642000000,18,0.0,-1414084967777461572,-0.4384784698486328,17.647802451392636,-3.7785837931873236,9.704535597441119,42,21,0.0,23567,378671329903878,46,29.9,-400.2303771972656,0.0712432786822319,16,0.0,0.0,1575420030,,,,0,0.0,6,-55.56,25.599999999999998,-1455.330078125,7.182934284210205,,,C,768695528934631,0
Raw,1730970653419,920903642000000,18,0.0,-1414084967777461572,-0.4384784698486328,17.647802451392636,-3.7785837931873236,9.704535597441119,42,27,0.0,23567,378671340502917,16,39.1,-21.22834587097168,0.03630868345499039,16,0.0,0.0,1575420030,,,,0,0.0,6,-55.56,34.800000000000004,-1455.330078125,7.182934284210205,,,C,768695528934631,0
Raw,1730970653419,920903642000000,18,0.0,-1414084967777461572,-0.4384784698486328,17.647802451392636,-3.7785837931873236,9.704535597441119,42,29,0.0,23567,378671329089958,61,27.8,-461.148193359375,1.0069999694824219,16,0.0,0.0,1575420030,,,,0,0.0,6,-55.56,23.5,-1455.330078125,7.182934284210205,,,C,768695528934631,0
Raw,1730970653419,920903642000000,18,0.0,-1414084967777461572,-0.4384784698486328,17.647802451392636,-3.7785837931873236,9.704535597441119,42,30,0.0,23567,378671336078263,35,31.3,394.6678161621094,0.040552228689193726,16,0.0,0.0,1575420030,,,,0,0.0,6,-55.56,27.0,-1455.330078125,7.182934284210205,,,C,768695528934631,0
Raw,1730970653419,920903642000000,18,0.0,-1414084967777461572,-0.4384784698486328,17.647802451392636,-3.7785837931873236,9.704535597441119,42,3,0.0,81935,378671347104467,14,27.9,475.3052673339844,0.9920000433921814,16,0.0,0.0,1176450050,,,,0,0.0,1,-40.4,22.9,20.842744827270508,5.361103057861328,,,Q,768695528934631,0
Raw,1730970653419,920903642000000,18,0.0,-1414084967777461572,-0.4384784698486328,17.647802451392636,-3.7785837931873236,9.704535597441119,42,4,0.0,81935,378671351172768,9,31.8,-244.3988037109375,0.07687202095985413,16,0.0,0.0,1176450050,,,,0,0.0,1,-40.4,26.8,20.842744827270508,5.361103057861328,,,Q,768695528934631,0
Raw,1730970653419,920903642000000,18,0.0,-1414084967777461572,-0.4384784698486328,17.647802451392636,-3.7785837931873236,9.704535597441119,42,8,0.0,81935,378671349458437,6,35.3,-272.9486999511719,0.02891361154615879,16,0.0,0.0,1176450050,,,,0,0.0,1,-40.4,30.299999999999997,20.842744827270508,5.361103057861328,,,Q,768695528934631,0
Raw,1730970653419,920903642000000,18,0.0,-1414084967777461572,-0.4384784698486328,17.647802451392636,-3.7785837931873236,9.704535597441119,42,9,0.0,81935,378671347241033,10,30.9,-504.6208801269531,0.07124751806259155,16,0.0,0.0,1176450050,,,,0,0.0,1,-40.4,25.9,20.842744827270508,5.361103057861328,,,Q,768695528934631,0
Raw,1730970653419,920903642000000,18,0.0,-1414084967777461572,-0.4384784698486328,17.647802451392636,-3.7785837931873236,9.704535597441119,42,27,0.0,81935,378671346516024,11,29.6,67.17778778076172,0.17385150492191315,16,0.0,0.0,1176450050,,,,0,0.0,1,-40.4,24.6,20.842744827270508,5.361103057861328,,,Q,768695528934631,0
Raw,1730970653419,920903642000000,18,0.0,-1414084967777461572,-0.4384784698486328,17.647802451392636,-3.7785837931873236,9.704535597441119,42,194,0.0,16399,378671278587504,14,27.1,97.28060150146484,1.0084999799728394,16,0.0,0.0,1176450050,,,,0,0.0,4,-40.4,22.1,20.842744827270508,5.361103057861328,,,Q,768695528934631,0
Raw,1730970653419,920903642000000,18,0.0,-1414084967777461572,-0.4384784698486328,17.647802451392636,-3.7785837931873236,9.704535597441119,42,7,0.0,81935,378671339723553,12,28.7,-246.20211791992188,0.9299999475479126,16,0.0,0.0,1176450050,,,,0,0.0,6,-40.4,23.4,-1441.3817138671875,43.254791259765625,,,Q,768695528934631,0
Raw,1730970653419,920903642000000,18,0.0,-1414084967777461572,-0.4384784698486328,17.647802451392636,-3.7785837931873236,9.704535597441119,42,8,0.0,81935,378671336220429,11,30.1,164.74058532714844,0.1588515043258667,16,0.0,0.0,1176450050,,,,0,0.0,6,-40.4,24.8,-1441.3817138671875,43.254791259765625,,,Q,768695528934631,0
Raw,1730970653419,920903642000000,18,0.0,-1414084967777461572,-0.4384784698486328,17.647802451392636,-3.7785837931873236,9.704535597441119,42,27,0.0,81935,378671340502853,14,28.1,-21.125244140625,0.9014999866485596,16,0.0,0.0,1176450050,,,,0,0.0,6,-40.4,22.8,-1441.3817138671875,43.254791259765625,,,Q,768695528934631,0
Raw,1730970653419,920903642000000,18,0.0,-1414084967777461572,-0.4384784698486328,17.647802451392636,-3.7785837931873236,9.704535597441119,42,28,0.0,16399,378657336393717,30,20.8,-225.14056396484375,4.045499801635742,16,0.0,0.0,1176450050,,,,0,0.0,5,-40.4,16.3,-1505.0877685546875,42.91832733154297,,,Q,768695528934631,0
Raw,1730970653419,920903642000000,18,0.0,-1414084967777461572,-0.4384784698486328,17.647802451392636,-3.7785837931873236,9.704535597441119,42,32,0.0,16399,378657345712550,6,35.0,256.4748229980469,0.10702034831047058,16,0.0,0.0,1176450050,,,,0,0.0,5,-40.4,30.5,-1505.0877685546875,42.91832733154297,,,Q,768695528934631,0
Raw,1730970653419,920903642000000,18,0.0,-1414084967777461572,-0.4384784698486328,17.647802451392636,-3.7785837931873236,9.704535597441119,42,37,0.0,16399,378657341615660,27,21.8,239.93333435058594,3.1130001544952393,16,0.0,0.0,1176450050,,,,0,0.0,5,-40.4,17.3,-1505.0877685546875,42.91832733154297,,,Q,768695528934631,0
Raw,1730970653419,920903642000000,18,0.0,-1414084967777461572,-0.4384784698486328,17.647802451392636,-3.7785837931873236,9.704535597441119,42,39,0.0,16399,378657290737605,10,30.2,-116.65351867675781,0.1357475221157074,16,0.0,0.0,1176450050,,,,0,0.0,5,-40.4,25.7,-1505.0877685546875,42.91832733154297,,,Q,768695528934631,0
Raw,1730970653419,920903642000000,18,0.0,-1414084967777461572,-0.4384784698486328,17.647802451392636,-3.7785837931873236,9.704535597441119,42,40,0.0,16399,378657295462777,14,27.4,-134.53646850585938,1.034000039100647,16,0.0,0.0,1176450050,,,,0,0.0,5,-40.4,22.9,-1505.0877685546875,42.91832733154297,,,Q,768695528934631,0
Raw,1730970653419,920903642000000,18,0.0,-1414084967777461572,-0.4384784698486328,17.647802451392636,-3.7785837931873236,9.704535597441119,42,20,0.0,16399,378657342238544,2,48.0,-357.3154296875,0.08420025557279587,16,0.0,0.0,1575420030,,,,0,0.0,5,-55.56,41.0,-1548.7880859375,39.208675384521484,,,P,768695528934631,0
Raw,1730970653419,920903642000000,18,0.0,-1414084967777461572,-0.4384784698486328,17.647802451392636,-3.7785837931873236,9.704535597441119,42,27,0.0,16399,378657336022875,18,27.9,-345.5923156738281,2.015500068664551,16,0.0,0.0,1575420030,,,,0,0.0,5,-55.56,20.9,-1548.7880859375,39.208675384521484,,,P,768695528934631,0
Raw,1730970653419,920903642000000,18,0.0,-1414084967777461572,-0.4384784698486328,17.647802451392636,-3.7785837931873236,9.704535597441119,42,28,0.0,16399,378657336393806,11,31.2,-225.4733123779297,0.18508067727088928,16,0.0,0.0,1575420030,,,,0,0.0,5,-55.56,24.2,-1548.7880859375,39.208675384521484,,,P,768695528934631,0
Raw,1730970653419,920903642000000,18,0.0,-1414084967777461572,-0.4384784698486328,17.647802451392636,-3.7785837931873236,9.704535597441119,42,32,0.0,16399,378657345712624,6,37.1,256.4745788574219,0.09439004212617874,16,0.0,0.0,1575420030,,,,0,0.0,5,-55.56,30.1,-1548.7880859375,39.208675384521484,,,P,768695528934631,0
Raw,1730970653419,920903642000000,18,0.0,-1414084967777461572,-0.4384784698486328,17.647802451392636,-3.7785837931873236,9.704535597441119,42,37,0.0,16399,378657341615795,4,42.7,239.4657745361328,0.08751468360424042,16,0.0,0.0,1575420030,,,,0,0.0,5,-55.56,35.7,-1548.7880859375,39.208675384521484,,,P,768695528934631,0
Raw,1730970653419,920903642000000,18,0.0,-1414084967777461572,-0.4384784698486328,17.647802451392636,-3.7785837931873236,9.704535597441119,42,39,0.0,16399,378657290737697,4,42.0,-116.60833740234375,0.08601468801498413,16,0.0,0.0,1575420030,,,,0,0.0,5,-55.56,35.0,-1548.7880859375,39.208675384521484,,,P,768695528934631,0
Raw,1730970653419,920903642000000,18,0.0,-1414084967777461572,-0.4384784698486328,17.647802451392636,-3.7785837931873236,9.704535597441119,42,40,0.0,16399,378657295462844,8,35.7,-134.3802032470703,3.5224926471710205,16,0.0,0.0,1575420030,,,,0,0.0,5,-55.56,28.700000000000003,-1548.7880859375,39.208675384521484,,,P,768695528934631,0
Agc,1730970653419,920903642000000,18,0.0,-1414084967777461572,-0.4384784698486328,17.647802451392636,-3.7785837931873236,9.704535597441119,42,-51.81,1575420000,1
Agc,1730970653419,920903642000000,18,0.0,-1414084967777461572,-0.4384784698486328,17.647802451392636,-3.7785837931873236,9.704535597441119,42,-51.81,1575420000,4
Agc,1730970653419,920903642000000,18,0.0,-1414084967777461572,-0.4384784698486328,17.647802451392636,-3.7785837931873236,9.704535597441119,42,-54.73,1602000000,3
Agc,1730970653419,920903642000000,18,0.0,-1414084967777461572,-0.4384784698486328,17.647802451392636,-3.7785837931873236,9.704535597441119,42,-60.72,1561098000,5
Agc,1730970653419,920903642000000,18,0.0,-1414084967777461572,-0.4384784698486328,17.647802451392636,-3.7785837931873236,9.704535597441119,42,-55.56,1575420000,6
Agc,1730970653419,920903642000000,18,0.0,-1414084967777461572,-0.4384784698486328,17.647802451392636,-3.7785837931873236,9.704535597441119,42,-40.4,1176450000,1
Agc,1730970653419,920903642000000,18,0.0,-1414084967777461572,-0.4384784698486328,17.647802451392636,-3.7785837931873236,9.704535597441119,42,-40.4,1176450000,4
Agc,1730970653419,920903642000000,18,0.0,-1414084967777461572,-0.4384784698486328,17.647802451392636,-3.7785837931873236,9.704535597441119,42,-40.4,1176450000,6
Agc,1730970653419,920903642000000,18,0.0,-1414084967777461572,-0.4384784698486328,17.647802451392636,-3.7785837931873236,9.704535597441119,42,-40.4,1176450000,5
Agc,1730970653419,920903642000000,18,0.0,-1414084967777461572,-0.4384784698486328,17.647802451392636,-3.7785837931873236,9.704535597441119,42,-55.56,1575420000,5
Status,,74,0,1,3,1575420030,33.20,202.72374,43.78446,1,1,1,28.2
Status,,74,1,1,4,1575420030,28.50,21.57888,64.07743,1,1,1,23.5
Status,,74,2,1,7,1575420030,27.40,310.21826,24.4185,1,1,1,22.4
Status,,74,3,1,8,1575420030,39.80,126.46426,50.04731,1,1,1,34.8
Status,,74,4,1,9,1575420030,24.80,338.5002,41.802063,0,1,1,19.8
Status,,74,5,1,14,1575420030,23.70,227.50636,6.6125765,1,1,1,18.7
Status,,74,6,1,16,1575420030,21.00,31.597776,23.81616,1,1,1,16.0
Status,,74,7,1,27,1575420030,30.70,79.97123,37.82944,1,1,1,25.7
Status,,74,8,4,194,1575420030,26.60,52.32146,24.52685,1,1,1,21.6
Status,,74,9,4,196,1575420030,30.60,130.3188,21.998652,1,1,1,25.6
Status,,74,10,2,123,1575420030,42.10,0.0,0.0,0,0,0,37.1
Status,,74,11,3,94,1598625020,37.70,0.0,0.0,0,0,0,32.7
Status,,74,12,3,6,1599750020,23.20,151.19987,32.761898,0,1,0,18.2
Status,,74,13,3,9,1600875010,15.10,23.49079,14.585613,1,1,1,10.1
Status,,74,14,3,11,1602000000,40.70,271.8634,33.91148,1,1,1,35.7
Status,,74,15,3,7,1604812540,32.80,103.418015,83.16162,1,1,1,27.8
Status,,74,16,3,8,1605374980,35.40,338.0094,39.9909,1,1,1,30.4
Status,,74,17,5,60,1561097980,35.00,170.37361,72.31984,0,1,0,30.0
Status,,74,18,5,59,1561097980,29.50,98.407684,18.153337,0,1,0,24.5
Status,,74,19,5,41,1561097980,24.20,150.5331,15.493639,1,1,1,19.2
Status,,74,20,5,40,1561097980,29.40,86.488976,51.677532,1,1,1,24.4
Status,,74,21,5,39,1561097980,32.90,56.656937,29.562391,1,1,1,27.9
Status,,74,22,5,37,1561097980,39.20,354.97278,44.52914,1,1,1,34.2
Status,,74,23,5,32,1561097980,34.70,172.3038,68.90701,1,1,1,29.7
Status,,74,24,5,28,1561097980,28.00,115.00928,20.700714,1,1,1,23.0
Status,,74,25,5,27,1561097980,22.70,161.70598,19.273829,1,1,1,17.7
Status,,74,26,5,23,1561097980,22.90,42.028313,13.05428,0,1,1,17.9
Status,,74,27,5,20,1561097980,40.50,316.2386,47.53057,1,1,1,35.5
Status,,74,28,5,13,1561097980,16.90,180.27756,22.909307,1,1,1,11.9
Status,,74,29,5,10,1561097980,24.60,122.96178,65.42242,1,1,1,19.6
Status,,74,30,5,9,1561097980,22.60,25.975725,38.94849,1,1,1,17.6
Status,,74,31,5,7,1561097980,30.40,96.21286,60.988403,1,1,1,25.4
Status,,74,32,5,6,1561097980,33.50,41.631824,35.113564,0,1,0,28.5
Status,,74,33,5,5,1561097980,35.50,237.4124,63.539223,1,1,1,30.5
Status,,74,34,5,3,1561097980,31.70,111.04599,48.632122,0,1,1,26.7
Status,,74,35,5,2,1561097980,34.00,154.11652,72.58347,1,1,1,29.0
Status,,74,36,6,7,1575420030,40.30,11.299852,60.910492,1,1,1,35.3
Status,,74,37,6,8,1575420030,31.70,107.78975,43.621548,1,1,1,26.7
Status,,74,38,6,13,1575420030,12.30,193.62012,8.084506,0,1,1,7.3
Status,,74,39,6,21,1575420030,21.90,227.95415,21.285227,1,1,1,16.9
Status,,74,40,6,27,1575420030,31.80,267.82172,69.8977,1,1,1,26.8
Status,,74,41,6,29,1575420030,20.90,326.1086,17.021894,0,1,0,15.9
Status,,74,42,6,30,1575420030,27.10,23.622929,45.3583,1,1,1,22.1
Status,,74,43,1,3,1176450050,23.50,202.72374,43.78446,1,1,1,18.5
Status,,74,44,1,4,1176450050,26.30,21.57888,64.07743,1,1,1,21.3
Status,,74,45,1,8,1176450050,27.10,126.46426,50.04731,1,1,1,22.1
Status,,74,46,1,9,1176450050,28.60,338.5002,41.802063,1,1,1,23.6
Status,,74,47,1,14,1176450050,17.70,227.50636,6.6125765,0,1,1,12.7
Status,,74,48,1,27,1176450050,25.60,79.97123,37.82944,1,1,1,20.6
Status,,74,49,4,194,1176450050,22.10,52.32146,24.52685,1,1,1,17.1
Status,,74,50,4,196,1176450050,14.80,130.3188,21.998652,0,1,1,9.8
Status,,74,51,6,7,1176450050,21.60,11.299852,60.910492,1,1,1,16.6
Status,,74,52,6,8,1176450050,24.90,107.78975,43.621548,1,1,1,19.9
Status,,74,53,6,21,1176450050,17.90,227.95415,21.285227,0,1,1,12.9
Status,,74,54,6,27,1176450050,23.80,267.82172,69.8977,1,1,1,18.8
Status,,74,55,6,29,1176450050,14.80,326.1086,17.021894,0,1,0,9.8
Status,,74,56,6,30,1176450050,21.80,23.622929,45.3583,1,1,1,16.8
Status,,74,57,5,20,1176450050,20.20,316.2386,47.53057,1,1,1,15.2
Status,,74,58,5,27,1176450050,16.00,161.70598,19.273829,0,1,1,11.0
Status,,74,59,5,28,1176450050,16.30,115.00928,20.700714,1,1,1,11.3
Status,,74,60,5,32,1176450050,28.70,172.3038,68.90701,1,1,1,23.7
Status,,74,61,5,37,1176450050,21.70,354.97278,44.52914,1,1,1,16.7
Status,,74,62,5,39,1176450050,22.80,56.656937,29.562391,1,1,1,17.8
Status,,74,63,5,40,1176450050,22.90,86.488976,51.677532,1,1,1,17.9
Status,,74,64,5,20,1575420030,42.00,316.2386,47.53057,1,1,1,37.0
Status,,74,65,5,23,1575420030,20.40,42.028313,13.05428,1,1,1,15.4
Status,,74,66,5,27,1575420030,20.90,161.70598,19.273829,1,1,1,15.9
Status,,74,67,5,28,1575420030,21.80,115.00928,20.700714,1,1,1,16.8
Status,,74,68,5,32,1575420030,34.90,172.3038,68.90701,1,1,1,29.9
Status,,74,69,5,37,1575420030,37.10,354.97278,44.52914,1,1,1,32.1
Status,,74,70,5,38,1575420030,19.10,162.46602,7.420457,0,1,1,14.1
Status,,74,71,5,39,1575420030,35.40,56.656937,29.562391,1,1,1,30.4
Status,,74,72,5,40,1575420030,30.10,86.488976,51.677532,1,1,1,25.1
Status,,74,73,5,41,1575420030,17.60,150.5331,15.493639,1,1,1,12.6
Raw,1730970654419,920904642000000,18,0.0,-1414084967777461576,-0.014757156372070312,17.684798876871355,-4.98594342473032,9.676945786138422,42,3,0.0,16399,378672347102912,17,38.2,475.6383361816406,2.3323183059692383,16,0.0,0.0,1575420030,,,,0,0.0,1,-51.76,33.2,0.0,0.0,,,C,768696531270152,0
Raw,1730970654419,920904642000000,18,0.0,-1414084967777461576,-0.014757156372070312,17.684798876871355,-4.98594342473032,9.676945786138422,42,4,0.0,16399,378672351173629,31,33.5,-243.85183715820312,2.072999954223633,16,0.0,0.0,1575420030,,,,0,0.0,1,-51.76,28.5,0.0,0.0,,,C,768696531270152,0
Raw,1730970654419,920904642000000,18,0.0,-1414084967777461576,-0.014757156372070312,17.684798876871355,-4.98594342473032,9.676945786138422,42,7,0.0,16399,378672340095646,35,32.4,-133.30072021484375,0.6934999823570251,16,0.0,0.0,1575420030,,,,0,0.0,1,-51.76,27.4,0.0,0.0,,,C,768696531270152,0
Raw,1730970654419,920904642000000,18,0.0,-1414084967777461576,-0.014757156372070312,17.684798876871355,-4.98594342473032,9.676945786138422,42,8,0.0,16399,378672349459392,10,44.8,-272.53167724609375,0.03589910641312599,16,0.0,0.0,1575420030,,,,0,0.0,1,-51.76,39.8,0.0,0.0,,,C,768696531270152,0
Raw,1730970654419,920904642000000,18,0.0,-1414084967777461576,-0.014757156372070312,17.684798876871355,-4.98594342473032,9.676945786138422,42,9,0.0,16399,378672347242720,53,29.8,-504.0783996582031,0.8629999756813049,16,0.0,0.0,1575420030,,,,0,0.0,1,-51.76,24.8,0.0,0.0,,,C,768696531270152,0
Raw,1730970654419,920904642000000,18,0.0,-1414084967777461576,-0.014757156372070312,17.684798876871355,-4.98594342473032,9.676945786138422,42,16,0.0,16399,378672342525926,80,26.0,654.6197509765625,1.7695000171661377,16,0.0,0.0,1575420030,,,,0,0.0,1,-51.76,21.0,0.0,0.0,,,C,768696531270152,0
Raw,1730970654419,920904642000000,18,0.0,-1414084967777461576,-0.014757156372070312,17.684798876871355,-4.98594342473032,9.676945786138422,42,27,0.0,16399,378672346515870,24,35.7,67.49391174316406,5.819313049316406,16,0.0,0.0,1575420030,,,,0,0.0,1,-51.76,30.700000000000003,0.0,0.0,,,C,768696531270152,0
Raw,1730970654419,920904642000000,18,0.0,-1414084967777461576,-0.014757156372070312,17.684798876871355,-4.98594342473032,9.676945786138422,42,194,0.0,16399,378672278587268,40,31.6,97.59211730957031,0.7264999747276306,16,0.0,0.0,1575420030,,,,0,0.0,4,-51.76,26.6,0.0,0.0,,,C,768696531270152,0
Raw,1730970654419,920904642000000,18,0.0,-1414084967777461576,-0.014757156372070312,17.684798876871355,-4.98594342473032,9.676945786138422,42,196,0.0,16399,378672296198294,24,35.6,-1.4741567373275757,0.0955032929778099,16,0.0,0.0,1575420030,,,,0,0.0,4,-51.76,30.6,0.0,0.0,,,C,768696531270152,0
Raw,1730970654419,920904642000000,18,0.0,-1414084967777461576,-0.014757156372070312,17.684798876871355,-4.98594342473032,9.676945786138422,42,6,0.0,49359,43854347554632,61,27.2,650.66064453125,1.0130000114440918,16,0.0,0.0,1599750020,,,,0,0.0,3,-54.64,23.2,3782.40625,8.914506912231445,,,C,768696531270152,0
Raw,1730970654419,920904642000000,18,0.0,-1414084967777461576,-0.014757156372070312,17.684798876871355,-4.98594342473032,9.676945786138422,42,11,0.0,49359,43854348070921,9,44.7,-73.77957153320312,0.03672110661864281,16,0.0,0.0,1602000000,,,,0,0.0,3,-54.64,40.7,3782.40625,8.914506912231445,,,C,768696531270152,0
Raw,1730970654419,920904642000000,18,0.0,-1414084967777461576,-0.014757156372070312,17.684798876871355,-4.98594342473032,9.676945786138422,42,7,0.0,49359,43854355703050,19,36.8,21.013355255126953,2.2879385948181152,16,0.0,0.0,1604812540,,,,0,0.0,3,-54.64,32.8,3782.40625,8.914506912231445,,,C,768696531270152,0
Raw,1730970654419,920904642000000,18,0.0,-1414084967777461576,-0.014757156372070312,17.684798876871355,-4.98594342473032,9.676945786138422,42,8,0.0,49359,43854349536881,14,39.4,-628.9016723632812,0.039318472146987915,16,0.0,0.0,1605374980,,,,0,0.0,3,-54.64,35.4,3782.40625,8.914506912231445,,,C,768696531270152,0
Raw,1730970654419,920904642000000,18,0.0,-1414084967777461576,-0.014757156372070312,17.684798876871355,-4.98594342473032,9.676945786138422,42,60,0.0,16399,378658299295026,14,39.3,2.4965133666992188,1.4866000413894653,16,0.0,0.0,1561097980,,,,0,0.0,5,-60.78,35.0,-1542.25341796875,6.917513370513916,,,I,768696531270152,0
Raw,1730970654419,920904642000000,18,0.0,-1414084967777461576,-0.014757156372070312,17.684798876871355,-4.98594342473032,9.676945786138422,42,40,0.0,16399,378658295463275,27,33.7,-133.77471923828125,0.6210000514984131,16,0.0,0.0,1561097980,,,,0,0.0,5,-60.78,29.400000000000002,-1542.25341796875,6.917513370513916,,,I,768696531270152,0
Raw,1730970654419,920904642000000,18,0.0,-1414084967777461576,-0.014757156372070312,17.684798876871355,-4.98594342473032,9.676945786138422,42,39,0.0,16399,378658290738105,19,37.2,-116.3335952758789,0.054444536566734314,16,0.0,0.0,1561097980,,,,0,0.0,5,-60.78,32.900000000000006,-1542.25341796875,6.917513370513916,,,I,768696531270152,0
Raw,1730970654419,920904642000000,18,0.0,-1414084967777461576,-0.014757156372070312,17.684798876871355,-4.98594342473032,9.676945786138422,42,37,0.0,16399,378658341614985,10,43.5,239.80453491210938,0.047953225672245026,16,0.0,0.0,1561097980,,,,0,0.0,5,-60.78,39.2,-1542.25341796875,6.917513370513916,,,I,768696531270152,0
Raw,1730970654419,920904642000000,18,0.0,-1414084967777461576,-0.014757156372070312,17.684798876871355,-4.98594342473032,9.676945786138422,42,32,0.0,16399,378658345711761,16,39.0,256.923828125,1.2027742862701416,16,0.0,0.0,1561097980,,,,0,0.0,5,-60.78,34.7,-1542.25341796875,6.917513370513916,,,I,768696531270152,0
Raw,1730970654419,920904642000000,18,0.0,-1414084967777461576,-0.014757156372070312,17.684798876871355,-4.98594342473032,9.676945786138422,42,28,0.0,16399,378658336394517,31,32.3,-224.83023071289062,0.6694999933242798,16,0.0,0.0,1561097980,,,,0,0.0,5,-60.78,27.999999999999996,-1542.25341796875,6.917513370513916,,,I,768696531270152,0
Raw,1730970654419,920904642000000,18,0.0,-1414084967777461576,-0.014757156372070312,17.684798876871355,-4.98594342473032,9.676945786138422,42,27,0.0,16399,378658336024039,70,27.0,-345.6134948730469,0.999500036239624,16,0.0,0.0,1561097980,,,,0,0.0,5,-60.78,22.7,-1542.25341796875,6.917513370513916,,,I,768696531270152,0
Raw,1730970654419,920904642000000,18,0.0,-1414084967777461576,-0.014757156372070312,17.684798876871355,-4.98594342473032,9.676945786138422,42,20,0.0,16399,378658342239737,9,44.8,-356.9186096191406,0.045857902616262436,16,0.0,0.0,1561097980,,,,0,0.0,5,-60.78,40.5,-1542.25341796875,6.917513370513916,,,I,768696531270152,0
Raw,1730970654419,920904642000000,18,0.0,-1414084967777461576,-0.014757156372070312,17.684798876871355,-4.98594342473032,9.676945786138422,42,10,0.0,16399,378658297108743,53,28.9,-117.31693267822266,0.9179999828338623,16,0.0,0.0,1561097980,,,,0,0.0,5,-60.78,24.599999999999998,-1542.25341796875,6.917513370513916,,,I,768696531270152,0
Raw,1730970654419,920904642000000,18,0.0,-1414084967777461576,-0.014757156372070312,17.684798876871355,-4.98594342473032,9.676945786138422,42,7,0.0,16399,378658297091391,24,34.7,-98.12943267822266,1.8230559825897217,16,0.0,0.0,1561097980,,,,0,0.0,5,-60.78,30.400000000000002,-1542.25341796875,6.917513370513916,,,I,768696531270152,0
Raw,1730970654419,920904642000000,18,0.0,-1414084967777461576,-0.014757156372070312,17.684798876871355,-4.98594342473032,9.676945786138422,42,6,0.0,16399,378658292635060,17,37.8,-86.91970825195312,0.6175577640533447,16,0.0,0.0,1561097980,,,,0,0.0,5,-60.78,33.5,-1542.25341796875,6.917513370513916,,,I,768696531270152,0
Raw,1730970654419,920904642000000,18,0.0,-1414084967777461576,-0.014757156372070312,17.684798876871355,-4.98594342473032,9.676945786138422,42,5,0.0,16399,378658298048909,14,39.8,3.2262637615203857,1.4881000518798828,16,0.0,0.0,1561097980,,,,0,0.0,5,-60.78,35.5,-1542.25341796875,6.917513370513916,,,I,768696531270152,0
Raw,1730970654419,920904642000000,18,0.0,-1414084967777461576,-0.014757156372070312,17.684798876871355,-4.98594342473032,9.676945786138422,42,3,0.0,16399,378658296269622,21,36.0,-3.5239248275756836,2.191200017929077,16,0.0,0.0,1561097980,,,,0,0.0,5,-60.78,31.7,-1542.25341796875,6.917513370513916,,,I,768696531270152,0
Raw,1730970654419,920904642000000,18,0.0,-1414084967777461576,-0.014757156372070312,17.684798876871355,-4.98594342473032,9.676945786138422,42,2,0.0,16399,378658300042363,16,38.3,5.377105712890625,1.6589000225067139,16,0.0,0.0,1561097980,,,,0,0.0,5,-60.78,34.0,-1542.25341796875,6.917513370513916,,,I,768696531270152,0
Raw,1730970654419,920904642000000,18,0.0,-1414084967777461576,-0.014757156372070312,17.684798876871355,-4.98594342473032,9.676945786138422,42,7,0.0,23567,378672339724425,9,44.6,-246.03636169433594,0.05930919572710991,16,0.0,0.0,1575420030,,,,0,0.0,6,-55.54,40.300000000000004,-1455.7958984375,7.157232761383057,,,C,768696531270152,0
Raw,1730970654419,920904642000000,18,0.0,-1414084967777461576,-0.014757156372070312,17.684798876871355,-4.98594342473032,9.676945786138422,42,8,0.0,23567,378672336219944,21,36.0,165.0157928466797,0.04460548609495163,16,0.0,0.0,1575420030,,,,0,0.0,6,-55.54,31.7,-1455.7958984375,7.157232761383057,,,C,768696531270152,0
Raw,1730970654419,920904642000000,18,0.0,-1414084967777461576,-0.014757156372070312,17.684798876871355,-4.98594342473032,9.676945786138422,42,21,0.0,23567,378672329905258,80,26.2,-400.02587890625,1.0869998931884766,16,0.0,0.0,1575420030,,,,0,0.0,6,-55.54,21.9,-1455.7958984375,7.157232761383057,,,C,768696531270152,0
Raw,1730970654419,920904642000000,18,0.0,-1414084967777461576,-0.014757156372070312,17.684798876871355,-4.98594342473032,9.676945786138422,42,27,0.0,23567,378672340502998,21,36.1,-20.70718002319336,1.5735737085342407,16,0.0,0.0,1575420030,,,,0,0.0,6,-55.54,31.8,-1455.7958984375,7.157232761383057,,,C,768696531270152,0
Raw,1730970654419,920904642000000,18,0.0,-1414084967777461576,-0.014757156372070312,17.684798876871355,-4.98594342473032,9.676945786138422,42,29,0.0,23567,378672329091529,92,25.2,-461.2337951660156,1.1769999265670776,16,0.0,0.0,1575420030,,,,0,0.0,6,-55.54,20.9,-1455.7958984375,7.157232761383057,,,C,768696531270152,0
Raw,1730970654419,920904642000000,18,0.0,-1414084967777461576,-0.014757156372070312,17.684798876871355,-4.98594342473032,9.676945786138422,42,30,0.0,23567,378672336076955,35,31.4,395.06671142578125,0.040552228689193726,16,0.0,0.0,1575420030,,,,0,0.0,6,-55.54,27.099999999999998,-1455.7958984375,7.157232761383057,,,C,768696531270152,0
Raw,1730970654419,920904642000000,18,0.0,-1414084967777461576,-0.014757156372070312,17.684798876871355,-4.98594342473032,9.676945786138422,42,3,0.0,81935,378672347102879,12,28.5,475.8658752441406,0.9120000004768372,16,0.0,0.0,1176450050,,,,0,0.0,1,-40.18,23.5,20.838491439819336,5.361543655395508,,,Q,768696531270152,0
Raw,1730970654419,920904642000000,18,0.0,-1414084967777461576,-0.014757156372070312,17.684798876871355,-4.98594342473032,9.676945786138422,42,4,0.0,81935,378672351173585,9,31.3,-244.0847930908203,0.841356098651886,16,0.0,0.0,1176450050,,,,0,0.0,1,-40.18,26.3,20.838491439819336,5.361543655395508,,,Q,768696531270152,0
Raw,1730970654419,920904642000000,18,0.0,-1414084967777461576,-0.014757156372070312,17.684798876871355,-4.98594342473032,9.676945786138422,42,8,0.0,81935,378672349459354,8,32.1,-272.5162658691406,0.03515689820051193,16,0.0,0.0,1176450050,,,,0,0.0,1,-40.18,27.1,20.838491439819336,5.361543655395508,,,Q,768696531270152,0
Raw,1730970654419,920904642000000,18,0.0,-1414084967777461576,-0.014757156372070312,17.684798876871355,-4.98594342473032,9.676945786138422,42,9,0.0,81935,378672347242714,8,33.6,-504.3181457519531,0.029685065150260925,16,0.0,0.0,1176450050,,,,0,0.0,1,-40.18,28.6,20.838491439819336,5.361543655395508,,,Q,768696531270152,0
Raw,1730970654419,920904642000000,18,0.0,-1414084967777461576,-0.014757156372070312,17.684798876871355,-4.98594342473032,9.676945786138422,42,27,0.0,81935,378672346515806,10,30.6,67.6436996459961,0.09974752366542816,16,0.0,0.0,1176450050,,,,0,0.0,1,-40.18,25.6,20.838491439819336,5.361543655395508,,,Q,768696531270152,0
Raw,1730970654419,920904642000000,18,0.0,-1414084967777461576,-0.014757156372070312,17.684798876871355,-4.98594342473032,9.676945786138422,42,196,0.0,16399,378672296198240,34,19.8,-1.6436408758163452,7.1554999351501465,16,0.0,0.0,1176450050,,,,0,0.0,4,-40.18,14.8,20.838491439819336,5.361543655395508,,,Q,768696531270152,0
Raw,1730970654419,920904642000000,18,0.0,-1414084967777461576,-0.014757156372070312,17.684798876871355,-4.98594342473032,9.676945786138422,42,7,0.0,81935,378672339724366,16,26.9,-246.54612731933594,1.0899999141693115,16,0.0,0.0,1176450050,,,,0,0.0,6,-40.18,21.599999999999998,-1441.8504638671875,43.30525588989258,,,Q,768696531270152,0
Raw,1730970654419,920904642000000,18,0.0,-1414084967777461576,-0.014757156372070312,17.684798876871355,-4.98594342473032,9.676945786138422,42,8,0.0,81935,378672336219882,11,30.2,165.1302032470703,1.6878197193145752,16,0.0,0.0,1176450050,,,,0,0.0,6,-40.18,24.9,-1441.8504638671875,43.30525588989258,,,Q,768696531270152,0
Raw,1730970654419,920904642000000,18,0.0,-1414084967777461576,-0.014757156372070312,17.684798876871355,-4.98594342473032,9.676945786138422,42,27,0.0,81935,378672340502922,12,29.1,-20.768484115600586,0.8314999938011169,16,0.0,0.0,1176450050,,,,0,0.0,6,-40.18,23.8,-1441.8504638671875,43.30525588989258,,,Q,768696531270152,0
Raw,1730970654419,920904642000000,18,0.0,-1414084967777461576,-0.014757156372070312,17.684798876871355,-4.98594342473032,9.676945786138422,42,20,0.0,16399,378658342239665,18,24.7,-356.7082824707031,3.5245001316070557,16,0.0,0.0,1176450050,,,,0,0.0,5,-40.18,20.2,-1505.4315185546875,42.971885681152344,,,Q,768696531270152,0
Raw,1730970654419,920904642000000,18,0.0,-1414084967777461576,-0.014757156372070312,17.684798876871355,-4.98594342473032,9.676945786138422,42,27,0.0,16399,378658336023956,30,20.5,-345.2155456542969,6.205500602722168,16,0.0,0.0,1176450050,,,,0,0.0,5,-40.18,16.0,-1505.4315185546875,42.971885681152344,,,Q,768696531270152,0
Raw,1730970654419,920904642000000,18,0.0,-1414084967777461576,-0.014757156372070312,17.684798876871355,-4.98594342473032,9.676945786138422,42,32,0.0,16399,378658345711692,8,33.2,257.0310363769531,3.9091057777404785,16,0.0,0.0,1176450050,,,,0,0.0,5,-40.18,28.700000000000003,-1505.4315185546875,42.971885681152344,,,Q,768696531270152,0
Raw,1730970654419,920904642000000,18,0.0,-1414084967777461576,-0.014757156372070312,17.684798876871355,-4.98594342473032,9.676945786138422,42,37,0.0,16399,378658341614826,16,26.2,239.47463989257812,1.0929999351501465,16,0.0,0.0,1176450050,,,,0,0.0,5,-40.18,21.7,-1505.4315185546875,42.971885681152344,,,Q,768696531270152,0
Raw,1730970654419,920904642000000,18,0.0,-1414084967777461576,-0.014757156372070312,17.684798876871355,-4.98594342473032,9.676945786138422,42,39,0.0,16399,378658290737995,14,27.3,-116.06143188476562,1.0565000772476196,16,0.0,0.0,1176450050,,,,0,0.0,5,-40.18,22.8,-1505.4315185546875,42.971885681152344,,,Q,768696531270152,0
Raw,1730970654419,920904642000000,18,0.0,-1414084967777461576,-0.014757156372070312,17.684798876871355,-4.98594342473032,9.676945786138422,42,40,0.0,16399,378658295463242,14,27.4,-133.92486572265625,1.034000039100647,16,0.0,0.0,1176450050,,,,0,0.0,5,-40.18,22.9,-1505.4315185546875,42.971885681152344,,,Q,768696531270152,0
Raw,1730970654419,920904642000000,18,0.0,-1414084967777461576,-0.014757156372070312,17.684798876871355,-4.98594342473032,9.676945786138422,42,20,0.0,16399,378658342239740,2,49.0,-356.984130859375,0.08370549231767654,16,0.0,0.0,1575420030,,,,0,0.0,5,-55.54,42.0,-1549.2015380859375,39.249473571777344,,,P,768696531270152,0
Raw,1730970654419,920904642000000,18,0.0,-1414084967777461576,-0.014757156372070312,17.684798876871355,-4.98594342473032,9.676945786138422,42,23,0.0,16399,378658332572836,18,27.4,366.23919677734375,2.0395002365112305,16,0.0,0.0,1575420030,,,,0,0.0,5,-55.54,20.4,-1549.2015380859375,39.249473571777344,,,P,768696531270152,0
Raw,1730970654419,920904642000000,18,0.0,-1414084967777461576,-0.014757156372070312,17.684798876871355,-4.98594342473032,9.676945786138422,42,28,0.0,16399,378658336394598,16,28.8,-225.48849487304688,1.1454999446868896,16,0.0,0.0,1575420030,,,,0,0.0,5,-55.54,21.8,-1549.2015380859375,39.249473571777344,,,P,768696531270152,0
Raw,1730970654419,920904642000000,18,0.0,-1414084967777461576,-0.014757156372070312,17.684798876871355,-4.98594342473032,9.676945786138422,42,32,0.0,16399,378658345711762,4,41.9,256.85601806640625,1.2365707159042358,16,0.0,0.0,1575420030,,,,0,0.0,5,-55.54,34.9,-1549.2015380859375,39.249473571777344,,,P,768696531270152,0
Raw,1730970654419,920904642000000,18,0.0,-1414084967777461576,-0.014757156372070312,17.684798876871355,-4.98594342473032,9.676945786138422,42,37,0.0,16399,378658341615007,3,44.1,239.77516174316406,0.08549757301807404,16,0.0,0.0,1575420030,,,,0,0.0,5,-55.54,37.1,-1549.2015380859375,39.249473571777344,,,P,768696531270152,0
Raw,1730970654419,920904642000000,18,0.0,-1414084967777461576,-0.014757156372070312,17.684798876871355,-4.98594342473032,9.676945786138422,42,39,0.0,16399,378658290738089,4,42.4,-116.35881805419922,0.08601468801498413,16,0.0,0.0,1575420030,,,,0,0.0,5,-55.54,35.4,-1549.2015380859375,39.249473571777344,,,P,768696531270152,0
Raw,1730970654419,920904642000000,18,0.0,-1414084967777461576,-0.014757156372070312,17.684798876871355,-4.98594342473032,9.676945786138422,42,40,0.0,16399,378658295463311,6,37.1,-133.94415283203125,1.2361520528793335,16,0.0,0.0,1575420030,,,,0,0.0,5,-55.54,30.1,-1549.2015380859375,39.249473571777344,,,P,768696531270152,0
Raw,1730970654419,920904642000000,18,0.0,-1414084967777461576,-0.014757156372070312,17.684798876871355,-4.98594342473032,9.676945786138422,42,41,0.0,16399,378658333495190,27,24.6,606.0282592773438,3.88100004196167,16,0.0,0.0,1575420030,,,,0,0.0,5,-55.54,17.6,-1549.2015380859375,39.249473571777344,,,P,768696531270152,0
Agc,1730970654419,920904642000000,18,0.0,-1414084967777461576,-0.014757156372070312,17.684798876871355,-4.98594342473032,9.676945786138422,42,-51.76,1575420000,1
Agc,1730970654419,920904642000000,18,0.0,-1414084967777461576,-0.014757156372070312,17.684798876871355,-4.98594342473032,9.676945786138422,42,-51.76,1575420000,4
Agc,1730970654419,920904642000000,18,0.0,-1414084967777461576,-0.014757156372070312,17.684798876871355,-4.98594342473032,9.676945786138422,42,-54.64,1602000000,3
Agc,1730970654419,920904642000000,18,0.0,-1414084967777461576,-0.014757156372070312,17.684798876871355,-4.98594342473032,9.676945786138422,42,-60.78,1561098000,5
Agc,1730970654419,920904642000000,18,0.0,-1414084967777461576,-0.014757156372070312,17.684798876871355,-4.98594342473032,9.676945786138422,42,-55.54,1575420000,6
Agc,1730970654419,920904642000000,18,0.0,-1414084967777461576,-0.014757156372070312,17.684798876871355,-4.98594342473032,9.676945786138422,42,-40.18,1176450000,1
Agc,1730970654419,920904642000000,18,0.0,-1414084967777461576,-0.014757156372070312,17.684798876871355,-4.98594342473032,9.676945786138422,42,-40.18,1176450000,4
Agc,1730970654419,920904642000000,18,0.0,-1414084967777461576,-0.014757156372070312,17.684798876871355,-4.98594342473032,9.676945786138422,42,-40.18,1176450000,6
Agc,1730970654419,920904642000000,18,0.0,-1414084967777461576,-0.014757156372070312,17.684798876871355,-4.98594342473032,9.676945786138422,42,-40.18,1176450000,5
Agc,1730970654419,920904642000000,18,0.0,-1414084967777461576,-0.014757156372070312,17.684798876871355,-4.98594342473032,9.676945786138422,42,-55.54,1575420000,5
Status,,73,0,1,3,1575420030,33.20,202.72374,43.78446,1,1,1,28.2
Status,,73,1,1,4,1575420030,35.10,21.57888,64.07743,1,1,1,30.1
Status,,73,2,1,7,1575420030,31.70,310.21826,24.4185,1,1,1,26.7
Status,,73,3,1,8,1575420030,36.00,126.46426,50.04731,1,1,1,31.0
Status,,73,4,1,9,1575420030,34.60,338.5002,41.802063,0,1,1,29.6
Status,,73,5,1,14,1575420030,23.70,227.50636,6.6125765,1,1,1,18.7
Status,,73,6,1,16,1575420030,21.00,31.597776,23.81616,1,1,1,16.0
Status,,73,7,1,27,1575420030,34.50,79.97123,37.82944,1,1,1,29.5
Status,,73,8,4,194,1575420030,23.50,52.32146,24.52685,1,1,1,18.5
Status,,73,9,4,196,1575420030,28.10,130.3188,21.998652,1,1,1,23.1
Status,,73,10,2,123,1575420030,41.80,0.0,0.0,0,0,0,36.8
Status,,73,11,3,94,1598625020,36.10,0.0,0.0,0,0,0,31.1
Status,,73,12,3,6,1599750020,23.20,151.19987,32.761898,0,1,0,18.2
Status,,73,13,3,9,1600875010,15.10,23.49079,14.585613,1,1,1,10.1
Status,,73,14,3,11,1602000000,35.90,271.8634,33.91148,1,1,1,30.9
Status,,73,15,3,7,1604812540,36.50,103.418015,83.16162,1,1,1,31.5
Status,,73,16,3,8,1605374980,25.50,338.0094,39.9909,1,1,1,20.5
Status,,73,17,5,60,1561097980,35.90,170.37361,72.31984,0,1,0,30.9
Status,,73,18,5,59,1561097980,29.50,98.407684,18.153337,0,1,0,24.5
Status,,73,19,5,40,1561097980,25.50,86.488976,51.677532,1,1,1,20.5
Status,,73,20,5,39,1561097980,31.50,56.656937,29.562391,1,1,1,26.5
Status,,73,21,5,37,1561097980,40.00,354.97278,44.52914,1,1,1,35.0
Status,,73,22,5,32,1561097980,36.20,172.3038,68.90701,1,1,1,31.2
Status,,73,23,5,28,1561097980,28.00,115.00928,20.700714,1,1,1,23.0
Status,,73,24,5,27,1561097980,28.30,161.70598,19.273829,1,1,1,23.3
Status,,73,25,5,23,1561097980,24.90,42.028313,13.05428,0,1,1,19.9
Status,,73,26,5,20,1561097980,31.90,316.2386,47.53057,1,1,1,26.9
Status,,73,27,5,13,1561097980,16.90,180.27756,22.909307,1,1,1,11.9
Status,,73,28,5,10,1561097980,32.60,122.96178,65.42242,1,1,1,27.6
Status,,73,29,5,9,1561097980,23.90,25.975725,38.94849,1,1,1,18.9
Status,,73,30,5,7,1561097980,27.00,96.21286,60.988403,1,1,1,22.0
Status,,73,31,5,6,1561097980,32.00,41.631824,35.113564,0,1,0,27.0
Status,,73,32,5,5,1561097980,35.50,237.4124,63.539223,1,1,1,30.5
Status,,73,33,5,3,1561097980,36.50,111.04599,48.632122,1,1,1,31.5
Status,,73,34,5,2,1561097980,32.90,154.11652,72.58347,1,1,1,27.9
Status,,73,35,6,7,1575420030,37.80,11.299852,60.910492,1,1,1,32.8
Status,,73,36,6,8,1575420030,32.00,107.78975,43.621548,1,1,1,27.0
Status,,73,37,6,13,1575420030,12.30,193.62012,8.084506,0,1,1,7.3
Status,,73,38,6,21,1575420030,28.10,227.95415,21.285227,1,1,1,23.1
Status,,73,39,6,27,1575420030,22.00,267.82172,69.8977,1,1,1,17.0
Status,,73,40,6,29,1575420030,23.40,326.1086,17.021894,0,1,0,18.4
Status,,73,41,6,30,1575420030,29.40,23.622929,45.3583,1,1,1,24.4
Status,,73,42,1,3,1176450050,23.50,202.72374,43.78446,1,1,1,18.5
Status,,73,43,1,4,1176450050,27.80,21.57888,64.07743,1,1,1,22.8
Status,,73,44,1,8,1176450050,28.60,126.46426,50.04731,1,1,1,23.6
Status,,73,45,1,9,1176450050,30.90,338.5002,41.802063,1,1,1,25.9
Status,,73,46,1,14,1176450050,16.80,227.50636,6.6125765,0,1,1,11.8
Status,,73,47,1,27,1176450050,26.70,79.97123,37.82944,1,1,1,21.7
Status,,73,48,4,194,1176450050,22.10,52.32146,24.52685,1,1,1,17.1
Status,,73,49,4,196,1176450050,14.80,130.3188,21.998652,0,1,1,9.8
Status,,73,50,6,7,1176450050,21.60,11.299852,60.910492,1,1,1,16.6
Status,,73,51,6,8,1176450050,22.70,107.78975,43.621548,1,1,1,17.7
Status,,73,52,6,21,1176450050,17.00,227.95415,21.285227,0,1,1,12.0
Status,,73,53,6,27,1176450050,28.30,267.82172,69.8977,1,1,1,23.3
Status,,73,54,6,29,1176450050,14.80,326.1086,17.021894,0,1,0,9.8
Status,,73,55,6,30,1176450050,21.80,23.622929,45.3583,1,1,1,16.8
Status,,73,56,5,20,1176450050,28.40,316.2386,47.53057,1,1,1,23.4
Status,,73,57,5,27,1176450050,16.00,161.70598,19.273829,0,1,1,11.0
Status,,73,58,5,28,1176450050,16.30,115.00928,20.700714,1,1,1,11.3
Status,,73,59,5,32,1176450050,28.70,172.3038,68.90701,1,1,1,23.7
Status,,73,60,5,37,1176450050,25.80,354.97278,44.52914,0,1,1,20.8
Status,,73,61,5,39,1176450050,22.80,56.656937,29.562391,1,1,1,17.8
Status,,73,62,5,40,1176450050,22.90,86.488976,51.677532,1,1,1,17.9
Status,,73,63,5,20,1575420030,34.10,316.2386,47.53057,1,1,1,29.1
Status,,73,64,5,23,1575420030,27.20,42.028313,13.05428,1,1,1,22.2
Status,,73,65,5,27,1575420030,21.20,161.70598,19.273829,1,1,1,16.2
Status,,73,66,5,28,1575420030,21.80,115.00928,20.700714,1,1,1,16.8
Status,,73,67,5,32,1575420030,36.90,172.3038,68.90701,1,1,1,31.9
Status,,73,68,5,37,1575420030,38.70,354.97278,44.52914,1,1,1,33.7
Status,,73,69,5,38,1575420030,19.10,162.46602,7.420457,0,1,1,14.1
Status,,73,70,5,39,1575420030,37.40,56.656937,29.562391,1,1,1,32.4
Status,,73,71,5,40,1575420030,29.00,86.488976,51.677532,1,1,1,24.0
Status,,73,72,5,41,1575420030,17.60,150.5331,15.493639,1,1,1,12.6
Raw,1730970655419,920905642000000,18,0.0,-1414084967777461581,-0.23016357421875,17.392829249729402,-4.01294568865338,9.894596886320324,42,4,0.0,16399,378673351174475,14,40.1,-243.49826049804688,0.03649565577507019,16,0.0,0.0,1575420030,,,,0,0.0,1,-51.86,35.1,0.0,0.0,,,C,768697533804995,0
Raw,1730970655419,920905642000000,18,0.0,-1414084967777461581,-0.23016357421875,17.392829249729402,-4.01294568865338,9.894596886320324,42,7,0.0,16399,378673340096107,21,36.7,-133.15545654296875,0.08759104460477829,16,0.0,0.0,1575420030,,,,0,0.0,1,-51.86,31.700000000000003,0.0,0.0,,,C,768697533804995,0
Raw,1730970655419,920905642000000,18,0.0,-1414084967777461581,-0.23016357421875,17.392829249729402,-4.01294568865338,9.894596886320324,42,8,0.0,16399,378673349460307,13,41.0,-272.013427734375,0.038391951471567154,16,0.0,0.0,1575420030,,,,0,0.0,1,-51.86,36.0,0.0,0.0,,,C,768697533804995,0
Raw,1730970655419,920905642000000,18,0.0,-1414084967777461581,-0.23016357421875,17.392829249729402,-4.01294568865338,9.894596886320324,42,9,0.0,16399,378673347244478,16,39.6,-503.794189453125,0.04740523174405098,16,0.0,0.0,1575420030,,,,0,0.0,1,-51.86,34.6,0.0,0.0,,,C,768697533804995,0
Raw,1730970655419,920905642000000,18,0.0,-1414084967777461581,-0.23016357421875,17.392829249729402,-4.01294568865338,9.894596886320324,42,27,0.0,16399,378673346515655,16,39.5,68.145263671875,0.04890523478388786,16,0.0,0.0,1575420030,,,,0,0.0,1,-51.86,34.5,0.0,0.0,,,C,768697533804995,0
Raw,1730970655419,920905642000000,18,0.0,-1414084967777461581,-0.23016357421875,17.392829249729402,-4.01294568865338,9.894596886320324,42,194,0.0,16399,378673278586887,61,28.5,98.26765441894531,0.9164999723434448,16,0.0,0.0,1575420030,,,,0,0.0,4,-51.86,23.5,0.0,0.0,,,C,768697533804995,0
Raw,1730970655419,920905642000000,18,0.0,-1414084967777461581,-0.23016357421875,17.392829249729402,-4.01294568865338,9.894596886320324,42,196,0.0,16399,378673296198271,31,33.1,-0.922924280166626,0.6195000410079956,16,0.0,0.0,1575420030,,,,0,0.0,4,-51.86,28.1,0.0,0.0,,,C,768697533804995,0
Raw,1730970655419,920905642000000,18,0.0,-1414084967777461581,-0.23016357421875,17.392829249729402,-4.01294568865338,9.894596886320324,42,11,0.0,49359,43855348071181,14,39.9,-73.4774398803711,1.1636563539505005,16,0.0,0.0,1602000000,,,,0,0.0,3,-54.76,35.9,3782.144287109375,8.806252479553223,,,C,768697533804995,0
Raw,1730970655419,920905642000000,18,0.0,-1414084967777461581,-0.23016357421875,17.392829249729402,-4.01294568865338,9.894596886320324,42,7,0.0,49359,43855355703027,13,40.5,21.488012313842773,0.029238253831863403,16,0.0,0.0,1604812540,,,,0,0.0,3,-54.76,36.5,3782.144287109375,8.806252479553223,,,C,768697533804995,0
Raw,1730970655419,920905642000000,18,0.0,-1414084967777461581,-0.23016357421875,17.392829249729402,-4.01294568865338,9.894596886320324,42,8,0.0,49359,43855349538939,46,29.5,-628.7634887695312,0.8600000143051147,16,0.0,0.0,1605374980,,,,0,0.0,3,-54.76,25.5,3782.144287109375,8.806252479553223,,,C,768697533804995,0
Raw,1730970655419,920905642000000,18,0.0,-1414084967777461581,-0.23016357421875,17.392829249729402,-4.01294568865338,9.894596886320324,42,60,0.0,16399,378659299295002,14,40.2,2.8613884449005127,1.360700011253357,16,0.0,0.0,1561097980,,,,0,0.0,5,-60.67,35.900000000000006,-1542.5809326171875,6.893038749694824,,,I,768697533804995,0
Raw,1730970655419,920905642000000,18,0.0,-1414084967777461581,-0.23016357421875,17.392829249729402,-4.01294568865338,9.894596886320324,42,40,0.0,16399,378659295463699,46,29.8,-133.56346130371094,0.8510000109672546,16,0.0,0.0,1561097980,,,,0,0.0,5,-60.67,25.5,-1542.5809326171875,6.893038749694824,,,I,768697533804995,0
Raw,1730970655419,920905642000000,18,0.0,-1414084967777461581,-0.23016357421875,17.392829249729402,-4.01294568865338,9.894596886320324,42,39,0.0,16399,378659290738478,21,35.8,-115.88330078125,0.07299555093050003,16,0.0,0.0,1561097980,,,,0,0.0,5,-60.67,31.499999999999996,-1542.5809326171875,6.893038749694824,,,I,768697533804995,0
Raw,1730970655419,920905642000000,18,0.0,-1414084967777461581,-0.23016357421875,17.392829249729402,-4.01294568865338,9.894596886320324,42,37,0.0,16399,378659341614193,9,44.3,240.2036590576172,0.04735790565609932,16,0.0,0.0,1561097980,,,,0,0.0,5,-60.67,40.0,-1542.5809326171875,6.893038749694824,,,I,768697533804995,0
Raw,1730970655419,920905642000000,18,0.0,-1414084967777461581,-0.23016357421875,17.392829249729402,-4.01294568865338,9.894596886320324,42,32,0.0,16399,378659345710915,13,40.5,257.4160461425781,0.044468943029642105,16,0.0,0.0,1561097980,,,,0,0.0,5,-60.67,36.2,-1542.5809326171875,6.893038749694824,,,I,768697533804995,0
Raw,1730970655419,920905642000000,18,0.0,-1414084967777461581,-0.23016357421875,17.392829249729402,-4.01294568865338,9.894596886320324,42,27,0.0,16399,378659336025191,31,32.6,-344.8741149902344,0.6694999933242798,16,0.0,0.0,1561097980,,,,0,0.0,5,-60.67,28.3,-1542.5809326171875,6.893038749694824,,,I,768697533804995,0
