# 
# Header Description:
# 
# Version: v3.1.0.3 Platform: 13 Manufacturer: OPPO Model: CPH2371 GNSS Hardware Model Name: MTK_MNLD_6_0_0_20040301,MNL_VER_22051902ALPS05_6.7o_00
# 
# Raw,utcTimeMillis,TimeNanos,LeapSecond,TimeUncertaintyNanos,FullBiasNanos,BiasNanos,BiasUncertaintyNanos,DriftNanosPerSecond,DriftUncertaintyNanosPerSecond,HardwareClockDiscontinuityCount,Svid,TimeOffsetNanos,State,ReceivedSvTimeNanos,ReceivedSvTimeUncertaintyNanos,Cn0DbHz,PseudorangeRateMetersPerSecond,PseudorangeRateUncertaintyMetersPerSecond,AccumulatedDeltaRangeState,AccumulatedDeltaRangeMeters,AccumulatedDeltaRangeUncertaintyMeters,CarrierFrequencyHz,CarrierCycles,CarrierPhase,CarrierPhaseUncertainty,MultipathIndicator,SnrInDb,ConstellationType,AgcDb,BasebandCn0DbHz,FullInterSignalBiasNanos,FullInterSignalBiasUncertaintyNanos,SatelliteInterSignalBiasNanos,SatelliteInterSignalBiasUncertaintyNanos,CodeType,ChipsetElapsedRealtimeNanos,IsFullTracking
# 
# UncalAccel,utcTimeMillis,elapsedRealtimeNanos,UncalAccelXMps2,UncalAccelYMps2,UncalAccelZMps2,BiasXMps2,BiasYMps2,BiasZMps2
# 
# Accel,utcTimeMillis,elapsedRealtimeNanos,AccelXMps2,AccelYMps2,AccelZMps2
# 
# UncalGyro,utcTimeMillis,elapsedRealtimeNanos,UncalGyroXRadPerSec,UncalGyroYRadPerSec,UncalGyroZRadPerSec,DriftXRadPerSec,DriftYRadPerSec,DriftZRadPerSec
# 
# Gyro,utcTimeMillis,elapsedRealtimeNanos,GyroXRadPerSec,GyroYRadPerSec,GyroZRadPerSec
# 
# UncalMag,utcTimeMillis,elapsedRealtimeNanos,UncalMagXMicroT,UncalMagYMicroT,UncalMagZMicroT,BiasXMicroT,BiasYMicroT,BiasZMicroT
# 
# Mag,utcTimeMillis,elapsedRealtimeNanos,MagXMicroT,MagYMicroT,MagZMicroT
# 
# Pressure,utcTimeMillis,elapsedRealtimeNanos,PressureHpa
# 
# OrientationDeg,utcTimeMillis,elapsedRealtimeNanos,yawDeg,rollDeg,pitchDeg
# 
# Fix,Provider,LatitudeDegrees,LongitudeDegrees,AltitudeMeters,SpeedMps,AccuracyMeters,BearingDegrees,UnixTimeMillis,SpeedAccuracyMps,BearingAccuracyDegrees,elapsedRealtimeNanos,VerticalAccuracyMeters,MockLocation,NumberOfUsedSignals,VerticalSpeedAccuracyMps,SolutionType
# 
# Nav,Svid,Type,Status,MessageId,Sub-messageId,Data(Bytes)
# 
# Status,UnixTimeMillis,SignalCount,SignalIndex,ConstellationType,Svid,CarrierFrequencyHz,Cn0DbHz,AzimuthDegrees,ElevationDegrees,UsedInFix,HasAlmanacData,HasEphemerisData,BasebandCn0DbHz
# 
# Agc,utcTimeMillis,TimeNanos,LeapSecond,TimeUncertaintyNanos,FullBiasNanos,BiasNanos,BiasUncertaintyNanos,DriftNanosPerSecond,DriftUncertaintyNanosPerSecond,HardwareClockDiscontinuityCount,AgcDb,CarrierFrequencyHz,ConstellationType
# 
Raw,1730973083363,140207000000,18,707064.5686490219,-1415008161156999936,0.0,200.36024446398795,-2765.928745965573,0.0,0,4,0.0,47,381101297082702,487,19.676000595092773,-839.4262741198527,0.14999,16,-3240.9518757255146,0.009999999776482582,1575420030,,,,0,0.0,1,6.0,19.676000595092773,0.0,0.0,0.0,66.7128,C,,
Raw,1730973083363,140207000000,18,707064.5686490219,-1415008161156999936,0.0,200.36024446398795,-2765.928745965573,0.0,0,7,0.0,47,381101286260813,235,28.60300064086914,-1029.2873261464651,0.14999,20,-3982.4861843564386,0.0008999999845400453,1575420030,,,,0,9.808217143006987,1,6.0,28.60300064086914,0.0,0.0,0.0,66.7128,C,,
Raw,1730973083363,140207000000,18,707064.5686490219,-1415008161156999936,0.0,200.36024446398795,-2765.928745965573,0.0,0,20,0.0,47,381087289064754,235,25.200000762939453,-950.774169921875,0.14999,16,-3608.5353259719755,0.0008999999845400453,1561097980,,,,0,6.2956937105426745,5,6.0,25.200000762939453,0.0,0.0,39.23514234633996,66.7128,I,,
Raw,1730973083363,140207000000,18,707064.5686490219,-1415008161156999936,0.0,200.36024446398795,-2765.928745965573,0.0,0,7,0.0,17,763309,487,0.0,-422.8294607594354,0.14999,16,-2407.604372091077,0.009999999776482582,1604812540,,,,0,0.0,3,6.0,19.0,0.0,0.0,-17.869183901748194,66.7128,C,,
Raw,1730973083363,140207000000,18,707064.5686490219,-1415008161156999936,0.0,200.36024446398795,-2765.928745965573,0.0,0,11,0.0,17,776766,396,0.0,-742.0034572584715,0.14999,16,-2976.2761205116853,0.004900000058114529,1602000000,,,,0,1.850904152112127,3,6.0,21.0,0.0,0.0,-17.869183901748194,66.7128,C,,
Raw,1730973083363,140207000000,18,707064.5686490219,-1415008161156999936,0.0,200.36024446398795,-2765.928745965573,0.0,0,27,0.0,47,381101289635297,487,21.097000122070312,-478.1347812783431,0.14999,16,-2225.8044008448082,0.009999999776482582,1575420030,,,,0,0.0,1,6.0,21.097000122070312,0.0,0.0,0.0,66.7128,C,,
Raw,1730973083363,140207000000,18,707064.5686490219,-1415008161156999936,0.0,200.36024446398795,-2765.928745965573,0.0,0,9,0.0,47,381101295599032,396,22.648000717163086,-1177.2225379648717,0.14999,16,-4186.372297613307,0.004900000058114529,1575420030,,,,0,1.5467421069850897,1,6.0,22.648000717163086,0.0,0.0,0.0,66.7128,C,,
Raw,1730973083363,140207000000,18,707064.5686490219,-1415008161156999936,0.0,200.36024446398795,-2765.928745965573,0.0,0,37,0.0,47,381087284545204,74,27.399999618530273,-608.7194213867188,0.14999,16,-2471.5290389583292,0.0006249999860301614,1561097980,,,,0,8.995217938968947,5,6.0,27.399999618530273,0.0,0.0,39.23514234633996,66.7128,I,,
Raw,1730973084363,141207000000,18,707046.1705043961,-1415008161156999936,0.0,154.5228061778109,-2794.246439161853,0.0,0,4,0.0,47,381102297085563,487,21.003000259399414,-847.8223320142537,0.14999,16,-4085.0976424291875,0.009999999776482582,1575420030,,,,0,0.0,1,6.0,21.003000259399414,0.0,0.0,0.0,66.7128,C,,
Raw,1730973084363,141207000000,18,707046.1705043961,-1415008161156999936,0.0,154.5228061778109,-2794.246439161853,0.0,0,7,0.0,47,381102286264266,74,31.617000579833984,-1037.7894021466584,0.14999,17,-5016.555901974971,0.0006249999860301614,1575420030,,,,0,13.47946375735207,1,6.0,31.617000579833984,0.0,0.0,0.0,66.7128,C,,
Raw,1730973084363,141207000000,18,707046.1705043961,-1415008161156999936,0.0,154.5228061778109,-2794.246439161853,0.0,0,39,0.0,47,381088236604379,316,24.700000762939453,-969.6533203125,0.14999,16,-4641.012416966273,0.002025000052526593,1561097980,,,,0,5.691964637581679,5,6.0,24.700000762939453,0.0,0.0,37.9714771738382,66.7128,I,,
Raw,1730973084363,141207000000,18,707046.1705043961,-1415008161156999936,0.0,154.5228061778109,-2794.246439161853,0.0,0,20,0.0,47,381088289067951,235,25.200000762939453,-964.5061645507812,0.14999,16,-4567.410762471626,0.0008999999845400453,1561097980,,,,0,6.2956937105426745,5,6.0,25.200000762939453,0.0,0.0,37.9714771738382,66.7128,I,,
Raw,1730973084363,141207000000,18,707046.1705043961,-1415008161156999936,0.0,154.5228061778109,-2794.246439161853,0.0,0,7,0.0,17,764666,396,0.0,-429.10332241508115,0.14999,16,-2833.9584559598575,0.004900000058114529,1604812540,,,,0,2.581893927589154,3,6.0,21.0,0.0,0.0,-18.025517681003585,66.7128,C,,
Raw,1730973084363,141207000000,18,707046.1705043961,-1415008161156999936,0.0,154.5228061778109,-2794.246439161853,0.0,0,11,0.0,17,779218,316,0.0,-750.7162632892679,0.14999,16,-3722.4794806610917,0.002025000052526593,1602000000,,,,0,2.8357405577139145,3,6.0,24.0,0.0,0.0,-18.025517681003585,66.7128,C,,
Raw,1730973084363,141207000000,18,707046.1705043961,-1415008161156999936,0.0,154.5228061778109,-2794.246439161853,0.0,0,27,0.0,47,381102289636912,487,18.204999923706055,-486.0475322689058,0.14999,16,-2708.582018320224,0.009999999776482582,1575420030,,,,0,0.0,1,6.0,18.204999923706055,0.0,0.0,0.0,66.7128,C,,
Raw,1730973084363,141207000000,18,707046.1705043961,-1415008161156999936,0.0,154.5228061778109,-2794.246439161853,0.0,0,9,0.0,47,381102295602957,487,21.53700065612793,-1185.7923503359,0.14999,16,-5368.339189221972,0.009999999776482582,1575420030,,,,0,0.0,1,6.0,21.53700065612793,0.0,0.0,0.0,66.7128,C,,
Raw,1730973084363,141207000000,18,707046.1705043961,-1415008161156999936,0.0,154.5228061778109,-2794.246439161853,0.0,0,37,0.0,47,381088284547241,235,29.399999618530273,-618.13330078125,0.14999,16,-3084.4414608369257,0.0008999999845400453,1561097980,,,,0,11.26586137896404,5,6.0,29.399999618530273,0.0,0.0,37.9714771738382,66.7128,I,,
Raw,1730973085999,142843000000,18,707033.1927763172,-1415008161156999936,0.0,155.57710407025698,-2806.4908538075433,0.0,0,4,0.0,47,381103933090217,316,25.416000366210938,-850.5352247704518,0.14999,17,-5481.595721751405,0.002025000052526593,1575420030,,,,0,5.6060102161047425,1,6.0,25.416000366210938,0.0,0.0,0.0,66.7128,C,,
Raw,1730973085999,142843000000,18,707033.1927763172,-1415008161156999936,0.0,155.57710407025698,-2806.4908538075433,0.0,0,7,0.0,47,381103922269946,74,31.062999725341797,-1040.8918951811982,0.14999,17,-6724.4443644299645,0.0006249999860301614,1575420030,,,,0,12.815353886421718,1,6.0,31.062999725341797,0.0,0.0,0.0,66.7128,C,,
Raw,1730973085999,142843000000,18,707033.1927763172,-1415008161156999936,0.0,155.57710407025698,-2806.4908538075433,0.0,0,39,0.0,47,381089872609675,316,26.799999237060547,-973.972900390625,0.14999,16,-6237.923922671679,0.002025000052526593,1561097980,,,,0,8.296158679186663,5,6.0,26.799999237060547,0.0,0.0,38.099653629398716,66.7128,I,,
Raw,1730973085999,142843000000,18,707033.1927763172,-1415008161156999936,0.0,155.57710407025698,-2806.4908538075433,0.0,0,20,0.0,47,381089925073239,316,25.200000762939453,-971.3612670898438,0.14999,16,-6158.922880538482,0.002025000052526593,1561097980,,,,0,6.2956937105426745,5,6.0,25.200000762939453,0.0,0.0,38.099653629398716,66.7128,I,,
Raw,1730973085999,142843000000,18,707033.1927763172,-1415008161156999936,0.0,155.57710407025698,-2806.4908538075433,0.0,0,7,0.0,17,767067,396,0.0,-433.5616855251526,0.14999,16,-3545.4828872223143,0.004900000058114529,1604812540,,,,0,0.0,3,6.0,21.0,0.0,0.0,-20.437182326766397,66.7128,C,,
Raw,1730973085999,142843000000,18,707033.1927763172,-1415008161156999936,0.0,155.57710407025698,-2806.4908538075433,0.0,0,11,0.0,17,783338,396,0.0,-754.1376241019526,0.14999,16,-4959.829430970399,0.004900000058114529,1602000000,,,,0,1.55609434437643,3,6.0,23.0,0.0,0.0,-20.437182326766397,66.7128,C,,
Raw,1730973085999,142843000000,18,707033.1927763172,-1415008161156999936,0.0,155.57710407025698,-2806.4908538075433,0.0,0,27,0.0,47,381103925639580,396,21.53700065612793,-489.76722536280255,0.14999,16,-3514.4550305363396,0.004900000058114529,1575420030,,,,0,0.0,1,6.0,21.53700065612793,0.0,0.0,0.0,66.7128,C,,
Raw,1730973085999,142843000000,18,707033.1927763172,-1415008161156999936,0.0,155.57710407025698,-2806.4908538075433,0.0,0,9,0.0,47,381103931609424,487,22.611000061035156,-1189.1447896496525,0.14999,16,-7318.29551557233,0.009999999776482582,1575420030,,,,0,1.4849205674422525,1,6.0,22.611000061035156,0.0,0.0,0.0,66.7128,C,,
Raw,1730973085999,142843000000,18,707033.1927763172,-1415008161156999936,0.0,155.57710407025698,-2806.4908538075433,0.0,0,37,0.0,47,381089920550622,235,29.399999618530273,-620.7880859375,0.14999,16,-4104.212637761467,0.0008999999845400453,1561097980,,,,0,11.26586137896404,5,6.0,29.399999618530273,0.0,0.0,38.099653629398716,66.7128,I,,
Raw,1730973085999,142843000000,18,707033.1927763172,-1415008161156999936,0.0,155.57710407025698,-2806.4908538075433,0.0,0,30,0.0,47,381103913493754,316,24.600000381469727,-405.26150336297906,0.14999,24,-5240.6639868098655,0.002025000052526593,1575420030,,,,0,5.567320220560749,6,6.0,24.600000381469727,0.0,0.0,24.437357192550937,66.7128,C,,
Raw,1730973086999,143843000000,18,707007.1852007698,-1415008161156999936,0.0,157.0728516680066,-2798.27723577793,0.0,0,4,0.0,47,381104933093040,316,26.10300064086914,-848.1703055516706,0.14999,17,-6325.959248488723,0.002025000052526593,1575420030,,,,0,6.555834283498255,1,6.0,26.10300064086914,0.0,0.0,0.0,66.7128,C,,
Raw,1730973086999,143843000000,18,707007.1852007698,-1415008161156999936,0.0,157.0728516680066,-2798.27723577793,0.0,0,7,0.0,47,381104922273417,74,29.965999603271484,-1038.7897447645037,0.14999,21,-7759.350485256053,0.0006249999860301614,1575420030,,,,0,11.490434378338882,1,6.0,29.965999603271484,0.0,0.0,0.0,66.7128,C,,
Raw,1730973086999,143843000000,18,707007.1852007698,-1415008161156999936,0.0,157.0728516680066,-2798.27723577793,0.0,0,39,0.0,47,381090872612925,235,26.799999237060547,-976.0020751953125,0.14999,16,-7207.423120676539,0.0008999999845400453,1561097980,,,,0,8.296158679186663,5,6.0,26.799999237060547,0.0,0.0,35.98457751514795,66.7128,I,,
Raw,1730973086999,143843000000,18,707007.1852007698,-1415008161156999936,0.0,157.0728516680066,-2798.27723577793,0.0,0,20,0.0,47,381090925076480,316,22.399999618530273,-967.7432250976562,0.14999,16,-7123.810279617202,0.002025000052526593,1561097980,,,,0,2.7425679923564967,5,6.0,22.399999618530273,0.0,0.0,35.98457751514795,66.7128,I,,
Raw,1730973086999,143843000000,18,707007.1852007698,-1415008161156999936,0.0,157.0728516680066,-2798.27723577793,0.0,0,7,0.0,17,768483,487,0.0,-428.3776611655865,0.14999,16,-3971.985669421481,0.009999999776482582,1604812540,,,,0,0.0,3,6.0,20.0,0.0,0.0,-21.4563720593759,66.7128,C,,
Raw,1730973086999,143843000000,18,707007.1852007698,-1415008161156999936,0.0,157.0728516680066,-2798.27723577793,0.0,0,11,0.0,17,785812,396,0.0,-750.6717178896956,0.14999,16,-5707.347409383807,0.004900000058114529,1602000000,,,,0,3.373976681431927,3,6.0,23.0,0.0,0.0,-21.4563720593759,66.7128,C,,
Raw,1730973086999,143843000000,18,707007.1852007698,-1415008161156999936,0.0,157.0728516680066,-2798.27723577793,0.0,0,27,0.0,47,381104925641210,396,21.75200080871582,-487.13312608049745,0.14999,16,-3997.737483310118,0.004900000058114529,1575420030,,,,0,0.14598477482998845,1,6.0,21.75200080871582,0.0,0.0,0.0,66.7128,C,,
Raw,1730973086999,143843000000,18,707007.1852007698,-1415008161156999936,0.0,157.0728516680066,-2798.27723577793,0.0,0,9,0.0,47,381104931613394,487,21.097000122070312,-1186.3758680435044,0.14999,16,-8501.06653050024,0.009999999776482582,1575420030,,,,0,0.0,1,6.0,21.097000122070312,0.0,0.0,0.0,66.7128,C,,
Raw,1730973086999,143843000000,18,707007.1852007698,-1415008161156999936,0.0,157.0728516680066,-2798.27723577793,0.0,0,37,0.0,47,381090920552690,235,28.100000381469727,-615.6551513671875,0.14999,16,-4718.26914817444,0.0008999999845400453,1561097980,,,,0,9.810572957949029,5,6.0,28.100000381469727,0.0,0.0,35.98457751514795,66.7128,I,,
Raw,1730973086999,143843000000,18,707007.1852007698,-1415008161156999936,0.0,157.0728516680066,-2798.27723577793,0.0,0,40,0.0,47,381090877049156,487,19.600000381469727,-888.942626953125,0.14999,16,-6387.661405701655,0.009999999776482582,1561097980,,,,0,0.0,5,6.0,19.600000381469727,0.0,0.0,35.98457751514795,66.7128,I,,
Raw,1730973086999,143843000000,18,707007.1852007698,-1415008161156999936,0.0,157.0728516680066,-2798.27723577793,0.0,0,28,0.0,47,381090918710134,396,22.299999237060547,-964.1353759765625,0.14999,16,-6480.7483375292495,0.004900000058114529,1561097980,,,,0,2.5523584285556398,5,6.0,22.299999237060547,0.0,0.0,35.98457751514795,66.7128,I,,
Raw,1730973086999,143843000000,18,707007.1852007698,-1415008161156999936,0.0,157.0728516680066,-2798.27723577793,0.0,0,29,0.0,47,381104913725238,487,24.200000762939453,-1302.8017740691023,0.14999,24,-6670.785068506585,0.009999999776482582,1575420030,,,,0,5.129951922652247,6,6.0,24.200000762939453,0.0,0.0,21.14432467921026,66.7128,C,,
Raw,1730973086999,143843000000,18,707007.1852007698,-1415008161156999936,0.0,157.0728516680066,-2798.27723577793,0.0,0,30,0.0,47,381104913495086,396,23.0,-403.0648100692962,0.14999,25,-5639.722528529252,0.004900000058114529,1575420030,,,,0,3.570759900055372,6,6.0,23.0,0.0,0.0,21.14432467921026,66.7128,C,,
Raw,1730973087999,144843000000,18,706987.536190787,-1415008161156999936,0.0,156.89744498113575,-2783.6084056805985,0.0,0,4,0.0,47,381105933095861,316,26.040000915527344,-843.4574708944411,0.14999,21,-7172.037878254364,0.002025000052526593,1575420030,,,,0,4.83970426126056,1,6.0,26.040000915527344,0.0,0.0,0.0,66.7128,C,,
Raw,1730973087999,144843000000,18,706987.536190787,-1415008161156999936,0.0,156.89744498113575,-2783.6084056805985,0.0,0,7,0.0,47,381105922276878,74,30.243999481201172,-1033.752723278957,0.14999,20,-8796.101081281355,0.0006249999860301614,1575420030,,,,0,11.836378361670455,1,6.0,30.243999481201172,0.0,0.0,0.0,66.7128,C,,
Raw,1730973087999,144843000000,18,706987.536190787,-1415008161156999936,0.0,156.89744498113575,-2783.6084056805985,0.0,0,8,0.0,47,381105931449664,487,20.003999710083008,-833.2412651697438,0.14999,16,-7115.175845971786,0.009999999776482582,1575420030,,,,0,0.0,1,6.0,20.003999710083008,0.0,0.0,0.0,66.7128,C,,
Raw,1730973087999,144843000000,18,706987.536190787,-1415008161156999936,0.0,156.89744498113575,-2783.6084056805985,0.0,0,16,0.0,47,381091872681031,487,20.200000762939453,-978.2832641601562,0.14999,16,-7484.126157972076,0.009999999776482582,1561097980,,,,0,0.0,5,6.0,20.200000762939453,0.0,0.0,33.194419632632815,66.7128,I,,
Raw,1730973087999,144843000000,18,706987.536190787,-1415008161156999936,0.0,156.89744498113575,-2783.6084056805985,0.0,0,39,0.0,47,381091872616165,235,25.200000762939453,-969.131591796875,0.14999,16,-8180.925294756935,0.0008999999845400453,1561097980,,,,0,6.2956937105426745,5,6.0,25.200000762939453,0.0,0.0,33.194419632632815,66.7128,I,,
Raw,1730973087999,144843000000,18,706987.536190787,-1415008161156999936,0.0,156.89744498113575,-2783.6084056805985,0.0,0,20,0.0,47,381091925079704,316,22.399999618530273,-962.3207397460938,0.14999,16,-8090.9649443356775,0.002025000052526593,1561097980,,,,0,2.7425679923564967,5,6.0,22.399999618530273,0.0,0.0,33.194419632632815,66.7128,I,,
Raw,1730973087999,144843000000,18,706987.536190787,-1415008161156999936,0.0,156.89744498113575,-2783.6084056805985,0.0,0,7,0.0,17,769902,487,0.0,-422.2853174392343,0.14999,16,-4398.10449958333,0.009999999776482582,1604812540,,,,0,0.0,3,6.0,19.0,0.0,0.0,-22.379269262479802,66.7128,C,,
Raw,1730973087999,144843000000,18,706987.536190787,-1415008161156999936,0.0,156.89744498113575,-2783.6084056805985,0.0,0,11,0.0,17,788312,396,0.0,-746.2346762791743,0.14999,16,-6456.4469185261105,0.004900000058114529,1602000000,,,,0,2.992955521874761,3,6.0,22.0,0.0,0.0,-22.379269262479802,66.7128,C,,
Raw,1730973087999,144843000000,18,706987.536190787,-1415008161156999936,0.0,156.89744498113575,-2783.6084056805985,0.0,0,27,0.0,47,381105925642843,487,20.22100067138672,-481.79384613908513,0.14999,16,-4482.876696630548,0.009999999776482582,1575420030,,,,0,0.0,1,6.0,20.22100067138672,0.0,0.0,0.0,66.7128,C,,
Raw,1730973087999,144843000000,18,706987.536190787,-1415008161156999936,0.0,156.89744498113575,-2783.6084056805985,0.0,0,9,0.0,47,381105931617344,396,21.167999267578125,-1181.5886070035056,0.14999,16,-9685.725360522385,0.004900000058114529,1575420030,,,,0,1.3599415819022225,1,6.0,21.167999267578125,0.0,0.0,0.0,66.7128,C,,
Raw,1730973087999,144843000000,18,706987.536190787,-1415008161156999936,0.0,156.89744498113575,-2783.6084056805985,0.0,0,37,0.0,47,381091920554733,235,28.075000762939453,-613.3953857421875,0.14999,17,-5335.019814744521,0.0008999999845400453,1561097980,,,,0,9.265734636019813,5,6.0,28.075000762939453,0.0,0.0,33.194419632632815,66.7128,I,,
Raw,1730973087999,144843000000,18,706987.536190787,-1415008161156999936,0.0,156.89744498113575,-2783.6084056805985,0.0,0,40,0.0,47,381091877052132,487,20.100000381469727,-884.5667114257812,0.14999,16,-7274.999760054563,0.009999999776482582,1561097980,,,,0,0.0,5,6.0,20.100000381469727,0.0,0.0,33.194419632632815,66.7128,I,,
Raw,1730973087999,144843000000,18,706987.536190787,-1415008161156999936,0.0,156.89744498113575,-2783.6084056805985,0.0,0,28,0.0,47,381091918713341,487,19.899999618530273,-958.921630859375,0.14999,16,-7442.995651335268,0.009999999776482582,1561097980,,,,0,0.0,5,6.0,19.899999618530273,0.0,0.0,33.194419632632815,66.7128,I,,
Raw,1730973087999,144843000000,18,706987.536190787,-1415008161156999936,0.0,156.89744498113575,-2783.6084056805985,0.0,0,32,0.0,47,381091923609555,797,15.0,-379.3511657714844,0.14999,16,-6142.567526900721,0.02250000089406967,1561097980,,,,0,0.0,5,6.0,15.0,0.0,0.0,33.194419632632815,66.7128,I,,
Raw,1730973087999,144843000000,18,706987.536190787,-1415008161156999936,0.0,156.89744498113575,-2783.6084056805985,0.0,0,29,0.0,47,381105913729660,396,20.399999618530273,-1296.814863805715,0.14999,24,-7971.780894760306,0.004900000058114529,1575420030,,,,0,0.0,6,6.0,20.399999618530273,0.0,0.0,20.900307705916024,66.7128,C,,
Raw,1730973087999,144843000000,18,706987.536190787,-1415008161156999936,0.0,156.89744498113575,-2783.6084056805985,0.0,0,30,0.0,47,381105913496421,235,26.200000762939453,-397.4745153050983,0.14999,25,-6040.462999064136,0.0008999999845400453,1575420030,,,,0,7.5673420202647135,6,6.0,26.200000762939453,0.0,0.0,20.900307705916024,66.7128,C,,
Raw,1730973088999,145843000000,18,706938.1270091858,-1415008161156999936,0.0,138.17069116505155,-2766.639899421335,0.0,0,4,0.0,47,381106933098670,316,26.781999588012695,-837.7903803682473,0.14999,21,-8013.056704953193,0.002025000052526593,1575420030,,,,0,7.443255772239018,1,6.0,26.781999588012695,0.0,0.0,0.0,66.7128,C,,
Raw,1730973088999,145843000000,18,706938.1270091858,-1415008161156999936,0.0,138.17069116505155,-2766.639899421335,0.0,0,7,0.0,47,381106922280324,74,30.301000595092773,-1028.9520822150898,0.14999,16,-9828.008228180488,0.0006249999860301614,1575420030,,,,0,11.91141891167657,1,6.0,30.301000595092773,0.0,0.0,0.0,66.7128,C,,
Raw,1730973088999,145843000000,18,706938.1270091858,-1415008161156999936,0.0,138.17069116505155,-2766.639899421335,0.0,0,8,0.0,47,381106931452426,797,17.905000686645508,-827.6035363625949,0.14999,16,-7946.01592985129,0.02250000089406967,1575420030,,,,0,0.0,1,6.0,17.905000686645508,0.0,0.0,0.0,66.7128,C,,
Raw,1730973088999,145843000000,18,706938.1270091858,-1415008161156999936,0.0,138.17069116505155,-2766.639899421335,0.0,0,16,0.0,47,381092872684272,487,19.0,-973.2156982421875,0.14999,16,-8460.277188738244,0.009999999776482582,1561097980,,,,0,0.0,5,6.0,19.0,0.0,0.0,32.84137120880382,66.7128,I,,
Raw,1730973088999,145843000000,18,706938.1270091858,-1415008161156999936,0.0,138.17069116505155,-2766.639899421335,0.0,0,39,0.0,47,381092872619363,235,25.2549991607666,-964.566162109375,0.14999,16,-9148.123703314359,0.0008999999845400453,1561097980,,,,0,7.679149793539929,5,6.0,25.2549991607666,0.0,0.0,32.84137120880382,66.7128,I,,
Raw,1730973088999,145843000000,18,706938.1270091858,-1415008161156999936,0.0,138.17069116505155,-2766.639899421335,0.0,0,20,0.0,47,381092925082911,396,22.799999237060547,-957.9747314453125,0.14999,16,-9051.645291858487,0.004900000058114529,1561097980,,,,0,3.2303250181497134,5,6.0,22.799999237060547,0.0,0.0,32.84137120880382,66.7128,I,,
Raw,1730973088999,145843000000,18,706938.1270091858,-1415008161156999936,0.0,138.17069116505155,-2766.639899421335,0.0,0,7,0.0,17,771313,797,0.0,-419.9721952437803,0.14999,16,-4820.816830425986,0.02250000089406967,1604812540,,,,0,0.0,3,6.0,17.0,0.0,0.0,-22.755243236655794,66.7128,C,,
Raw,1730973088999,145843000000,18,706938.1270091858,-1415008161156999936,0.0,138.17069116505155,-2766.639899421335,0.0,0,11,0.0,17,790800,316,0.0,-741.3473377884642,0.14999,16,-7200.605272509852,0.002025000052526593,1602000000,,,,0,4.16551884854165,3,6.0,24.0,0.0,0.0,-22.755243236655794,66.7128,C,,
Raw,1730973088999,145843000000,18,706938.1270091858,-1415008161156999936,0.0,138.17069116505155,-2766.639899421335,0.0,0,27,0.0,47,381106925644443,487,20.95800018310547,-476.8880232209171,0.14999,16,-4962.454184673683,0.009999999776482582,1575420030,,,,0,0.0,1,6.0,20.95800018310547,0.0,0.0,0.0,66.7128,C,,
Raw,1730973088999,145843000000,18,706938.1270091858,-1415008161156999936,0.0,138.17069116505155,-2766.639899421335,0.0,0,9,0.0,47,381106931621277,396,21.242000579833984,-1176.631679827506,0.14999,16,-10865.151024993978,0.004900000058114529,1575420030,,,,0,1.5467421069850897,1,6.0,21.242000579833984,0.0,0.0,0.0,66.7128,C,,
Raw,1730973088999,145843000000,18,706938.1270091858,-1415008161156999936,0.0,138.17069116505155,-2766.639899421335,0.0,0,37,0.0,47,381092920556777,235,28.04599952697754,-607.9561157226562,0.14999,17,-5946.077810203093,0.0008999999845400453,1561097980,,,,0,9.086329504860135,5,6.0,28.04599952697754,0.0,0.0,32.84137120880382,66.7128,I,,
Raw,1730973088999,145843000000,18,706938.1270091858,-1415008161156999936,0.0,138.17069116505155,-2766.639899421335,0.0,0,40,0.0,47,381092877055087,487,20.200000762939453,-879.45166015625,0.14999,16,-8157.093045103498,0.009999999776482582,1561097980,,,,0,0.0,5,6.0,20.200000762939453,0.0,0.0,32.84137120880382,66.7128,I,,
Raw,1730973088999,145843000000,18,706938.1270091858,-1415008161156999936,0.0,138.17069116505155,-2766.639899421335,0.0,0,28,0.0,47,381092918716534,396,21.0,-954.3862915039062,0.14999,16,-8399.739898448479,0.004900000058114529,1561097980,,,,0,0.7808180847697392,5,6.0,21.0,0.0,0.0,32.84137120880382,66.7128,I,,
Raw,1730973088999,145843000000,18,706938.1270091858,-1415008161156999936,0.0,138.17069116505155,-2766.639899421335,0.0,0,32,0.0,47,381092923610785,487,18.700000762939453,-373.20770263671875,0.14999,16,-6519.079318177322,0.009999999776482582,1561097980,,,,0,0.0,5,6.0,18.700000762939453,0.0,0.0,32.84137120880382,66.7128,I,,
Raw,1730973088999,145843000000,18,706938.1270091858,-1415008161156999936,0.0,138.17069116505155,-2766.639899421335,0.0,0,29,0.0,47,381106913733987,316,23.200000762939453,-1292.5627108036294,0.14999,24,-9267.430496003975,0.002025000052526593,1575420030,,,,0,3.715931351261182,6,6.0,23.200000762939453,0.0,0.0,11.897852924279054,66.7128,C,,
Raw,1730973088999,145843000000,18,706938.1270091858,-1415008161156999936,0.0,138.17069116505155,-2766.639899421335,0.0,0,30,0.0,47,381106913497740,235,27.100000381469727,-392.840706413843,0.14999,29,-6436.5357900832805,0.0008999999845400453,1575420030,,,,0,8.638173515021116,6,6.0,27.100000381469727,0.0,0.0,11.897852924279054,66.7128,C,,
Raw,1730973089999,146843000000,18,706897.0569299646,-1415008161156999936,0.0,139.59930450963247,-2753.8893668336877,0.0,0,4,0.0,47,381107933101461,316,25.490999221801758,-834.2500632193394,0.14999,17,-8849.464259825581,0.002025000052526593,1575420030,,,,0,5.721056793886568,1,6.0,25.490999221801758,0.0,0.0,0.0,66.7128,C,,
Raw,1730973089999,146843000000,18,706897.0569299646,-1415008161156999936,0.0,139.59930450963247,-2753.8893668336877,0.0,0,7,0.0,47,381107922283751,74,30.77199935913086,-1025.5874707962903,0.14999,17,-10855.587758017002,0.0006249999860301614,1575420030,,,,0,12.471993383681442,1,6.0,30.77199935913086,0.0,0.0,0.0,66.7128,C,,
Raw,1730973089999,146843000000,18,706897.0569299646,-1415008161156999936,0.0,139.59930450963247,-2753.8893668336877,0.0,0,8,0.0,47,381107931455182,797,17.905000686645508,-823.9018226757717,0.14999,16,-8772.284362222426,0.02250000089406967,1575420030,,,,0,0.0,1,6.0,17.905000686645508,0.0,0.0,0.0,66.7128,C,,
Raw,1730973089999,146843000000,18,706897.0569299646,-1415008161156999936,0.0,139.59930450963247,-2753.8893668336877,0.0,0,16,0.0,47,381093872687517,487,19.399999618530273,-969.1782836914062,0.14999,16,-9431.513228241545,0.009999999776482582,1561097980,,,,0,0.0,5,6.0,19.399999618530273,0.0,0.0,31.030842703906327,66.7128,I,,
Raw,1730973089999,146843000000,18,706897.0569299646,-1415008161156999936,0.0,139.59930450963247,-2753.8893668336877,0.0,0,39,0.0,47,381093872622555,316,25.23200035095215,-961.0919799804688,0.14999,17,-10111.55700159418,0.002025000052526593,1561097980,,,,0,5.780823618576059,5,6.0,25.23200035095215,0.0,0.0,31.030842703906327,66.7128,I,,
Raw,1730973089999,146843000000,18,706897.0569299646,-1415008161156999936,0.0,139.59930450963247,-2753.8893668336877,0.0,0,20,0.0,47,381093925086121,316,24.399999618530273,-953.20947265625,0.14999,16,-10007.555219839402,0.002025000052526593,1561097980,,,,0,5.280450803368443,5,6.0,24.399999618530273,0.0,0.0,31.030842703906327,66.7128,I,,
Raw,1730973089999,146843000000,18,706897.0569299646,-1415008161156999936,0.0,139.59930450963247,-2753.8893668336877,0.0,0,7,0.0,17,772711,487,0.0,-416.64302871948206,0.14999,16,-5239.6021988232205,0.009999999776482582,1604812540,,,,0,0.0,3,6.0,20.0,0.0,0.0,-23.269196838555224,66.7128,C,,
Raw,1730973089999,146843000000,18,706897.0569299646,-1415008161156999936,0.0,139.59930450963247,-2753.8893668336877,0.0,0,11,0.0,17,793266,396,0.0,-737.0977066692715,0.14999,16,-7940.2317335356765,0.004900000058114529,1602000000,,,,0,3.0645675219235406,3,6.0,22.0,0.0,0.0,-23.269196838555224,66.7128,C,,
Raw,1730973089999,146843000000,18,706897.0569299646,-1415008161156999936,0.0,139.59930450963247,-2753.8893668336877,0.0,0,27,0.0,47,381107925646027,396,21.000999450683594,-473.32512728173094,0.14999,16,-5437.858439874919,0.004900000058114529,1575420030,,,,0,0.2895564673724561,1,6.0,21.000999450683594,0.0,0.0,0.0,66.7128,C,,
Raw,1730973089999,146843000000,18,706897.0569299646,-1415008161156999936,0.0,139.59930450963247,-2753.8893668336877,0.0,0,9,0.0,47,381107931625201,396,21.354999542236328,-1172.5582058941661,0.14999,16,-12040.146126359934,0.004900000058114529,1575420030,,,,0,2.8592368148314504,1,6.0,21.354999542236328,0.0,0.0,0.0,66.7128,C,,
Raw,1730973089999,146843000000,18,706897.0569299646,-1415008161156999936,0.0,139.59930450963247,-2753.8893668336877,0.0,0,37,0.0,47,381093920558802,316,25.100000381469727,-604.3045654296875,0.14999,21,-6552.656560252728,0.002025000052526593,1561097980,,,,0,6.253934545309379,5,6.0,25.100000381469727,0.0,0.0,31.030842703906327,66.7128,I,,
Raw,1730973089999,146843000000,18,706897.0569299646,-1415008161156999936,0.0,139.59930450963247,-2753.8893668336877,0.0,0,40,0.0,47,381093877058028,797,19.600000381469727,-875.281005859375,0.14999,16,-9034.83077228717,0.02250000089406967,1561097980,,,,0,0.0,5,6.0,19.600000381469727,0.0,0.0,31.030842703906327,66.7128,I,,
Raw,1730973089999,146843000000,18,706897.0569299646,-1415008161156999936,0.0,139.59930450963247,-2753.8893668336877,0.0,0,28,0.0,47,381093918719711,487,19.899999618530273,-949.8186645507812,0.14999,16,-9352.212660648702,0.009999999776482582,1561097980,,,,0,0.0,5,6.0,19.899999618530273,0.0,0.0,31.030842703906327,66.7128,I,,
Raw,1730973089999,146843000000,18,706897.0569299646,-1415008161156999936,0.0,139.59930450963247,-2753.8893668336877,0.0,0,32,0.0,47,381093923612024,797,18.700000762939453,-369.37506103515625,0.14999,16,-6890.630725067649,0.02250000089406967,1561097980,,,,0,0.0,5,6.0,18.700000762939453,0.0,0.0,31.030842703906327,66.7128,I,,
Raw,1730973089999,146843000000,18,706897.0569299646,-1415008161156999936,0.0,139.59930450963247,-2753.8893668336877,0.0,0,29,0.0,47,381107913738288,396,21.299999237060547,-1289.3496467385085,0.14999,24,-10558.863480955957,0.004900000058114529,1575420030,,,,0,1.1690352237776152,6,6.0,21.299999237060547,0.0,0.0,7.999012118518526,66.7128,C,,
Raw,1730973089999,146843000000,18,706897.0569299646,-1415008161156999936,0.0,139.59930450963247,-2753.8893668336877,0.0,0,30,0.0,47,381107913499042,316,25.899999618530273,-389.22549829800374,0.14999,25,-6828.140267629966,0.002025000052526593,1575420030,,,,0,7.221745671365607,6,6.0,25.899999618530273,0.0,0.0,7.999012118518526,66.7128,C,,
Fix,FLP,12.9286454000,77.5170264000,755.7999877929688,0.05713771,15.176,,1730973088261,1.5,,2286639402000000,1.0628252,0,,,
Raw,1730973090999,147843000000,18,706847.1786738544,-1415008161156999936,0.0,135.6777785021355,-2743.6807835761447,0.0,0,4,0.0,47,381108933104243,316,24.577999114990234,-832.1725357632365,0.14999,20,-9682.422260104722,0.002025000052526593,1575420030,,,,0,4.407481281007014,1,6.0,24.577999114990234,0.0,0.0,0.0,66.7128,C,,
Raw,1730973090999,147843000000,18,706847.1786738544,-1415008161156999936,0.0,135.6777785021355,-2743.6807835761447,0.0,0,7,0.0,47,381108922287164,74,29.981000900268555,-1022.6682097552848,0.14999,21,-11879.348455635369,0.0006249999860301614,1575420030,,,,0,11.51001925616989,1,6.0,29.981000900268555,0.0,0.0,0.0,66.7128,C,,
Raw,1730973090999,147843000000,18,706847.1786738544,-1415008161156999936,0.0,135.6777785021355,-2743.6807835761447,0.0,0,8,0.0,47,381108931457942,797,17.979000091552734,-822.1381682795873,0.14999,16,-9594.224368718955,0.02250000089406967,1575420030,,,,0,0.0,1,6.0,17.979000091552734,0.0,0.0,0.0,66.7128,C,,
Raw,1730973090999,147843000000,18,706847.1786738544,-1415008161156999936,0.0,135.6777785021355,-2743.6807835761447,0.0,0,16,0.0,47,381094872690734,396,22.399999618530273,-966.4715576171875,0.14999,16,-10399.292674375443,0.004900000058114529,1561097980,,,,0,2.6796264876727784,5,6.0,22.399999618530273,0.0,0.0,30.586178565062962,66.7128,I,,
Raw,1730973090999,147843000000,18,706847.1786738544,-1415008161156999936,0.0,135.6777785021355,-2743.6807835761447,0.0,0,39,0.0,47,381094872625757,316,25.21500015258789,-958.5057373046875,0.14999,17,-11071.172331412534,0.002025000052526593,1561097980,,,,0,5.999073533889714,5,6.0,25.21500015258789,0.0,0.0,30.586178565062962,66.7128,I,,
Raw,1730973090999,147843000000,18,706847.1786738544,-1415008161156999936,0.0,135.6777785021355,-2743.6807835761447,0.0,0,20,0.0,47,381094925089291,316,26.299999237060547,-949.20068359375,0.14999,17,-10958.190444258486,0.002025000052526593,1561097980,,,,0,7.679149793539929,5,6.0,26.299999237060547,0.0,0.0,30.586178565062962,66.7128,I,,
Raw,1730973090999,147843000000,18,706847.1786738544,-1415008161156999936,0.0,135.6777785021355,-2743.6807835761447,0.0,0,7,0.0,17,774099,396,0.0,-412.1676083969594,0.14999,16,-5654.150323847356,0.004900000058114529,1604812540,,,,0,0.7039150062224049,3,6.0,21.0,0.0,0.0,-23.273156577342085,66.7128,C,,
Raw,1730973090999,147843000000,18,706847.1786738544,-1415008161156999936,0.0,135.6777785021355,-2743.6807835761447,0.0,0,11,0.0,17,795716,396,0.0,-733.8278459027217,0.14999,16,-8675.418414779533,0.004900000058114529,1602000000,,,,0,2.9859616493548935,3,6.0,23.0,0.0,0.0,-23.273156577342085,66.7128,C,,
Raw,1730973090999,147843000000,18,706847.1786738544,-1415008161156999936,0.0,135.6777785021355,-2743.6807835761447,0.0,0,27,0.0,47,381108925647601,487,20.974000930786133,-469.58420269162593,0.14999,16,-5909.37626295877,0.009999999776482582,1575420030,,,,0,0.0,1,6.0,20.974000930786133,0.0,0.0,0.0,66.7128,C,,
Raw,1730973090999,147843000000,18,706847.1786738544,-1415008161156999936,0.0,135.6777785021355,-2743.6807835761447,0.0,0,9,0.0,47,381108931629108,396,21.395000457763672,-1169.9849671370966,0.14999,16,-13211.197071026365,0.004900000058114529,1575420030,,,,0,0.7741540598624713,1,6.0,21.395000457763672,0.0,0.0,0.0,66.7128,C,,
Raw,1730973090999,147843000000,18,706847.1786738544,-1415008161156999936,0.0,135.6777785021355,-2743.6807835761447,0.0,0,37,0.0,47,381094920560814,396,24.9950008392334,-601.0526733398438,0.14999,20,-7155.210393035297,0.004900000058114529,1561097980,,,,0,3.5218251811136247,5,6.0,24.9950008392334,0.0,0.0,30.586178565062962,66.7128,I,,
Raw,1730973090999,147843000000,18,706847.1786738544,-1415008161156999936,0.0,135.6777785021355,-2743.6807835761447,0.0,0,40,0.0,47,381094877060942,487,19.600000381469727,-871.8770141601562,0.14999,16,-9908.455049350021,0.009999999776482582,1561097980,,,,0,0.0,5,6.0,19.600000381469727,0.0,0.0,30.586178565062962,66.7128,I,,
Raw,1730973090999,147843000000,18,706847.1786738544,-1415008161156999936,0.0,135.6777785021355,-2743.6807835761447,0.0,0,28,0.0,47,381094918722876,487,19.899999618530273,-946.6657104492188,0.14999,16,-10300.377275465267,0.009999999776482582,1561097980,,,,0,0.0,5,6.0,19.899999618530273,0.0,0.0,30.586178565062962,66.7128,I,,
Raw,1730973090999,147843000000,18,706847.1786738544,-1415008161156999936,0.0,135.6777785021355,-2743.6807835761447,0.0,0,32,0.0,47,381094923613245,487,18.625,-366.259521484375,0.14999,16,-7258.294993999509,0.009999999776482582,1561097980,,,,0,0.0,5,6.0,18.625,0.0,0.0,30.586178565062962,66.7128,I,,
Raw,1730973090999,147843000000,18,706847.1786738544,-1415008161156999936,0.0,135.6777785021355,-2743.6807835761447,0.0,0,29,0.0,47,381108913742583,396,20.899999618530273,-1286.7336662385255,0.14999,25,-11846.45237773328,0.004900000058114529,1575420030,,,,0,0.5697707562287506,6,6.0,20.899999618530273,0.0,0.0,4.127093777015948,66.7128,C,,
Raw,1730973090999,147843000000,18,706847.1786738544,-1415008161156999936,0.0,135.6777785021355,-2743.6807835761447,0.0,0,30,0.0,47,381108913500333,235,27.100000381469727,-386.437668116458,0.14999,29,-7215.926464652195,0.0008999999845400453,1575420030,,,,0,8.66535942027561,6,6.0,27.100000381469727,0.0,0.0,4.127093777015948,66.7128,C,,
Raw,1730973091999,148843000000,18,134.57245552341075,-1415008161156999936,0.0,134.57245552341075,-2742.5696666527197,0.0,0,4,0.0,16431,381109933107019,316,25.490999221801758,-830.856368831992,0.14999,17,-10513.2750641534,0.002025000052526593,1575420030,,,,0,5.721056793886568,1,6.0,25.490999221801758,0.0,0.0,0.0,66.7128,C,,
Raw,1730973091999,148843000000,18,134.57245552341075,-1415008161156999936,0.0,134.57245552341075,-2742.5696666527197,0.0,0,7,0.0,16431,381109922290573,235,29.042999267578125,-1021.9050838106106,0.14999,17,-12901.32641908289,0.0008999999845400453,1575420030,,,,0,10.361351880391647,1,6.0,29.042999267578125,0.0,0.0,0.0,66.7128,C,,
Raw,1730973091999,148843000000,18,134.57245552341075,-1415008161156999936,0.0,134.57245552341075,-2742.5696666527197,0.0,0,8,0.0,47,381109931460686,797,17.979000091552734,-824.5157241875777,0.14999,16,-10416.855621395473,0.02250000089406967,1575420030,,,,0,0.0,1,6.0,17.979000091552734,0.0,0.0,0.0,66.7128,C,,
Raw,1730973091999,148843000000,18,134.57245552341075,-1415008161156999936,0.0,134.57245552341075,-2742.5696666527197,0.0,0,16,0.0,47,381095872693958,396,20.299999237060547,-965.73974609375,0.14999,16,-11365.728028806605,0.004900000058114529,1561097980,,,,0,0.0,5,6.0,20.299999237060547,0.0,0.0,30.217845062475714,66.7128,I,,
Raw,1730973091999,148843000000,18,134.57245552341075,-1415008161156999936,0.0,134.57245552341075,-2742.5696666527197,0.0,0,39,0.0,47,381095872628952,316,25.233999252319336,-957.8944702148438,0.14999,17,-12028.970652944738,0.002025000052526593,1561097980,,,,0,6.860172830686158,5,6.0,25.233999252319336,0.0,0.0,30.217845062475714,66.7128,I,,
Raw,1730973091999,148843000000,18,134.57245552341075,-1415008161156999936,0.0,134.57245552341075,-2742.5696666527197,0.0,0,20,0.0,47,381095925092456,316,24.799999237060547,-948.9024047851562,0.14999,17,-11906.96726418366,0.002025000052526593,1561097980,,,,0,5.824914523596729,5,6.0,24.799999237060547,0.0,0.0,30.217845062475714,66.7128,I,,
Raw,1730973091999,148843000000,18,134.57245552341075,-1415008161156999936,0.0,134.57245552341075,-2742.5696666527197,0.0,0,7,0.0,32995,46291934775467,396,0.0,-413.32941435947754,0.14999,16,-6066.506936391463,0.004900000058114529,1604812540,,,,0,3.7474453893074062,3,6.0,23.0,0.0,0.0,-22.08438616190312,66.7128,C,,
Raw,1730973091999,148843000000,18,134.57245552341075,-1415008161156999936,0.0,134.57245552341075,-2742.5696666527197,0.0,0,11,0.0,17,798160,396,0.0,-734.3195814264101,0.14999,16,-9409.077146100166,0.004900000058114529,1602000000,,,,0,0.5992644675488641,3,6.0,22.0,0.0,0.0,-22.08438616190312,66.7128,C,,
Raw,1730973091999,148843000000,18,134.57245552341075,-1415008161156999936,0.0,134.57245552341075,-2742.5696666527197,0.0,0,27,0.0,47,381109925649173,487,20.968000411987305,-469.0478867348915,0.14999,16,-6378.552181277916,0.009999999776482582,1575420030,,,,0,0.0,1,6.0,20.968000411987305,0.0,0.0,0.0,66.7128,C,,
Raw,1730973091999,148843000000,18,134.57245552341075,-1415008161156999936,0.0,134.57245552341075,-2742.5696666527197,0.0,0,9,0.0,47,381109931633007,487,21.39699935913086,-1168.3039158049346,0.14999,16,-14379.828908654948,0.009999999776482582,1575420030,,,,0,0.0,1,6.0,21.39699935913086,0.0,0.0,0.0,66.7128,C,,
Raw,1730973091999,148843000000,18,134.57245552341075,-1415008161156999936,0.0,134.57245552341075,-2742.5696666527197,0.0,0,37,0.0,47,381095920562821,316,24.954999923706055,-601.1348266601562,0.14999,16,-7756.4754433401185,0.002025000052526593,1561097980,,,,0,5.091105111789775,5,6.0,24.954999923706055,0.0,0.0,30.217845062475714,66.7128,I,,
Raw,1730973091999,148843000000,18,134.57245552341075,-1415008161156999936,0.0,134.57245552341075,-2742.5696666527197,0.0,0,40,0.0,47,381095877063850,487,19.6299991607666,-870.5822143554688,0.14999,16,-10779.978041896577,0.009999999776482582,1561097980,,,,0,0.0,5,6.0,19.6299991607666,0.0,0.0,30.217845062475714,66.7128,I,,
Raw,1730973091999,148843000000,18,134.57245552341075,-1415008161156999936,0.0,134.57245552341075,-2742.5696666527197,0.0,0,28,0.0,47,381095918726033,487,19.979999542236328,-946.83447265625,0.14999,16,-11246.868683050367,0.009999999776482582,1561097980,,,,0,1.3879395312696015,5,6.0,19.979999542236328,0.0,0.0,30.217845062475714,66.7128,I,,
Raw,1730973091999,148843000000,18,134.57245552341075,-1415008161156999936,0.0,134.57245552341075,-2742.5696666527197,0.0,0,32,0.0,47,381095923614468,797,18.55299949645996,-366.8232421875,0.14999,16,-7625.096248669878,0.02250000089406967,1561097980,,,,0,0.0,5,6.0,18.55299949645996,0.0,0.0,30.217845062475714,66.7128,I,,
Raw,1730973091999,148843000000,18,134.57245552341075,-1415008161156999936,0.0,134.57245552341075,-2742.5696666527197,0.0,0,29,0.0,47,381109913746872,396,22.100000381469727,-1285.6601051567325,0.14999,28,-13132.188986283389,0.004900000058114529,1575420030,,,,0,2.256188470229469,6,6.0,22.100000381469727,0.0,0.0,1.5723129456839655,66.7128,C,,
Raw,1730973091999,148843000000,18,134.57245552341075,-1415008161156999936,0.0,134.57245552341075,-2742.5696666527197,0.0,0,30,0.0,47,381109913501617,235,27.200000762939453,-385.9145928083435,0.14999,28,-7601.892429754395,0.0008999999845400453,1575420030,,,,0,8.80002707345498,6,6.0,27.200000762939453,0.0,0.0,1.5723129456839655,66.7128,C,,
Raw,1730973092999,149843000000,18,134.7048026362249,-1415008161156999936,0.0,134.7048026362249,-2743.192382975671,0.0,0,4,0.0,16431,381110933109798,316,26.02400016784668,-831.5340112908389,0.14999,21,-11344.318684590135,0.002025000052526593,1575420030,,,,0,6.465215376214676,1,6.0,26.02400016784668,0.0,0.0,0.0,66.7128,C,,
Raw,1730973092999,149843000000,18,134.7048026362249,-1415008161156999936,0.0,134.7048026362249,-2743.192382975671,0.0,0,7,0.0,16431,381110922293981,74,30.339000701904297,-1023.0436866750983,0.14999,17,-13923.799193757637,0.0006249999860301614,1575420030,,,,0,11.958694713616328,1,6.0,30.339000701904297,0.0,0.0,0.0,66.7128,C,,
Raw,1730973092999,149843000000,18,134.7048026362249,-1415008161156999936,0.0,134.7048026362249,-2743.192382975671,0.0,0,8,0.0,47,381110931463433,797,13.899999618530273,-821.0038395893907,0.14999,16,-11239.14240529942,0.02250000089406967,1575420030,,,,0,0.0,1,6.0,13.899999618530273,0.0,0.0,0.0,66.7128,C,,
Raw,1730973092999,149843000000,18,134.7048026362249,-1415008161156999936,0.0,134.7048026362249,-2743.192382975671,0.0,0,16,0.0,47,381096872697186,487,20.0,-965.5945434570312,0.14999,16,-12331.827724429924,0.009999999776482582,1561097980,,,,0,0.0,5,6.0,20.0,0.0,0.0,28.64544629572863,66.7128,I,,
Raw,1730973092999,149843000000,18,134.7048026362249,-1415008161156999936,0.0,134.7048026362249,-2743.192382975671,0.0,0,39,0.0,47,381096872632148,316,25.267000198364258,-958.6996459960938,0.14999,17,-12987.204485966271,0.002025000052526593,1561097980,,,,0,7.204592431426587,5,6.0,25.267000198364258,0.0,0.0,28.64544629572863,66.7128,I,,
Raw,1730973092999,149843000000,18,134.7048026362249,-1415008161156999936,0.0,134.7048026362249,-2743.192382975671,0.0,0,20,0.0,47,381096925095625,235,28.0,-949.6551513671875,0.14999,17,-12856.051451083302,0.0008999999845400453,1561097980,,,,0,9.67047492657586,5,6.0,28.0,0.0,0.0,28.64544629572863,66.7128,I,,
Raw,1730973092999,149843000000,18,134.7048026362249,-1415008161156999936,0.0,134.7048026362249,-2743.192382975671,0.0,0,7,0.0,32995,46292934776841,316,0.0,-412.47687298955714,0.14999,16,-6479.431202989299,0.002025000052526593,1604812540,,,,0,3.7474453893074062,3,6.0,24.0,0.0,0.0,-20.67621891243055,66.7128,C,,
Raw,1730973092999,149843000000,18,134.7048026362249,-1415008161156999936,0.0,134.7048026362249,-2743.192382975671,0.0,0,11,0.0,17,800606,396,0.0,-733.3825289697671,0.14999,16,-10142.846104498054,0.004900000058114529,1602000000,,,,0,0.0,3,6.0,21.0,0.0,0.0,-20.67621891243055,66.7128,C,,
Raw,1730973092999,149843000000,18,134.7048026362249,-1415008161156999936,0.0,134.7048026362249,-2743.192382975671,0.0,0,27,0.0,47,381110925650732,396,23.965999603271484,-471.2799348833106,0.14999,16,-6848.1568324381815,0.004900000058114529,1575420030,,,,0,3.5703498304361436,1,6.0,23.965999603271484,0.0,0.0,0.0,66.7128,C,,
Raw,1730973092999,149843000000,18,134.7048026362249,-1415008161156999936,0.0,134.7048026362249,-2743.192382975671,0.0,0,9,0.0,47,381110931636902,797,18.57900047302246,-1168.1919510218672,0.14999,16,-15548.31794188113,0.02250000089406967,1575420030,,,,0,0.0,1,6.0,18.57900047302246,0.0,0.0,0.0,66.7128,C,,
Raw,1730973092999,149843000000,18,134.7048026362249,-1415008161156999936,0.0,134.7048026362249,-2743.192382975671,0.0,0,37,0.0,47,381096920564828,316,24.996999740600586,-601.9112548828125,0.14999,17,-8357.8637739369,0.002025000052526593,1561097980,,,,0,7.091296612464529,5,6.0,24.996999740600586,0.0,0.0,28.64544629572863,66.7128,I,,
Raw,1730973092999,149843000000,18,134.7048026362249,-1415008161156999936,0.0,134.7048026362249,-2743.192382975671,0.0,0,40,0.0,47,381096877066770,487,19.607999801635742,-873.126953125,0.14999,16,-11651.937439670932,0.009999999776482582,1561097980,,,,0,0.0,5,6.0,19.607999801635742,0.0,0.0,28.64544629572863,66.7128,I,,
Raw,1730973092999,149843000000,18,134.7048026362249,-1415008161156999936,0.0,134.7048026362249,-2743.192382975671,0.0,0,28,0.0,47,381096918729191,487,19.961000442504883,-947.7708740234375,0.14999,16,-12193.589661338978,0.009999999776482582,1561097980,,,,0,0.0,5,6.0,19.961000442504883,0.0,0.0,28.64544629572863,66.7128,I,,
Raw,1730973092999,149843000000,18,134.7048026362249,-1415008161156999936,0.0,134.7048026362249,-2743.192382975671,0.0,0,32,0.0,47,381096923615675,797,18.43000030517578,-362.6167297363281,0.14999,16,-7989.649422954215,0.02250000089406967,1561097980,,,,0,0.0,5,6.0,18.43000030517578,0.0,0.0,28.64544629572863,66.7128,I,,
Raw,1730973092999,149843000000,18,134.7048026362249,-1415008161156999936,0.0,134.7048026362249,-2743.192382975671,0.0,0,29,0.0,47,381110913751162,396,22.139999389648438,-1286.568738860978,0.14999,25,-14418.356615751612,0.004900000058114529,1575420030,,,,0,3.4239549666262126,6,6.0,22.139999389648438,0.0,0.0,1.123880487850418,66.7128,C,,
Raw,1730973092999,149843000000,18,134.7048026362249,-1415008161156999936,0.0,134.7048026362249,-2743.192382975671,0.0,0,30,0.0,47,381110913502904,235,28.799999237060547,-386.94680589970926,0.14999,25,-7988.296854928608,0.0008999999845400453,1575420030,,,,0,10.58437846622713,6,6.0,28.799999237060547,0.0,0.0,1.123880487850418,66.7128,C,,
Raw,1730973093999,150843000000,18,133.04529123288754,-1415008161156999936,0.0,133.04529123288754,-2752.6287509318327,0.0,0,4,0.0,16431,381111933112577,316,25.1560001373291,-834.2114098170522,0.14999,21,-12177.222362988645,0.002025000052526593,1575420030,,,,0,5.251434876896111,1,6.0,25.1560001373291,0.0,0.0,0.0,66.7128,C,,
Raw,1730973093999,150843000000,18,133.04529123288754,-1415008161156999936,0.0,133.04529123288754,-2752.6287509318327,0.0,0,7,0.0,16431,381111922297399,74,29.981000900268555,-1025.6185979351512,0.14999,20,-14948.299320247284,0.0006249999860301614,1575420030,,,,0,11.51001925616989,1,6.0,29.981000900268555,0.0,0.0,0.0,66.7128,C,,
Raw,1730973093999,150843000000,18,133.04529123288754,-1415008161156999936,0.0,133.04529123288754,-2752.6287509318327,0.0,0,8,0.0,47,381111931466173,797,13.899999618530273,-823.3013941046667,0.14999,16,-12060.720857505268,0.02250000089406967,1575420030,,,,0,0.0,1,6.0,13.899999618530273,0.0,0.0,0.0,66.7128,C,,
Raw,1730973093999,150843000000,18,133.04529123288754,-1415008161156999936,0.0,133.04529123288754,-2752.6287509318327,0.0,0,16,0.0,47,381097872700415,797,16.399999618530273,-970.7479858398438,0.14999,16,-13299.645026600241,0.02250000089406967,1561097980,,,,0,0.0,5,6.0,16.399999618530273,0.0,0.0,25.930952110743146,66.7128,I,,
Raw,1730973093999,150843000000,18,133.04529123288754,-1415008161156999936,0.0,133.04529123288754,-2752.6287509318327,0.0,0,39,0.0,47,381097872635349,235,25.347999572753906,-961.5669555664062,0.14999,20,-13947.267173997147,0.0008999999845400453,1561097980,,,,0,8.399114969795157,5,6.0,25.347999572753906,0.0,0.0,25.930952110743146,66.7128,I,,
Raw,1730973093999,150843000000,18,133.04529123288754,-1415008161156999936,0.0,133.04529123288754,-2752.6287509318327,0.0,0,20,0.0,47,381097925098797,235,26.399999618530273,-952.0060424804688,0.14999,20,-13807.037073346923,0.0008999999845400453,1561097980,,,,0,7.78332168729065,5,6.0,26.399999618530273,0.0,0.0,25.930952110743146,66.7128,I,,
Raw,1730973093999,150843000000,18,133.04529123288754,-1415008161156999936,0.0,133.04529123288754,-2752.6287509318327,0.0,0,7,0.0,32995,46293934778222,396,0.0,-415.2345772892204,0.14999,16,-6893.405439668273,0.004900000058114529,1604812540,,,,0,2.296432046335171,3,6.0,22.0,0.0,0.0,-20.67286121549756,66.7128,C,,
Raw,1730973093999,150843000000,18,133.04529123288754,-1415008161156999936,0.0,133.04529123288754,-2752.6287509318327,0.0,0,11,0.0,17,803059,396,0.0,-737.121921091603,0.14999,16,-10878.278290487302,0.004900000058114529,1602000000,,,,0,2.7352346892245913,3,6.0,22.0,0.0,0.0,-20.67286121549756,66.7128,C,,
Raw,1730973093999,150843000000,18,133.04529123288754,-1415008161156999936,0.0,133.04529123288754,-2752.6287509318327,0.0,0,27,0.0,47,381111925652309,316,23.96500015258789,-473.297995566664,0.14999,16,-7320.1788189736235,0.002025000052526593,1575420030,,,,0,3.5218251811136247,1,6.0,23.96500015258789,0.0,0.0,0.0,66.7128,C,,
Raw,1730973093999,150843000000,18,133.04529123288754,-1415008161156999936,0.0,133.04529123288754,-2752.6287509318327,0.0,0,9,0.0,47,381111931640809,487,18.57900047302246,-1172.6399727066967,0.14999,16,-16719.583097216277,0.009999999776482582,1575420030,,,,0,0.0,1,6.0,18.57900047302246,0.0,0.0,0.0,66.7128,C,,
Raw,1730973093999,150843000000,18,133.04529123288754,-1415008161156999936,0.0,133.04529123288754,-2752.6287509318327,0.0,0,37,0.0,47,381097920566840,235,27.700000762939453,-604.86767578125,0.14999,20,-8961.242855138866,0.0008999999845400453,1561097980,,,,0,9.33735240708219,5,6.0,27.700000762939453,0.0,0.0,25.930952110743146,66.7128,I,,
Raw,1730973093999,150843000000,18,133.04529123288754,-1415008161156999936,0.0,133.04529123288754,-2752.6287509318327,0.0,0,40,0.0,47,381097877069696,487,19.62700080871582,-873.5776977539062,0.14999,16,-12525.397045772312,0.009999999776482582,1561097980,,,,0,0.0,5,6.0,19.62700080871582,0.0,0.0,25.930952110743146,66.7128,I,,
Raw,1730973093999,150843000000,18,133.04529123288754,-1415008161156999936,0.0,133.04529123288754,-2752.6287509318327,0.0,0,28,0.0,47,381097918732356,487,19.941999435424805,-948.7699584960938,0.14999,16,-13142.356960253577,0.009999999776482582,1561097980,,,,0,0.0,5,6.0,19.941999435424805,0.0,0.0,25.930952110743146,66.7128,I,,
Raw,1730973093999,150843000000,18,133.04529123288754,-1415008161156999936,0.0,133.04529123288754,-2752.6287509318327,0.0,0,32,0.0,47,381097923616898,797,18.312999725341797,-369.9535827636719,0.14999,16,-8356.612628397786,0.02250000089406967,1561097980,,,,0,0.0,5,6.0,18.312999725341797,0.0,0.0,25.930952110743146,66.7128,I,,
Raw,1730973093999,150843000000,18,133.04529123288754,-1415008161156999936,0.0,133.04529123288754,-2752.6287509318327,0.0,0,29,0.0,47,381111913755456,396,22.163000106811523,-1289.4479527472101,0.14999,28,-15706.373097992355,0.004900000058114529,1575420030,,,,0,3.016689276829158,6,6.0,22.163000106811523,0.0,0.0,-0.9429517730436844,66.7128,C,,
Raw,1730973093999,150843000000,18,133.04529123288754,-1415008161156999936,0.0,133.04529123288754,-2752.6287509318327,0.0,0,30,0.0,47,381111913504198,235,28.399999618530273,-389.6000925079093,0.14999,29,-8376.508259324079,0.0008999999845400453,1575420030,,,,0,10.112195850622,6,6.0,28.399999618530273,0.0,0.0,-0.9429517730436844,66.7128,C,,
Raw,1730973094999,151843000000,18,132.78520326193072,-1415008161156999936,0.0,132.78520326193072,-2765.9133631191007,0.0,0,4,0.0,16431,381112933115366,316,25.44099998474121,-837.9344014584999,0.14999,17,-13012.985368864478,0.002025000052526593,1575420030,,,,0,5.644528636825511,1,6.0,25.44099998474121,0.0,0.0,0.0,66.7128,C,,
Raw,1730973094999,151843000000,18,132.78520326193072,-1415008161156999936,0.0,132.78520326193072,-2765.9133631191007,0.0,0,7,0.0,16431,381112922300834,316,26.95199966430664,-1029.5643112239122,0.14999,16,-15975.752065617657,0.002025000052526593,1575420030,,,,0,7.689680516458353,1,6.0,26.95199966430664,0.0,0.0,0.0,66.7128,C,,
Raw,1730973094999,151843000000,18,132.78520326193072,-1415008161156999936,0.0,132.78520326193072,-2765.9133631191007,0.0,0,8,0.0,47,381112931468919,1797,13.899999618530273,-822.9141167471356,0.14999,16,-12884.057511747578,0.02250000089406967,1575420030,,,,0,0.0,1,6.0,13.899999618530273,0.0,0.0,0.0,66.7128,C,,
Raw,1730973094999,151843000000,18,132.78520326193072,-1415008161156999936,0.0,132.78520326193072,-2765.9133631191007,0.0,0,16,0.0,47,381098872703661,1797,16.399999618530273,-976.1873779296875,0.14999,16,-14272.759236077916,0.02250000089406967,1561097980,,,,0,0.0,5,6.0,16.399999618530273,0.0,0.0,24.588110717106428,66.7128,I,,
Raw,1730973094999,151843000000,18,132.78520326193072,-1415008161156999936,0.0,132.78520326193072,-2765.9133631191007,0.0,0,39,0.0,47,381098872638561,396,25.25,-965.68896484375,0.14999,16,-14910.764883539661,0.004900000058114529,1561097980,,,,0,4.02794248640903,5,6.0,25.25,0.0,0.0,24.588110717106428,66.7128,I,,
Raw,1730973094999,151843000000,18,132.78520326193072,-1415008161156999936,0.0,132.78520326193072,-2765.9133631191007,0.0,0,20,0.0,47,381098925101979,396,22.200000762939453,-955.6655883789062,0.14999,16,-14761.009028177032,0.004900000058114529,1561097980,,,,0,2.477032819341716,5,6.0,22.200000762939453,0.0,0.0,24.588110717106428,66.7128,I,,
Raw,1730973094999,151843000000,18,132.78520326193072,-1415008161156999936,0.0,132.78520326193072,-2765.9133631191007,0.0,0,7,0.0,32995,46294934779612,797,0.0,-418.5622843728811,0.14999,16,-7310.392469890894,0.02250000089406967,1604812540,,,,0,2.807514135782934,3,6.0,17.0,0.0,0.0,-20.933484432949353,66.7128,C,,
Raw,1730973094999,151843000000,18,132.78520326193072,-1415008161156999936,0.0,132.78520326193072,-2765.9133631191007,0.0,0,11,0.0,17,805528,487,0.0,-741.66966373101,0.14999,16,-11618.315394963814,0.009999999776482582,1602000000,,,,0,0.0,3,6.0,19.0,0.0,0.0,-20.933484432949353,66.7128,C,,
Raw,1730973094999,151843000000,18,132.78520326193072,-1415008161156999936,0.0,132.78520326193072,-2765.9133631191007,0.0,0,27,0.0,47,381112925653902,316,24.035999298095703,-476.3143082391332,0.14999,17,-7795.167780040398,0.002025000052526593,1575420030,,,,0,5.567320220560749,1,6.0,24.035999298095703,0.0,0.0,0.0,66.7128,C,,
Raw,1730973094999,151843000000,18,132.78520326193072,-1415008161156999936,0.0,132.78520326193072,-2765.9133631191007,0.0,0,9,0.0,47,381112931644726,797,18.63599967956543,-1174.3544740985303,0.14999,16,-17893.603902265673,0.02250000089406967,1575420030,,,,0,0.0,1,6.0,18.63599967956543,0.0,0.0,0.0,66.7128,C,,
Raw,1730973094999,151843000000,18,132.78520326193072,-1415008161156999936,0.0,132.78520326193072,-2765.9133631191007,0.0,0,37,0.0,47,381098920568863,316,23.899999618530273,-608.2841186523438,0.14999,16,-9567.76859679797,0.002025000052526593,1561097980,,,,0,4.710568938150978,5,6.0,23.899999618530273,0.0,0.0,24.588110717106428,66.7128,I,,
Raw,1730973094999,151843000000,18,132.78520326193072,-1415008161156999936,0.0,132.78520326193072,-2765.9133631191007,0.0,0,40,0.0,47,381098877072619,487,19.674999237060547,-879.4225463867188,0.14999,16,-13402.383719656871,0.009999999776482582,1561097980,,,,0,0.17200343523835138,5,6.0,19.674999237060547,0.0,0.0,24.588110717106428,66.7128,I,,
Raw,1730973094999,151843000000,18,132.78520326193072,-1415008161156999936,0.0,132.78520326193072,-2765.9133631191007,0.0,0,28,0.0,47,381098918735534,797,19.874000549316406,-956.1441040039062,0.14999,16,-14094.807719462457,0.02250000089406967,1561097980,,,,0,0.0,5,6.0,19.874000549316406,0.0,0.0,24.588110717106428,66.7128,I,,
Raw,1730973094999,151843000000,18,132.78520326193072,-1415008161156999936,0.0,132.78520326193072,-2765.9133631191007,0.0,0,32,0.0,47,381098923618135,797,15.399999618530273,-375.9574279785156,0.14999,16,-8728.952134427753,0.02250000089406967,1561097980,,,,0,0.0,5,6.0,15.399999618530273,0.0,0.0,24.588110717106428,66.7128,I,,
Raw,1730973094999,151843000000,18,132.78520326193072,-1415008161156999936,0.0,132.78520326193072,-2765.9133631191007,0.0,0,29,0.0,47,381112913759763,487,19.600000381469727,-1292.9094764222248,0.14999,25,-16997.52582019659,0.009999999776482582,1575420030,,,,0,0.0,6,6.0,19.600000381469727,0.0,0.0,-2.449730585875695,66.7128,C,,
Raw,1730973094999,151843000000,18,132.78520326193072,-1415008161156999936,0.0,132.78520326193072,-2765.9133631191007,0.0,0,30,0.0,16431,381112913505503,396,23.5,-393.29818243826816,0.14999,28,-8767.814970914711,0.004900000058114529,1575420030,,,,0,4.228384427948485,6,6.0,23.5,0.0,0.0,-2.449730585875695,66.7128,C,,
Raw,1730973094999,151843000000,18,132.78520326193072,-1415008161156999936,0.0,132.78520326193072,-2765.9133631191007,0.0,0,27,0.0,16905,381098919875308,316,23.299999237060547,-1204.6376953125,0.14999,16,-13389.851358404288,0.002025000052526593,1561097980,,,,0,3.9179930481846754,5,6.0,23.299999237060547,0.0,0.0,24.588110717106428,66.7128,I,,
Fix,FLP,12.9286501000,77.5170264000,755.7999877929688,0.09900479,15.497,,1730973093281,1.5,,2286644422000000,1.0,0,,,
Raw,1730973095999,152843000000,18,123.86740514659802,-1415008161156999936,0.0,123.86740514659802,-2776.172615505259,0.0,0,4,0.0,16431,381113933118164,396,24.69300079345703,-841.1826810031083,0.14999,20,-13851.841328468247,0.004900000058114529,1575420030,,,,0,4.582959767157116,1,6.0,24.69300079345703,0.0,0.0,0.0,66.7128,C,,
Raw,1730973095999,152843000000,18,123.86740514659802,-1415008161156999936,0.0,123.86740514659802,-2776.172615505259,0.0,0,7,0.0,16431,381113922304276,316,26.26799964904785,-1033.2626799047684,0.14999,17,-17006.86320429236,0.002025000052526593,1575420030,,,,0,6.761022320503383,1,6.0,26.26799964904785,0.0,0.0,0.0,66.7128,C,,
Raw,1730973095999,152843000000,18,123.86740514659802,-1415008161156999936,0.0,123.86740514659802,-2776.172615505259,0.0,0,8,0.0,47,381113931471652,1797,10.5,-827.5580071147086,0.14999,16,-13708.755661004072,0.02250000089406967,1575420030,,,,0,0.0,1,6.0,10.5,0.0,0.0,0.0,66.7128,C,,
Raw,1730973095999,152843000000,18,123.86740514659802,-1415008161156999936,0.0,123.86740514659802,-2776.172615505259,0.0,0,6,0.0,16905,381099874365945,1797,15.5,-955.5897216796875,0.14999,16,-14083.194654962894,0.02250000089406967,1561097980,,,,0,0.0,5,6.0,15.5,0.0,0.0,24.24382128680791,66.7128,I,,
Raw,1730973095999,152843000000,18,123.86740514659802,-1415008161156999936,0.0,123.86740514659802,-2776.172615505259,0.0,0,16,0.0,47,381099872706920,1797,16.399999618530273,-978.8092651367188,0.14999,16,-15250.081089264511,0.02250000089406967,1561097980,,,,0,0.0,5,6.0,16.399999618530273,0.0,0.0,24.24382128680791,66.7128,I,,
Raw,1730973095999,152843000000,18,123.86740514659802,-1415008161156999936,0.0,123.86740514659802,-2776.172615505259,0.0,0,39,0.0,47,381099872641787,487,22.0,-967.3955688476562,0.14999,16,-15877.658024851264,0.009999999776482582,1561097980,,,,0,2.1441993929573675,5,6.0,22.0,0.0,0.0,24.24382128680791,66.7128,I,,
Raw,1730973095999,152843000000,18,123.86740514659802,-1415008161156999936,0.0,123.86740514659802,-2776.172615505259,0.0,0,20,0.0,47,381099925105168,487,22.170000076293945,-957.6691284179688,0.14999,16,-15717.834044457677,0.009999999776482582,1561097980,,,,0,1.6557074063290014,5,6.0,22.170000076293945,0.0,0.0,24.24382128680791,66.7128,I,,
Raw,1730973095999,152843000000,18,123.86740514659802,-1415008161156999936,0.0,123.86740514659802,-2776.172615505259,0.0,0,7,0.0,32995,46295934781009,797,0.0,-422.20112595745644,0.14999,16,-7729.157149320359,0.02250000089406967,1604812540,,,,0,2.807514135782934,3,6.0,17.0,0.0,0.0,-20.6929236671975,66.7128,C,,
Raw,1730973095999,152843000000,18,123.86740514659802,-1415008161156999936,0.0,123.86740514659802,-2776.172615505259,0.0,0,11,0.0,17,808004,797,0.0,-744.6898418220087,0.14999,16,-12360.74350437305,0.02250000089406967,1602000000,,,,0,0.0,3,6.0,17.0,0.0,0.0,-20.6929236671975,66.7128,C,,
