# 
# Header Description:
# 
# Version: v3.1.0.2 Platform: 13 Manufacturer: OPPO Model: CPH2371 GNSS Hardware Model Name: MTK_MNLD_default,MNL_VER_default
# 
# Raw,utcTimeMillis,TimeNanos,LeapSecond,TimeUncertaintyNanos,FullBiasNanos,BiasNanos,BiasUncertaintyNanos,DriftNanosPerSecond,DriftUncertaintyNanosPerSecond,HardwareClockDiscontinuityCount,Svid,TimeOffsetNanos,State,ReceivedSvTimeNanos,ReceivedSvTimeUncertaintyNanos,Cn0DbHz,PseudorangeRateMetersPerSecond,PseudorangeRateUncertaintyMetersPerSecond,AccumulatedDeltaRangeState,AccumulatedDeltaRangeMeters,AccumulatedDeltaRangeUncertaintyMeters,CarrierFrequencyHz,CarrierCycles,CarrierPhase,CarrierPhaseUncertainty,MultipathIndicator,SnrInDb,ConstellationType,AgcDb,BasebandCn0DbHz,FullInterSignalBiasNanos,FullInterSignalBiasUncertaintyNanos,SatelliteInterSignalBiasNanos,SatelliteInterSignalBiasUncertaintyNanos,CodeType,ChipsetElapsedRealtimeNanos,IsFullTracking
# 
# UncalAccel,utcTimeMillis,elapsedRealtimeNanos,UncalAccelXMps2,UncalAccelYMps2,UncalAccelZMps2,BiasXMps2,BiasYMps2,BiasZMps2
# 
# Accel,utcTimeMillis,elapsedRealtimeNanos,AccelXMps2,AccelYMps2,AccelZMps2
# 
# UncalGyro,utcTimeMillis,elapsedRealtimeNanos,UncalGyroXRadPerSec,UncalGyroYRadPerSec,UncalGyroZRadPerSec,DriftXRadPerSec,DriftYRadPerSec,DriftZRadPerSec
# 
# Gyro,utcTimeMillis,elapsedRealtimeNanos,GyroXRadPerSec,GyroYRadPerSec,GyroZRadPerSec
# 
# UncalMag,utcTimeMillis,elapsedRealtimeNanos,UncalMagXMicroT,UncalMagYMicroT,UncalMagZMicroT,BiasXMicroT,BiasYMicroT,BiasZMicroT
# 
# Mag,utcTimeMillis,elapsedRealtimeNanos,MagXMicroT,MagYMicroT,MagZMicroT
# 
# Pressure,utcTimeMillis,elapsedRealtimeNanos,PressureHpa
# 
# OrientationDeg,utcTimeMillis,elapsedRealtimeNanos,yawDeg,rollDeg,pitchDeg
# 
# Fix,Provider,LatitudeDegrees,LongitudeDegrees,AltitudeMeters,SpeedMps,AccuracyMeters,BearingDegrees,UnixTimeMillis,SpeedAccuracyMps,BearingAccuracyDegrees,elapsedRealtimeNanos,VerticalAccuracyMeters,MockLocation,NumberOfUsedSignals,VerticalSpeedAccuracyMps,SolutionType
# 
# Nav,Svid,Type,Status,MessageId,Sub-messageId,Data(Bytes)
# 
# Status,UnixTimeMillis,SignalCount,SignalIndex,ConstellationType,Svid,CarrierFrequencyHz,Cn0DbHz,AzimuthDegrees,ElevationDegrees,UsedInFix,HasAlmanacData,HasEphemerisData,BasebandCn0DbHz
# 
# Agc,utcTimeMillis,TimeNanos,LeapSecond,TimeUncertaintyNanos,FullBiasNanos,BiasNanos,BiasUncertaintyNanos,DriftNanosPerSecond,DriftUncertaintyNanosPerSecond,HardwareClockDiscontinuityCount,AgcDb,CarrierFrequencyHz,ConstellationType
# 
Fix,FLP,12.9368168000,77.5432136000,795.699951171875,0.51018906,2.033,327.35443,1727326410008,2.2,56.3,115140149000000,1.04784,0,,,
Status,,67,0,2,126,1575420030,0.00,230.0,69.0,0,0,0,0.0
Status,,67,1,2,127,1575420030,0.00,242.0,60.0,0,0,0,0.0
Status,,67,2,1,32,1575420030,31.30,312.0,59.0,1,0,0,31.3
Status,,67,3,1,18,1575420030,23.80,130.0,45.0,1,0,0,23.8
Status,,67,4,1,28,1575420030,37.70,182.0,43.0,1,0,0,37.7
Status,,67,5,1,10,1575420030,30.40,355.0,35.0,1,0,0,30.4
Status,,67,6,1,23,1575420030,22.30,43.0,33.0,1,0,0,22.3
Status,,67,7,1,27,1575420030,23.60,273.0,30.0,1,0,0,23.6
Status,,67,8,2,128,1575420030,0.00,0.0,14.0,0,0,0,0.0
Status,,67,9,1,24,1575420030,0.00,43.0,11.0,0,0,0,0.0
Status,,67,10,1,31,1575420030,0.00,202.0,11.0,0,0,0,0.0
Status,,67,11,1,8,1575420030,15.30,300.0,10.0,1,0,0,15.3
Status,,67,12,1,25,1575420030,0.00,126.0,8.0,0,0,0,0.0
Status,,67,13,1,26,1575420030,0.00,206.0,3.0,0,0,0,0.0
Status,,67,14,3,17,1602000000,28.70,316.0,64.0,1,0,0,28.7
Status,,67,15,3,24,1602000000,24.60,169.0,53.0,1,0,0,24.6
Status,,67,16,3,3,1602000000,24.00,295.0,31.0,1,0,0,24.0
Status,,67,17,3,2,1602000000,17.70,357.0,29.0,1,0,0,17.7
Status,,67,18,3,13,1602000000,0.00,141.0,18.0,0,0,0,0.0
Status,,67,19,3,12,1602000000,19.50,94.0,17.0,1,0,0,19.5
Status,,67,20,3,18,1602000000,13.20,333.0,17.0,1,0,0,13.2
Status,,67,21,3,4,1602000000,0.00,253.0,5.0,0,0,0,0.0
Status,,67,22,3,1,1602000000,0.00,38.0,3.0,0,0,0,0.0
Status,,67,23,6,12,1575420030,22.90,32.0,75.0,1,0,0,22.9
Status,,67,24,6,4,1575420030,27.40,311.0,63.0,1,0,0,27.4
Status,,67,25,6,10,1575420030,29.50,344.0,56.0,1,0,0,29.5
Status,,67,26,6,6,1575420030,28.70,264.0,50.0,1,0,0,28.7
Status,,67,27,6,33,1575420030,0.00,131.0,36.0,0,0,0,0.0
Status,,67,28,6,9,1575420030,18.80,246.0,30.0,1,0,0,18.8
Status,,67,29,6,11,1575420030,13.50,332.0,29.0,1,0,0,13.5
Status,,67,30,6,19,1575420030,0.00,28.0,27.0,0,0,0,0.0
Status,,67,31,6,31,1575420030,0.00,181.0,10.0,0,0,0,0.0
Status,,67,32,5,60,1561097980,0.00,168.0,77.0,0,0,0,0.0
Status,,67,33,5,2,1561097980,0.00,147.0,76.0,0,0,0,0.0
Status,,67,34,5,9,1561097980,19.80,120.0,67.0,1,0,0,19.8
Status,,67,35,5,6,1561097980,24.50,89.0,65.0,1,0,0,24.5
Status,,67,36,5,5,1561097980,0.00,241.0,65.0,0,0,0,0.0
Status,,67,37,5,16,1561097980,20.10,73.0,60.0,1,0,0,20.1
Status,,67,38,5,39,1561097980,19.40,59.0,55.0,1,0,0,19.4
Status,,67,39,5,43,1561097980,37.40,185.0,53.0,1,0,0,37.4
Status,,67,40,5,3,1561097980,0.00,107.0,50.0,0,0,0,0.0
Status,,67,41,5,61,1561097980,0.00,108.0,49.0,0,0,0,0.0
Status,,67,42,5,28,1561097980,36.70,301.0,46.0,1,0,0,36.7
Status,,67,43,5,13,1561097980,19.20,38.0,41.0,1,0,0,19.2
Status,,67,44,5,56,1561097980,0.00,139.0,40.0,0,0,0,0.0
Status,,67,45,5,33,1561097980,33.10,353.0,39.0,1,0,0,33.1
Status,,67,46,5,11,1561097980,20.00,165.0,35.0,1,0,0,20.0
Status,,67,47,5,8,1561097980,18.10,55.0,34.0,1,0,0,18.1
Status,,67,48,5,38,1561097980,19.70,72.0,31.0,1,0,0,19.7
Status,,67,49,5,25,1561097980,19.80,158.0,30.0,1,0,0,19.8
Status,,67,50,5,14,1561097980,27.40,24.0,29.0,1,0,0,27.4
Status,,67,51,5,24,1561097980,21.90,96.0,28.0,1,0,0,21.9
Status,,67,52,5,41,1561097980,23.20,293.0,27.0,1,0,0,23.2
Status,,67,53,5,10,1561097980,0.00,170.0,21.0,0,0,0,0.0
Status,,67,54,5,59,1561097980,0.00,94.0,19.0,0,0,0,0.0
Status,,67,55,5,7,1561097980,0.00,159.0,15.0,0,0,0,0.0
Status,,67,56,5,1,1561097980,0.00,94.0,14.0,0,0,0,0.0
Status,,67,57,5,42,1561097980,0.00,46.0,14.0,0,0,0,0.0
Status,,67,58,5,34,1561097980,0.00,156.0,13.0,0,0,0,0.0
Status,,67,59,5,27,1561097980,0.00,321.0,6.0,0,0,0,0.0
Status,,67,60,5,40,1561097980,0.00,157.0,4.0,0,0,0,0.0
Status,,67,61,5,23,1561097980,0.00,201.0,3.0,0,0,0,0.0
Status,,67,62,5,26,1561097980,0.00,54.0,2.0,0,0,0,0.0
Status,,67,63,5,57,1561097980,0.00,134.0,2.0,0,0,0,0.0
Status,,67,64,4,196,1575420030,0.00,56.0,36.0,0,0,0,0.0
Status,,67,65,4,199,1575420030,0.00,44.0,29.0,0,0,0,0.0
Status,,67,66,4,195,1575420030,17.00,129.0,20.0,1,0,0,17.0
Fix,GPS,12.9368266667,77.5432083333,776.1,0.6711978,2.3,321.15,1727326411000,2.0,37.2,115141149000000,17.2,0,,,
Raw,1727326411000,479979000000,18,42.65488213637698,-1411361149021999872,0.0,42.65488213637698,-4106.768254484821,0.0,0,23,0.0,16431,363228926163995,316,22.32699966430664,-1224.702853498377,0.14999,16,-51835.09489868516,0.002025000052526593,1575420030,,,,0,4.531348311273407,1,6.0,22.32699966430664,0.0,0.0,0.0,66.7128,C,,
Raw,1727326411000,479979000000,18,42.65488213637698,-1411361149021999872,0.0,42.65488213637698,-4106.768254484821,0.0,0,18,0.0,16431,363228928460935,396,23.783000946044922,-835.5125242214446,0.14999,16,-33986.53998992318,0.004900000058114529,1575420030,,,,0,3.275050354687235,1,6.0,23.783000946044922,0.0,0.0,0.0,66.7128,C,,
Raw,1727326411000,479979000000,18,42.65488213637698,-1411361149021999872,0.0,42.65488213637698,-4106.768254484821,0.0,0,195,0.0,47,363228876536822,797,17.0,-1248.151624078657,0.14999,16,-52885.75926945053,0.02250000089406967,1575420030,,,,0,0.0,4,6.0,17.0,0.0,,0.0,,C,,
Raw,1727326411000,479979000000,18,42.65488213637698,-1411361149021999872,0.0,42.65488213637698,-4106.768254484821,0.0,0,32,0.0,16431,363228929936362,74,31.344999313354492,-1089.1446283426199,0.14999,20,-45769.61169950661,0.0006249999860301614,1575420030,,,,0,13.161029991376168,1,6.0,31.344999313354492,0.0,0.0,0.0,66.7128,C,,
Raw,1727326411000,479979000000,18,42.65488213637698,-1411361149021999872,0.0,42.65488213637698,-4106.768254484821,0.0,0,9,0.0,16431,363228914086777,487,18.768999099731445,-1472.2169417056189,0.14999,24,-58792.985790833096,0.009999999776482582,1575420030,,,,0,0.0,6,6.0,18.768999099731445,0.0,0.0,7.571681173701699,66.7128,C,,
Raw,1727326411000,479979000000,18,42.65488213637698,-1411361149021999872,0.0,42.65488213637698,-4106.768254484821,0.0,0,28,0.0,16905,363214924614582,58,36.70199966430664,-1472.17822265625,0.14999,17,-62732.11497508312,0.00039999998989515007,1561097980,,,,0,17.647588504555426,5,6.0,36.70199966430664,0.0,0.0,10.082615212445079,66.7128,I,,
Raw,1727326411000,479979000000,18,42.65488213637698,-1411361149021999872,0.0,42.65488213637698,-4106.768254484821,0.0,0,39,0.0,16905,363214877735929,396,19.361000061035156,-1221.587890625,0.14999,16,-51798.39715045058,0.004900000058114529,1561097980,,,,0,0.0,5,6.0,19.361000061035156,0.0,0.0,10.082615212445079,66.7128,I,,
Raw,1727326411000,479979000000,18,42.65488213637698,-1411361149021999872,0.0,42.65488213637698,-4106.768254484821,0.0,0,10,0.0,16431,363228925515611,74,30.367000579833984,-1397.5459089165718,0.14999,17,-59537.22245777434,0.0006249999860301614,1575420030,,,,0,11.99546043893523,1,6.0,30.367000579833984,0.0,0.0,0.0,66.7128,C,,
Raw,1727326411000,479979000000,18,42.65488213637698,-1411361149021999872,0.0,42.65488213637698,-4106.768254484821,0.0,0,33,0.0,47,363214921659673,74,33.10200119018555,-1082.51708984375,0.14999,21,-45448.22237031426,0.0006249999860301614,1561097980,,,,0,14.507982295529388,5,6.0,33.10200119018555,0.0,0.0,10.082615212445079,66.7128,I,,
Raw,1727326411000,479979000000,18,42.65488213637698,-1411361149021999872,0.0,42.65488213637698,-4106.768254484821,0.0,0,24,0.0,16905,363214920655579,396,21.899999618530273,-1338.9942626953125,0.14999,20,-55157.52634416901,0.004900000058114529,1561097980,,,,0,2.0397907707466274,5,6.0,21.899999618530273,0.0,0.0,10.082615212445079,66.7128,I,,
Raw,1727326411000,479979000000,18,42.65488213637698,-1411361149021999872,0.0,42.65488213637698,-4106.768254484821,0.0,0,4,0.0,16431,363228921556820,235,27.399999618530273,-1105.484239157531,0.14999,24,-47245.15432047824,0.0008999999845400453,1575420030,,,,0,9.002911262249603,6,6.0,27.399999618530273,0.0,0.0,7.571681173701699,66.7128,C,,
Raw,1727326411000,479979000000,18,42.65488213637698,-1411361149021999872,0.0,42.65488213637698,-4106.768254484821,0.0,0,6,0.0,16905,363214879568771,316,24.5,-1311.298583984375,0.14999,16,-54698.56515877201,0.002025000052526593,1561097980,,,,0,5.448663909716199,5,6.0,24.5,0.0,0.0,10.082615212445079,66.7128,I,,
Raw,1727326411000,479979000000,18,42.65488213637698,-1411361149021999872,0.0,42.65488213637698,-4106.768254484821,0.0,0,2,0.0,32995,28410928018779,797,0.0,-868.5418183211201,0.14999,16,-35416.38396150083,0.02250000089406967,1599750020,,,,0,0.0,3,6.0,17.0,0.0,0.0,-5.346817473205067,66.7128,C,,
Raw,1727326411000,479979000000,18,42.65488213637698,-1411361149021999872,0.0,42.65488213637698,-4106.768254484821,0.0,0,17,0.0,17,710115,235,19.475000381469727,-1494.050097781098,0.14999,21,-64401.69528351462,0.0008999999845400453,1604249980,,,,0,10.565475543340874,3,6.0,19.475000381469727,0.0,0.0,-5.346817473205067,66.7128,C,,
Raw,1727326411000,479979000000,18,42.65488213637698,-1411361149021999872,0.0,42.65488213637698,-4106.768254484821,0.0,0,18,0.0,32995,28410924551839,1797,0.0,-1967.2229909811829,0.14999,16,-65750.8276353724,0.02250000089406967,1600312450,,,,0,0.0,3,6.0,14.0,0.0,0.0,-5.346817473205067,66.7128,C,,
Raw,1727326411000,479979000000,18,42.65488213637698,-1411361149021999872,0.0,42.65488213637698,-4106.768254484821,0.0,0,24,0.0,32995,28410933719796,316,0.0,-706.6107869815778,0.14999,20,-34992.87251517494,0.002025000052526593,1603124990,,,,0,5.6358127535662215,3,6.0,25.0,0.0,0.0,-5.346817473205067,66.7128,C,,
Raw,1727326411000,479979000000,18,42.65488213637698,-1411361149021999872,0.0,42.65488213637698,-4106.768254484821,0.0,0,12,0.0,17,602259,797,0.0,-1453.170719272347,0.14999,16,-61904.93344643382,0.02250000089406967,1601437440,,,,0,0.0,3,6.0,17.0,0.0,0.0,-5.346817473205067,66.7128,C,,
Raw,1727326411000,479979000000,18,42.65488213637698,-1411361149021999872,0.0,42.65488213637698,-4106.768254484821,0.0,0,3,0.0,17,539145,396,0.0,-1175.2236948794762,0.14999,16,-49544.31448643881,0.004900000058114529,1604812540,,,,0,4.775353307827617,3,6.0,23.0,0.0,0.0,-5.346817473205067,66.7128,C,,
Raw,1727326411000,479979000000,18,42.65488213637698,-1411361149021999872,0.0,42.65488213637698,-4106.768254484821,0.0,0,28,0.0,16431,363228927766719,51,37.7400016784668,-1765.0721212135356,0.14999,17,-76249.40793814206,0.00022499999613501132,1575420030,,,,0,20.37498872025678,1,6.0,37.7400016784668,0.0,0.0,0.0,66.7128,C,,
Raw,1727326411000,479979000000,18,42.65488213637698,-1411361149021999872,0.0,42.65488213637698,-4106.768254484821,0.0,0,8,0.0,16431,363228918486439,1797,15.270000457763672,-1427.0612194856242,0.14999,16,-57357.195903133164,0.02250000089406967,1575420030,,,,0,0.0,1,6.0,15.270000457763672,0.0,0.0,0.0,66.7128,C,,
Raw,1727326411000,479979000000,18,42.65488213637698,-1411361149021999872,0.0,42.65488213637698,-4106.768254484821,0.0,0,38,0.0,16905,363214872873286,487,19.700000762939453,-1380.27978515625,0.14999,20,-58905.45197670496,0.009999999776482582,1561097980,,,,0,0.0,5,6.0,19.700000762939453,0.0,0.0,10.082615212445079,66.7128,I,,
Raw,1727326411000,479979000000,18,42.65488213637698,-1411361149021999872,0.0,42.65488213637698,-4106.768254484821,0.0,0,11,0.0,16431,363228915700170,1837,13.5,-1713.5757543491266,0.14999,24,-68577.54729387938,0.02250000089406967,1575420030,,,,0,0.0,6,6.0,13.5,0.0,0.0,7.571681173701699,66.7128,C,,
Raw,1727326411000,479979000000,18,42.65488213637698,-1411361149021999872,0.0,42.65488213637698,-4106.768254484821,0.0,0,16,0.0,16905,363214877257080,487,20.104000091552734,-1266.2694091796875,0.14999,16,-53671.124204792046,0.009999999776482582,1561097980,,,,0,1.6964302680063494,5,6.0,20.104000091552734,0.0,0.0,10.082615212445079,66.7128,I,,
Raw,1727326411000,479979000000,18,42.65488213637698,-1411361149021999872,0.0,42.65488213637698,-4106.768254484821,0.0,0,27,0.0,16431,363228924174669,396,23.624000549316406,-1170.530760610738,0.14999,16,-49412.86985360049,0.004900000058114529,1575420030,,,,0,3.0724548229314044,1,6.0,23.624000549316406,0.0,0.0,0.0,66.7128,C,,
Raw,1727326411000,479979000000,18,42.65488213637698,-1411361149021999872,0.0,42.65488213637698,-4106.768254484821,0.0,0,6,0.0,16431,363228919424809,235,28.700000762939453,-1317.0722199428285,0.14999,28,-55631.8092172718,0.0008999999845400453,1575420030,,,,0,10.541111180554514,6,6.0,28.700000762939453,0.0,0.0,7.571681173701699,66.7128,C,,
Raw,1727326411000,479979000000,18,42.65488213637698,-1411361149021999872,0.0,42.65488213637698,-4106.768254484821,0.0,0,10,0.0,47,363228919815884,235,29.5,-1570.6012792968488,0.14999,25,-65873.38129238949,0.0008999999845400453,1575420030,,,,0,11.367979027110719,6,6.0,29.5,0.0,0.0,7.571681173701699,66.7128,C,,
Raw,1727326411000,479979000000,18,42.65488213637698,-1411361149021999872,0.0,42.65488213637698,-4106.768254484821,0.0,0,14,0.0,47,363214919830012,396,27.399999618530273,-996.6353759765625,0.14999,17,-44312.39050839547,0.004900000058114529,1561097980,,,,0,6.676450181205773,5,6.0,27.399999618530273,0.0,0.0,10.082615212445079,66.7128,I,,
Raw,1727326411000,479979000000,18,42.65488213637698,-1411361149021999872,0.0,42.65488213637698,-4106.768254484821,0.0,0,41,0.0,16905,363214918393927,396,23.170000076293945,-1291.0986328125,0.14999,17,-54246.66606034207,0.004900000058114529,1561097980,,,,0,5.848596478041273,5,6.0,23.170000076293945,0.0,0.0,10.082615212445079,66.7128,I,,
Raw,1727326411000,479979000000,18,42.65488213637698,-1411361149021999872,0.0,42.65488213637698,-4106.768254484821,0.0,0,12,0.0,16431,363228921645545,396,22.899999618530273,-1360.6649881246685,0.14999,24,-56515.25636807157,0.004900000058114529,1575420030,,,,0,3.3249693980533586,6,6.0,22.899999618530273,0.0,0.0,7.571681173701699,66.7128,C,,
Raw,1727326411000,479979000000,18,42.65488213637698,-1411361149021999872,0.0,42.65488213637698,-4106.768254484821,0.0,0,9,0.0,16905,363214878481913,487,19.812999725341797,-1346.305419921875,0.14999,16,-56121.013957748735,0.009999999776482582,1561097980,,,,0,0.0,5,6.0,19.812999725341797,0.0,0.0,10.082615212445079,66.7128,I,,
Raw,1727326411000,479979000000,18,42.65488213637698,-1411361149021999872,0.0,42.65488213637698,-4106.768254484821,0.0,0,11,0.0,16905,363214922647482,487,19.9689998626709,-679.834716796875,0.14999,16,-37171.13584482247,0.009999999776482582,1561097980,,,,0,0.0,5,6.0,19.9689998626709,0.0,0.0,10.082615212445079,66.7128,I,,
Raw,1727326411000,479979000000,18,42.65488213637698,-1411361149021999872,0.0,42.65488213637698,-4106.768254484821,0.0,0,13,0.0,16905,363214875609199,487,19.225000381469727,-1400.3963623046875,0.14999,16,-57982.634342445024,0.009999999776482582,1561097980,,,,0,0.0,5,6.0,19.225000381469727,0.0,0.0,10.082615212445079,66.7128,I,,
Raw,1727326411000,479979000000,18,42.65488213637698,-1411361149021999872,0.0,42.65488213637698,-4106.768254484821,0.0,0,25,0.0,16905,363214920947370,487,19.80500030517578,-1643.5919189453125,0.14999,16,-65844.29039563003,0.009999999776482582,1561097980,,,,0,0.0,5,6.0,19.80500030517578,0.0,0.0,10.082615212445079,66.7128,I,,
Raw,1727326411000,479979000000,18,42.65488213637698,-1411361149021999872,0.0,42.65488213637698,-4106.768254484821,0.0,0,43,0.0,16905,363214925764780,51,37.400001525878906,-822.8299560546875,0.14999,17,-36189.755127017,0.00022499999613501132,1561097980,,,,0,19.991480244890177,5,6.0,37.400001525878906,0.0,0.0,10.082615212445079,66.7128,I,,
Raw,1727326411000,479979000000,18,42.65488213637698,-1411361149021999872,0.0,42.65488213637698,-4106.768254484821,0.0,0,8,0.0,47,363214873205599,487,18.111000061035156,-1402.75,0.14999,16,-58815.47171203241,0.009999999776482582,1561097980,,,,0,0.0,5,6.0,18.111000061035156,0.0,0.0,10.082615212445079,66.7128,I,,
Fix,FLP,12.9368258000,77.5432087000,795.699951171875,0.6667603,2.133,321.1358,1727326411008,2.0,37.2,115141149000000,1.05784,0,,,
Status,1727326411000,67,0,2,126,1575420030,0.00,230.0,69.0,0,0,0,0.0
Status,1727326411000,67,1,2,127,1575420030,0.00,242.0,60.0,0,0,0,0.0
Status,1727326411000,67,2,1,32,1575420030,35.40,312.0,59.0,1,0,0,35.4
Status,1727326411000,67,3,1,18,1575420030,23.70,130.0,45.0,1,0,0,23.7
Status,1727326411000,67,4,1,28,1575420030,32.60,182.0,43.0,1,0,0,32.6
Status,1727326411000,67,5,1,10,1575420030,25.60,355.0,35.0,1,0,0,25.6
Status,1727326411000,67,6,1,23,1575420030,22.40,43.0,33.0,1,0,0,22.4
Status,1727326411000,67,7,1,27,1575420030,25.00,273.0,30.0,1,0,0,25.0
Status,1727326411000,67,8,2,128,1575420030,0.00,0.0,14.0,0,0,0,0.0
Status,1727326411000,67,9,1,24,1575420030,0.00,43.0,11.0,0,0,0,0.0
Status,1727326411000,67,10,1,31,1575420030,0.00,202.0,11.0,0,0,0,0.0
Status,1727326411000,67,11,1,8,1575420030,20.00,300.0,10.0,1,0,0,20.0
Status,1727326411000,67,12,1,25,1575420030,0.00,126.0,8.0,0,0,0,0.0
Status,1727326411000,67,13,1,26,1575420030,0.00,206.0,3.0,0,0,0,0.0
Status,1727326411000,67,14,3,17,1602000000,25.90,316.0,64.0,1,0,0,25.9
Status,1727326411000,67,15,3,24,1602000000,31.40,169.0,53.0,1,0,0,31.4
Status,1727326411000,67,16,3,3,1602000000,24.50,295.0,31.0,1,0,0,24.5
Status,1727326411000,67,17,3,2,1602000000,17.20,357.0,29.0,1,0,0,17.2
Status,1727326411000,67,18,3,13,1602000000,0.00,141.0,18.0,0,0,0,0.0
Status,1727326411000,67,19,3,12,1602000000,19.40,94.0,17.0,1,0,0,19.4
Status,1727326411000,67,20,3,18,1602000000,13.20,333.0,17.0,1,0,0,13.2
Status,1727326411000,67,21,3,4,1602000000,0.00,253.0,5.0,0,0,0,0.0
Status,1727326411000,67,22,3,1,1602000000,0.00,38.0,3.0,0,0,0,0.0
Status,1727326411000,67,23,6,12,1575420030,20.70,32.0,75.0,1,0,0,20.7
Status,1727326411000,67,24,6,4,1575420030,25.40,311.0,63.0,1,0,0,25.4
Status,1727326411000,67,25,6,10,1575420030,28.50,344.0,56.0,1,0,0,28.5
Status,1727326411000,67,26,6,6,1575420030,28.40,264.0,50.0,1,0,0,28.4
Status,1727326411000,67,27,6,33,1575420030,18.60,131.0,36.0,1,0,0,18.6
Status,1727326411000,67,28,6,9,1575420030,21.10,246.0,30.0,1,0,0,21.1
Status,1727326411000,67,29,6,11,1575420030,13.50,332.0,29.0,1,0,0,13.5
Status,1727326411000,67,30,6,19,1575420030,0.00,28.0,27.0,0,0,0,0.0
Status,1727326411000,67,31,6,31,1575420030,0.00,181.0,10.0,0,0,0,0.0
Status,1727326411000,67,32,5,60,1561097980,0.00,168.0,77.0,0,0,0,0.0
Status,1727326411000,67,33,5,2,1561097980,0.00,147.0,76.0,0,0,0,0.0
Status,1727326411000,67,34,5,9,1561097980,19.80,120.0,67.0,1,0,0,19.8
Status,1727326411000,67,35,5,6,1561097980,24.50,89.0,65.0,1,0,0,24.5
Status,1727326411000,67,36,5,5,1561097980,0.00,241.0,65.0,0,0,0,0.0
Status,1727326411000,67,37,5,16,1561097980,20.20,73.0,60.0,1,0,0,20.2
Status,1727326411000,67,38,5,39,1561097980,19.40,59.0,55.0,1,0,0,19.4
Status,1727326411000,67,39,5,43,1561097980,37.30,185.0,53.0,1,0,0,37.3
Status,1727326411000,67,40,5,3,1561097980,0.00,107.0,50.0,0,0,0,0.0
Status,1727326411000,67,41,5,61,1561097980,0.00,108.0,49.0,0,0,0,0.0
Status,1727326411000,67,42,5,28,1561097980,32.10,301.0,46.0,1,0,0,32.1
Status,1727326411000,67,43,5,13,1561097980,22.60,38.0,41.0,1,0,0,22.6
Status,1727326411000,67,44,5,56,1561097980,0.00,139.0,40.0,0,0,0,0.0
Status,1727326411000,67,45,5,33,1561097980,24.90,353.0,39.0,1,0,0,24.9
Status,1727326411000,67,46,5,11,1561097980,33.40,165.0,35.0,1,0,0,33.4
Status,1727326411000,67,47,5,8,1561097980,18.20,55.0,34.0,1,0,0,18.2
Status,1727326411000,67,48,5,38,1561097980,19.80,72.0,31.0,1,0,0,19.8
Status,1727326411000,67,49,5,25,1561097980,27.70,158.0,30.0,1,0,0,27.7
Status,1727326411000,67,50,5,14,1561097980,23.70,24.0,29.0,1,0,0,23.7
Status,1727326411000,67,51,5,24,1561097980,21.40,96.0,28.0,1,0,0,21.4
Status,1727326411000,67,52,5,41,1561097980,23.30,293.0,27.0,1,0,0,23.3
Status,1727326411000,67,53,5,10,1561097980,0.00,170.0,21.0,0,0,0,0.0
Status,1727326411000,67,54,5,59,1561097980,0.00,94.0,19.0,0,0,0,0.0
Status,1727326411000,67,55,5,7,1561097980,0.00,159.0,15.0,0,0,0,0.0
Status,1727326411000,67,56,5,1,1561097980,0.00,94.0,14.0,0,0,0,0.0
Status,1727326411000,67,57,5,42,1561097980,0.00,46.0,14.0,0,0,0,0.0
Status,1727326411000,67,58,5,34,1561097980,0.00,156.0,13.0,0,0,0,0.0
Status,1727326411000,67,59,5,27,1561097980,0.00,321.0,6.0,0,0,0,0.0
Status,1727326411000,67,60,5,40,1561097980,0.00,157.0,4.0,0,0,0,0.0
Status,1727326411000,67,61,5,23,1561097980,0.00,201.0,3.0,0,0,0,0.0
Status,1727326411000,67,62,5,26,1561097980,0.00,54.0,2.0,0,0,0,0.0
Status,1727326411000,67,63,5,57,1561097980,0.00,134.0,2.0,0,0,0,0.0
Status,1727326411000,67,64,4,196,1575420030,0.00,56.0,36.0,0,0,0,0.0
Status,1727326411000,67,65,4,199,1575420030,0.00,44.0,29.0,0,0,0,0.0
Status,1727326411000,67,66,4,195,1575420030,21.00,129.0,20.0,1,0,0,21.0
Fix,GPS,12.9368300000,77.5431950000,777.3000000000001,0.82973224,2.3,326.26,1727326412000,2.9,60.1,115142149000000,18.0,0,,,
Fix,FLP,12.9368301000,77.5431965000,795.699951171875,0.8160073,2.216,325.43835,1727326412008,2.9,60.1,115142149000000,1.06784,0,,,
Raw,1727326412000,480979000000,18,44.568319690713466,-1411361149021999872,0.0,44.568319690713466,-4133.469873546842,0.0,0,23,0.0,16431,363229926168101,396,22.402000427246094,-1232.728916566077,0.14999,16,-53067.019013116456,0.004900000058114529,1575420030,,,,0,3.374603188186243,1,6.0,22.402000427246094,0.0,0.0,0.0,66.7128,C,,
Raw,1727326412000,480979000000,18,44.568319690713466,-1411361149021999872,0.0,44.568319690713466,-4133.469873546842,0.0,0,18,0.0,16431,363229928463744,396,23.719999313354492,-843.2442267640348,0.14999,16,-34828.842736795596,0.004900000058114529,1575420030,,,,0,3.1743432597251706,1,6.0,23.719999313354492,0.0,0.0,0.0,66.7128,C,,
Raw,1727326412000,480979000000,18,44.568319690713466,-1411361149021999872,0.0,44.568319690713466,-4133.469873546842,0.0,0,195,0.0,47,363229876540977,396,21.0,-1253.376523399359,0.14999,16,-54138.02585764474,0.004900000058114529,1575420030,,,,0,0.0,4,6.0,21.0,0.0,,0.0,,C,,
Raw,1727326412000,480979000000,18,44.568319690713466,-1411361149021999872,0.0,44.568319690713466,-4133.469873546842,0.0,0,32,0.0,16431,363229929940014,58,35.361000061035156,-1095.713012143298,0.14999,17,-46865.164377761146,0.00039999998989515007,1575420030,,,,0,17.76009544363131,1,6.0,35.361000061035156,0.0,0.0,0.0,66.7128,C,,
Raw,1727326412000,480979000000,18,44.568319690713466,-1411361149021999872,0.0,44.568319690713466,-4133.469873546842,0.0,0,9,0.0,16431,363229914091723,316,21.100000381469727,-1478.5999564256172,0.14999,24,-60270.68948011701,0.002025000052526593,1575420030,,,,0,0.9333783376059182,6,6.0,21.100000381469727,0.0,0.0,7.364894072370547,66.7128,C,,
Raw,1727326412000,480979000000,18,44.568319690713466,-1411361149021999872,0.0,44.568319690713466,-4133.469873546842,0.0,0,28,0.0,16905,363215924619514,74,32.099998474121094,-1479.2196044921875,0.14999,21,-64210.40244377119,0.0006249999860301614,1561097980,,,,0,14.32988698639103,5,6.0,32.099998474121094,0.0,0.0,10.429825556254658,66.7128,I,,
Raw,1727326412000,480979000000,18,44.568319690713466,-1411361149021999872,0.0,44.568319690713466,-4133.469873546842,0.0,0,39,0.0,16905,363215877740022,487,19.381999969482422,-1228.8944091796875,0.14999,16,-53026.01429168013,0.009999999776482582,1561097980,,,,0,0.0,5,6.0,19.381999969482422,0.0,0.0,10.429825556254658,66.7128,I,,
Raw,1727326412000,480979000000,18,44.568319690713466,-1411361149021999872,0.0,44.568319690713466,-4133.469873546842,0.0,0,10,0.0,16431,363229925520289,396,25.61400032043457,-1404.7281942290563,0.14999,21,-60940.648782562625,0.004900000058114529,1575420030,,,,0,5.891917713171426,1,6.0,25.61400032043457,0.0,0.0,0.0,66.7128,C,,
Raw,1727326412000,480979000000,18,44.568319690713466,-1411361149021999872,0.0,44.568319690713466,-4133.469873546842,0.0,0,33,0.0,47,363215921663306,316,24.899999618530273,-1090.9996337890625,0.14999,21,-46536.904332446225,0.002025000052526593,1561097980,,,,0,5.935023953694124,5,6.0,24.899999618530273,0.0,0.0,10.429825556254658,66.7128,I,,
Raw,1727326412000,480979000000,18,44.568319690713466,-1411361149021999872,0.0,44.568319690713466,-4133.469873546842,0.0,0,24,0.0,16905,363215920660069,487,21.350000381469727,-1348.242919921875,0.14999,16,-56503.63687601936,0.009999999776482582,1561097980,,,,0,0.0,5,6.0,21.350000381469727,0.0,0.0,10.429825556254658,66.7128,I,,
Raw,1727326412000,480979000000,18,44.568319690713466,-1411361149021999872,0.0,44.568319690713466,-4133.469873546842,0.0,0,4,0.0,16431,363229921560527,316,25.399999618530273,-1112.2680041757615,0.14999,25,-48356.456715422464,0.002025000052526593,1575420030,,,,0,6.636878861564015,6,6.0,25.399999618530273,0.0,0.0,7.364894072370547,66.7128,C,,
Raw,1727326412000,480979000000,18,44.568319690713466,-1411361149021999872,0.0,44.568319690713466,-4133.469873546842,0.0,0,6,0.0,16905,363215879573164,316,24.545000076293945,-1317.986328125,0.14999,17,-56015.60533778492,0.002025000052526593,1561097980,,,,0,6.557191241732239,5,6.0,24.545000076293945,0.0,0.0,10.429825556254658,66.7128,I,,
Raw,1727326412000,480979000000,18,44.568319690713466,-1411361149021999872,0.0,44.568319690713466,-4133.469873546842,0.0,0,2,0.0,32995,28411928021696,797,0.0,-877.6093769806489,0.14999,16,-36292.08058518754,0.02250000089406967,1599750020,,,,0,0.0,3,6.0,17.0,0.0,0.0,-5.688136723845804,66.7128,C,,
Raw,1727326412000,480979000000,18,44.568319690713466,-1411361149021999872,0.0,44.568319690713466,-4133.469873546842,0.0,0,17,0.0,17,715126,396,19.371000289916992,-1503.0097341849732,0.14999,17,-65902.93640508816,0.004900000058114529,1604249980,,,,0,7.150227032328588,3,6.0,19.371000289916992,0.0,0.0,-5.688136723845804,66.7128,C,,
Raw,1727326412000,480979000000,18,44.568319690713466,-1411361149021999872,0.0,44.568319690713466,-4133.469873546842,0.0,0,18,0.0,32995,28411924558428,1797,0.0,-1978.0138876170513,0.14999,16,-67726.40765695438,0.02250000089406967,1600312450,,,,0,0.0,3,6.0,14.0,0.0,0.0,-5.688136723845804,66.7128,C,,
Raw,1727326412000,480979000000,18,44.568319690713466,-1411361149021999872,0.0,44.568319690713466,-4133.469873546842,0.0,0,24,0.0,32995,28411933722176,74,0.0,-712.9891381538104,0.14999,16,-35705.44025842813,0.0006249999860301614,1603124990,,,,0,13.546218874943097,3,6.0,32.0,0.0,0.0,-5.688136723845804,66.7128,C,,
Raw,1727326412000,480979000000,18,44.568319690713466,-1411361149021999872,0.0,44.568319690713466,-4133.469873546842,0.0,0,12,0.0,17,607124,797,0.0,-1460.7251648278134,0.14999,16,-63363.912183801556,0.02250000089406967,1601437440,,,,0,0.0,3,6.0,17.0,0.0,0.0,-5.688136723845804,66.7128,C,,
Raw,1727326412000,480979000000,18,44.568319690713466,-1411361149021999872,0.0,44.568319690713466,-4133.469873546842,0.0,0,3,0.0,17,543087,316,0.0,-1182.132960502689,0.14999,17,-50725.80397890879,0.002025000052526593,1604812540,,,,0,5.4361958251263784,3,6.0,24.0,0.0,0.0,-5.688136723845804,66.7128,C,,
Raw,1727326412000,480979000000,18,44.568319690713466,-1411361149021999872,0.0,44.568319690713466,-4133.469873546842,0.0,0,28,0.0,16431,363229927772625,58,32.597999572753906,-1772.3159174690827,0.14999,17,-78020.44039822144,0.00039999998989515007,1575420030,,,,0,14.632993986368332,1,6.0,32.597999572753906,0.0,0.0,0.0,66.7128,C,,
Raw,1727326412000,480979000000,18,44.568319690713466,-1411361149021999872,0.0,44.568319690713466,-4133.469873546842,0.0,0,8,0.0,47,363229918491275,487,19.961000442504883,-1433.6221699397088,0.14999,16,-58789.93079563471,0.009999999776482582,1575420030,,,,0,0.0,1,6.0,19.961000442504883,0.0,0.0,0.0,66.7128,C,,
Raw,1727326412000,480979000000,18,44.568319690713466,-1411361149021999872,0.0,44.568319690713466,-4133.469873546842,0.0,0,38,0.0,16905,363215872877910,396,19.764999389648438,-1387.9453125,0.14999,16,-60292.413110954745,0.004900000058114529,1561097980,,,,0,0.6558502679261491,5,6.0,19.764999389648438,0.0,0.0,10.429825556254658,66.7128,I,,
Raw,1727326412000,480979000000,18,44.568319690713466,-1411361149021999872,0.0,44.568319690713466,-4133.469873546842,0.0,0,33,0.0,16431,363229916106516,487,18.600000381469727,-898.2414211235728,0.14999,24,-39227.35627752608,0.009999999776482582,1575420030,,,,0,0.0,6,6.0,18.600000381469727,0.0,0.0,7.364894072370547,66.7128,C,,
Raw,1727326412000,480979000000,18,44.568319690713466,-1411361149021999872,0.0,44.568319690713466,-4133.469873546842,0.0,0,11,0.0,16431,363229915705907,1797,13.5,-1722.122616262547,0.14999,24,-70297.60988290336,0.02250000089406967,1575420030,,,,0,0.0,6,6.0,13.5,0.0,0.0,7.364894072370547,66.7128,C,,
Raw,1727326412000,480979000000,18,44.568319690713466,-1411361149021999872,0.0,44.568319690713466,-4133.469873546842,0.0,0,16,0.0,16905,363215877261321,396,20.19300079345703,-1272.7156982421875,0.14999,16,-54943.30600317061,0.004900000058114529,1561097980,,,,0,1.972195957719016,5,6.0,20.19300079345703,0.0,0.0,10.429825556254658,66.7128,I,,
Raw,1727326412000,480979000000,18,44.568319690713466,-1411361149021999872,0.0,44.568319690713466,-4133.469873546842,0.0,0,27,0.0,16431,363229924178590,316,24.993999481201172,-1177.4389412675803,0.14999,16,-50588.801509540026,0.002025000052526593,1575420030,,,,0,5.036239459875992,1,6.0,24.993999481201172,0.0,0.0,0.0,66.7128,C,,
Raw,1727326412000,480979000000,18,44.568319690713466,-1411361149021999872,0.0,44.568319690713466,-4133.469873546842,0.0,0,6,0.0,16431,363229919429223,235,28.399999618530273,-1323.4138866723995,0.14999,24,-56955.14514082738,0.0008999999845400453,1575420030,,,,0,10.11895161796737,6,6.0,28.399999618530273,0.0,0.0,7.364894072370547,66.7128,C,,
Raw,1727326412000,480979000000,18,44.568319690713466,-1411361149021999872,0.0,44.568319690713466,-4133.469873546842,0.0,0,10,0.0,47,363229919821143,235,28.5,-1577.555546702572,0.14999,25,-67449.81403490562,0.0008999999845400453,1575420030,,,,0,10.254494908995966,6,6.0,28.5,0.0,0.0,7.364894072370547,66.7128,C,,
Raw,1727326412000,480979000000,18,44.568319690713466,-1411361149021999872,0.0,44.568319690713466,-4133.469873546842,0.0,0,14,0.0,47,363215919833355,396,23.700000762939453,-1004.0241088867188,0.14999,20,-45315.16571049596,0.004900000058114529,1561097980,,,,0,4.38573065703512,5,6.0,23.700000762939453,0.0,0.0,10.429825556254658,66.7128,I,,
Raw,1727326412000,480979000000,18,44.568319690713466,-1411361149021999872,0.0,44.568319690713466,-4133.469873546842,0.0,0,41,0.0,16905,363215918398253,316,23.26099967956543,-1297.650146484375,0.14999,20,-55543.31695581559,0.002025000052526593,1561097980,,,,0,6.105340972144716,5,6.0,23.26099967956543,0.0,0.0,10.429825556254658,66.7128,I,,
Raw,1727326412000,480979000000,18,44.568319690713466,-1411361149021999872,0.0,44.568319690713466,-4133.469873546842,0.0,0,12,0.0,16431,363229921650104,487,20.700000762939453,-1368.5777855736474,0.14999,25,-57882.4058969868,0.009999999776482582,1575420030,,,,0,0.32239992406307627,6,6.0,20.700000762939453,0.0,0.0,7.364894072370547,66.7128,C,,
Raw,1727326412000,480979000000,18,44.568319690713466,-1411361149021999872,0.0,44.568319690713466,-4133.469873546842,0.0,0,9,0.0,16905,363215878486420,396,19.812000274658203,-1351.510986328125,0.14999,16,-57472.456158234214,0.004900000058114529,1561097980,,,,0,0.0,5,6.0,19.812000274658203,0.0,0.0,10.429825556254658,66.7128,I,,
Raw,1727326412000,480979000000,18,44.568319690713466,-1411361149021999872,0.0,44.568319690713466,-4133.469873546842,0.0,0,11,0.0,16905,363215922649765,58,33.400001525878906,-685.3712768554688,0.14999,17,-37855.73628067545,0.00039999998989515007,1561097980,,,,0,15.703804258578023,5,6.0,33.400001525878906,0.0,0.0,10.429825556254658,66.7128,I,,
Raw,1727326412000,480979000000,18,44.568319690713466,-1411361149021999872,0.0,44.568319690713466,-4133.469873546842,0.0,0,13,0.0,16905,363215875613902,396,22.600000381469727,-1407.3306884765625,0.14999,16,-59389.27444327081,0.004900000058114529,1561097980,,,,0,2.9347173140628846,5,6.0,22.600000381469727,0.0,0.0,10.429825556254658,66.7128,I,,
Raw,1727326412000,480979000000,18,44.568319690713466,-1411361149021999872,0.0,44.568319690713466,-4133.469873546842,0.0,0,25,0.0,16905,363215920952874,316,27.700000762939453,-1651.21044921875,0.14999,16,-67494.81972539198,0.002025000052526593,1561097980,,,,0,9.399326476638517,5,6.0,27.700000762939453,0.0,0.0,10.429825556254658,66.7128,I,,
Raw,1727326412000,480979000000,18,44.568319690713466,-1411361149021999872,0.0,44.568319690713466,-4133.469873546842,0.0,0,43,0.0,16905,363215925767547,51,37.34000015258789,-829.890380859375,0.14999,17,-37018.409284745634,0.00022499999613501132,1561097980,,,,0,18.737368267398043,5,6.0,37.34000015258789,0.0,0.0,10.429825556254658,66.7128,I,,
Raw,1727326412000,480979000000,18,44.568319690713466,-1411361149021999872,0.0,44.568319690713466,-4133.469873546842,0.0,0,8,0.0,47,363215873210295,487,18.235000610351562,-1411.88427734375,0.14999,16,-60225.28828245291,0.009999999776482582,1561097980,,,,0,0.1686633507372553,5,6.0,18.235000610351562,0.0,0.0,10.429825556254658,66.7128,I,,
Status,1727326412000,67,0,2,126,1575420030,0.00,230.0,69.0,0,0,0,0.0
Status,1727326412000,67,1,2,127,1575420030,0.00,242.0,60.0,0,0,0,0.0
Status,1727326412000,67,2,1,32,1575420030,34.10,312.0,59.0,1,0,0,34.1
Status,1727326412000,67,3,1,18,1575420030,29.80,130.0,45.0,1,0,0,29.8
Status,1727326412000,67,4,1,28,1575420030,30.10,182.0,43.0,1,0,0,30.1
Status,1727326412000,67,5,1,10,1575420030,22.70,355.0,35.0,1,0,0,22.7
Status,1727326412000,67,6,1,23,1575420030,28.30,43.0,33.0,1,0,0,28.3
Status,1727326412000,67,7,1,27,1575420030,27.80,273.0,30.0,1,0,0,27.8
Status,1727326412000,67,8,2,128,1575420030,0.00,0.0,14.0,0,0,0,0.0
Status,1727326412000,67,9,1,24,1575420030,0.00,43.0,11.0,0,0,0,0.0
Status,1727326412000,67,10,1,31,1575420030,0.00,202.0,11.0,0,0,0,0.0
Status,1727326412000,67,11,1,8,1575420030,19.90,300.0,10.0,1,0,0,19.9
Status,1727326412000,67,12,1,25,1575420030,0.00,126.0,8.0,0,0,0,0.0
Status,1727326412000,67,13,1,26,1575420030,0.00,206.0,3.0,0,0,0,0.0
Status,1727326412000,67,14,3,17,1602000000,27.30,316.0,64.0,1,0,0,27.3
Status,1727326412000,67,15,3,24,1602000000,26.20,169.0,53.0,1,0,0,26.2
Status,1727326412000,67,16,3,3,1602000000,28.10,295.0,31.0,1,0,0,28.1
Status,1727326412000,67,17,3,2,1602000000,17.20,357.0,29.0,1,0,0,17.2
Status,1727326412000,67,18,3,13,1602000000,0.00,141.0,18.0,0,0,0,0.0
Status,1727326412000,67,19,3,12,1602000000,19.30,94.0,17.0,1,0,0,19.3
Status,1727326412000,67,20,3,18,1602000000,13.10,333.0,17.0,1,0,0,13.1
Status,1727326412000,67,21,3,4,1602000000,0.00,253.0,5.0,0,0,0,0.0
Status,1727326412000,67,22,3,1,1602000000,0.00,38.0,3.0,0,0,0,0.0
Status,1727326412000,67,23,6,12,1575420030,19.50,32.0,75.0,1,0,0,19.5
Status,1727326412000,67,24,6,4,1575420030,24.10,311.0,63.0,1,0,0,24.1
Status,1727326412000,67,25,6,10,1575420030,24.20,344.0,56.0,1,0,0,24.2
Status,1727326412000,67,26,6,6,1575420030,29.20,264.0,50.0,1,0,0,29.2
Status,1727326412000,67,27,6,33,1575420030,20.00,131.0,36.0,1,0,0,20.0
Status,1727326412000,67,28,6,9,1575420030,22.40,246.0,30.0,1,0,0,22.4
Status,1727326412000,67,29,6,11,1575420030,13.50,332.0,29.0,1,0,0,13.5
Status,1727326412000,67,30,6,19,1575420030,0.00,28.0,27.0,0,0,0,0.0
Status,1727326412000,67,31,6,31,1575420030,0.00,181.0,10.0,0,0,0,0.0
Status,1727326412000,67,32,5,60,1561097980,0.00,168.0,77.0,0,0,0,0.0
Status,1727326412000,67,33,5,2,1561097980,0.00,147.0,76.0,0,0,0,0.0
Status,1727326412000,67,34,5,9,1561097980,23.20,120.0,67.0,1,0,0,23.2
Status,1727326412000,67,35,5,6,1561097980,24.40,89.0,65.0,1,0,0,24.4
Status,1727326412000,67,36,5,5,1561097980,0.00,241.0,65.0,0,0,0,0.0
Status,1727326412000,67,37,5,16,1561097980,23.90,73.0,60.0,1,0,0,23.9
Status,1727326412000,67,38,5,39,1561097980,19.50,59.0,55.0,1,0,0,19.5
Status,1727326412000,67,39,5,43,1561097980,29.80,185.0,53.0,1,0,0,29.8
Status,1727326412000,67,40,5,3,1561097980,0.00,107.0,50.0,0,0,0,0.0
Status,1727326412000,67,41,5,61,1561097980,0.00,108.0,49.0,0,0,0,0.0
Status,1727326412000,67,42,5,28,1561097980,28.30,301.0,46.0,1,0,0,28.3
Status,1727326412000,67,43,5,13,1561097980,25.70,38.0,41.0,1,0,0,25.7
Status,1727326412000,67,44,5,56,1561097980,0.00,139.0,40.0,0,0,0,0.0
Status,1727326412000,67,45,5,33,1561097980,22.00,353.0,39.0,1,0,0,22.0
Status,1727326412000,67,46,5,11,1561097980,33.30,165.0,35.0,1,0,0,33.3
Status,1727326412000,67,47,5,8,1561097980,23.90,55.0,34.0,1,0,0,23.9
Status,1727326412000,67,48,5,38,1561097980,22.90,72.0,31.0,1,0,0,22.9
Status,1727326412000,67,49,5,25,1561097980,27.70,158.0,30.0,1,0,0,27.7
Status,1727326412000,67,50,5,14,1561097980,23.70,24.0,29.0,1,0,0,23.7
Status,1727326412000,67,51,5,24,1561097980,21.80,96.0,28.0,1,0,0,21.8
Status,1727326412000,67,52,5,41,1561097980,23.30,293.0,27.0,1,0,0,23.3
Status,1727326412000,67,53,5,10,1561097980,0.00,170.0,21.0,0,0,0,0.0
Status,1727326412000,67,54,5,59,1561097980,0.00,94.0,19.0,0,0,0,0.0
Status,1727326412000,67,55,5,7,1561097980,0.00,159.0,15.0,0,0,0,0.0
Status,1727326412000,67,56,5,1,1561097980,0.00,94.0,14.0,0,0,0,0.0
Status,1727326412000,67,57,5,42,1561097980,0.00,46.0,14.0,0,0,0,0.0
Status,1727326412000,67,58,5,34,1561097980,0.00,156.0,13.0,0,0,0,0.0
Status,1727326412000,67,59,5,27,1561097980,0.00,321.0,6.0,0,0,0,0.0
Status,1727326412000,67,60,5,40,1561097980,0.00,157.0,4.0,0,0,0,0.0
Status,1727326412000,67,61,5,23,1561097980,0.00,201.0,3.0,0,0,0,0.0
Status,1727326412000,67,62,5,26,1561097980,0.00,54.0,2.0,0,0,0,0.0
Status,1727326412000,67,63,5,57,1561097980,0.00,134.0,2.0,0,0,0,0.0
Status,1727326412000,67,64,4,196,1575420030,0.00,56.0,36.0,0,0,0,0.0
Status,1727326412000,67,65,4,199,1575420030,0.00,44.0,29.0,0,0,0,0.0
Status,1727326412000,67,66,4,195,1575420030,20.00,129.0,20.0,1,0,0,20.0
Fix,GPS,12.9368350000,77.5431783333,778.2,0.9295883,2.2,311.65,1727326413000,2.2,66.9,115143149000000,18.7,0,,,
Raw,1727326413000,481979000000,18,46.041296866543945,-1411361149021999872,0.0,46.041296866543945,-4132.4756247927035,0.0,0,23,0.0,16431,363230926172205,235,28.31599998474121,-1230.8371298579839,0.14999,17,-54299.42327588906,0.0008999999845400453,1575420030,,,,0,9.456849134807749,1,6.0,28.31599998474121,0.0,0.0,0.0,66.7128,C,,
Raw,1727326413000,481979000000,18,46.041296866543945,-1411361149021999872,0.0,46.041296866543945,-4132.4756247927035,0.0,0,18,0.0,16431,363230928466554,235,29.756999969482422,-841.2877699405766,0.14999,17,-35671.66683481719,0.0008999999845400453,1575420030,,,,0,11.24885638784309,1,6.0,29.756999969482422,0.0,0.0,0.0,66.7128,C,,
Raw,1727326413000,481979000000,18,46.041296866543945,-1411361149021999872,0.0,46.041296866543945,-4132.4756247927035,0.0,0,195,0.0,47,363230876545161,487,20.0,-1253.583077517831,0.14999,16,-55392.39833096061,0.009999999776482582,1575420030,,,,0,0.0,4,6.0,20.0,0.0,,0.0,,C,,
Raw,1727326413000,481979000000,18,46.041296866543945,-1411361149021999872,0.0,46.041296866543945,-4132.4756247927035,0.0,0,32,0.0,16431,363230929943679,58,34.14400100708008,-1095.8908549605521,0.14999,17,-47962.01038343783,0.00039999998989515007,1575420030,,,,0,16.391984559669226,1,6.0,34.14400100708008,0.0,0.0,0.0,66.7128,C,,
Raw,1727326413000,481979000000,18,46.041296866543945,-1411361149021999872,0.0,46.041296866543945,-4132.4756247927035,0.0,0,9,0.0,16431,363230914096677,396,22.399999618530273,-1479.1627536795916,0.14999,24,-61750.582871312756,0.004900000058114529,1575420030,,,,0,2.7061280784472483,6,6.0,22.399999618530273,0.0,0.0,7.885272590424635,66.7128,C,,
Raw,1727326413000,481979000000,18,46.041296866543945,-1411361149021999872,0.0,46.041296866543945,-4132.4756247927035,0.0,0,28,0.0,16905,363216924624452,316,28.299999237060547,-1478.9207763671875,0.14999,25,-65690.53647052302,0.002025000052526593,1561097980,,,,0,10.073962983812548,5,6.0,28.299999237060547,0.0,0.0,11.579391443181153,66.7128,I,,
Raw,1727326413000,481979000000,18,46.041296866543945,-1411361149021999872,0.0,46.041296866543945,-4132.4756247927035,0.0,0,39,0.0,16905,363216877744116,396,19.457000732421875,-1226.979248046875,0.14999,16,-54253.85056354644,0.004900000058114529,1561097980,,,,0,0.5315378894192986,5,6.0,19.457000732421875,0.0,0.0,11.579391443181153,66.7128,I,,
Raw,1727326413000,481979000000,18,46.041296866543945,-1411361149021999872,0.0,46.041296866543945,-4132.4756247927035,0.0,0,10,0.0,16431,363230925524971,396,22.7450008392334,-1402.4041584165402,0.14999,20,-62344.57083668355,0.004900000058114529,1575420030,,,,0,1.7463206385879073,1,6.0,22.7450008392334,0.0,0.0,0.0,66.7128,C,,
Raw,1727326413000,481979000000,18,46.041296866543945,-1411361149021999872,0.0,46.041296866543945,-4132.4756247927035,0.0,0,33,0.0,47,363216921666943,487,22.0,-1088.92236328125,0.14999,20,-47627.3564394679,0.009999999776482582,1561097980,,,,0,2.1875730713530896,5,6.0,22.0,0.0,0.0,11.579391443181153,66.7128,I,,
Raw,1727326413000,481979000000,18,46.041296866543945,-1411361149021999872,0.0,46.041296866543945,-4132.4756247927035,0.0,0,24,0.0,16905,363216920664566,396,21.84000015258789,-1348.176513671875,0.14999,16,-57852.31769776475,0.004900000058114529,1561097980,,,,0,3.1777845789611794,5,6.0,21.84000015258789,0.0,0.0,11.579391443181153,66.7128,I,,
Raw,1727326413000,481979000000,18,46.041296866543945,-1411361149021999872,0.0,46.041296866543945,-4132.4756247927035,0.0,0,4,0.0,16431,363230921564244,316,24.100000381469727,-1112.3954860698432,0.14999,25,-49469.880248367124,0.002025000052526593,1575420030,,,,0,4.954102775583127,6,6.0,24.100000381469727,0.0,0.0,7.885272590424635,66.7128,C,,
Raw,1727326413000,481979000000,18,46.041296866543945,-1411361149021999872,0.0,46.041296866543945,-4132.4756247927035,0.0,0,6,0.0,16905,363216879577560,396,24.437000274658203,-1317.5250244140625,0.14999,20,-57333.85243942487,0.004900000058114529,1561097980,,,,0,2.634739658088883,5,6.0,24.437000274658203,0.0,0.0,11.579391443181153,66.7128,I,,
Raw,1727326413000,481979000000,18,46.041296866543945,-1411361149021999872,0.0,46.041296866543945,-4132.4756247927035,0.0,0,2,0.0,32995,28412928024627,797,0.0,-876.1783506939909,0.14999,16,-37170.81002224045,0.02250000089406967,1599750020,,,,0,0.0,3,6.0,17.0,0.0,0.0,-6.104796735893902,66.7128,C,,
Raw,1727326413000,481979000000,18,46.041296866543945,-1411361149021999872,0.0,46.041296866543945,-4132.4756247927035,0.0,0,17,0.0,17,720135,235,19.277000427246094,-1501.0820495838564,0.14999,20,-67405.02520354677,0.0008999999845400453,1604249980,,,,0,8.830411599568764,3,6.0,19.277000427246094,0.0,0.0,-6.104796735893902,66.7128,C,,
Raw,1727326413000,481979000000,18,46.041296866543945,-1411361149021999872,0.0,46.041296866543945,-4132.4756247927035,0.0,0,18,0.0,32995,28412924565010,797,0.0,-1970.7689763926103,0.14999,16,-69701.1235447149,0.02250000089406967,1600312450,,,,0,0.0,3,6.0,17.0,0.0,0.0,-6.104796735893902,66.7128,C,,
Raw,1727326413000,481979000000,18,46.041296866543945,-1411361149021999872,0.0,46.041296866543945,-4132.4756247927035,0.0,0,24,0.0,32995,28412933724557,316,0.0,-712.3412862137793,0.14999,17,-36418.63239013275,0.002025000052526593,1603124990,,,,0,7.57483093261661,3,6.0,26.0,0.0,0.0,-6.104796735893902,66.7128,C,,
Raw,1727326413000,481979000000,18,46.041296866543945,-1411361149021999872,0.0,46.041296866543945,-4132.4756247927035,0.0,0,12,0.0,17,611975,487,0.0,-1459.0320278940974,0.14999,16,-64823.43448083613,0.009999999776482582,1601437440,,,,0,0.0,3,6.0,19.0,0.0,0.0,-6.104796735893902,66.7128,C,,
Raw,1727326413000,481979000000,18,46.041296866543945,-1411361149021999872,0.0,46.041296866543945,-4132.4756247927035,0.0,0,3,0.0,17,547032,235,0.0,-1181.459063788307,0.14999,17,-51908.365291452625,0.0008999999845400453,1604812540,,,,0,9.79647372187047,3,6.0,28.0,0.0,0.0,-6.104796735893902,66.7128,C,,
Raw,1727326413000,481979000000,18,46.041296866543945,-1411361149021999872,0.0,46.041296866543945,-4132.4756247927035,0.0,0,28,0.0,16431,363230927778536,74,30.052000045776367,-1772.5089986468538,0.14999,17,-79793.56212002045,0.0006249999860301614,1575420030,,,,0,11.620606600071666,1,6.0,30.052000045776367,0.0,0.0,0.0,66.7128,C,,
Raw,1727326413000,481979000000,18,46.041296866543945,-1411361149021999872,0.0,46.041296866543945,-4132.4756247927035,0.0,0,8,0.0,47,363230918496057,797,19.854999542236328,-1432.4359007401888,0.14999,16,-60223.019304077374,0.02250000089406967,1575420030,,,,0,0.0,1,6.0,19.854999542236328,0.0,0.0,0.0,66.7128,C,,
Raw,1727326413000,481979000000,18,46.041296866543945,-1411361149021999872,0.0,46.041296866543945,-4132.4756247927035,0.0,0,38,0.0,16905,363216872882541,396,22.899999618530273,-1387.5452880859375,0.14999,16,-61680.760220275755,0.004900000058114529,1561097980,,,,0,3.3515081626630323,5,6.0,22.899999618530273,0.0,0.0,11.579391443181153,66.7128,I,,
Raw,1727326413000,481979000000,18,46.041296866543945,-1411361149021999872,0.0,46.041296866543945,-4132.4756247927035,0.0,0,33,0.0,16431,363230916109507,487,20.0,-894.7766453594232,0.14999,24,-40124.57392118714,0.009999999776482582,1575420030,,,,0,0.0,6,6.0,20.0,0.0,0.0,7.885272590424635,66.7128,C,,
Raw,1727326413000,481979000000,18,46.041296866543945,-1411361149021999872,0.0,46.041296866543945,-4132.4756247927035,0.0,0,11,0.0,16431,363230915711652,1797,13.5,-1721.897571694423,0.14999,24,-72020.1521817914,0.02250000089406967,1575420030,,,,0,0.0,6,6.0,13.5,0.0,0.0,7.885272590424635,66.7128,C,,
Raw,1727326413000,481979000000,18,46.041296866543945,-1411361149021999872,0.0,46.041296866543945,-4132.4756247927035,0.0,0,16,0.0,16905,363216877265567,316,23.899999618530273,-1271.771240234375,0.14999,16,-56216.361585359235,0.002025000052526593,1561097980,,,,0,4.678149700373383,5,6.0,23.899999618530273,0.0,0.0,11.579391443181153,66.7128,I,,
Raw,1727326413000,481979000000,18,46.041296866543945,-1411361149021999872,0.0,46.041296866543945,-4132.4756247927035,0.0,0,27,0.0,16431,363230924182522,235,27.83799934387207,-1177.2291350599735,0.14999,16,-51766.885665814596,0.0008999999845400453,1575420030,,,,0,8.846169150749958,1,6.0,27.83799934387207,0.0,0.0,0.0,66.7128,C,,
Raw,1727326413000,481979000000,18,46.041296866543945,-1411361149021999872,0.0,46.041296866543945,-4132.4756247927035,0.0,0,6,0.0,16431,363230919433641,235,29.200000762939453,-1323.7237643085236,0.14999,25,-58279.61195576013,0.0008999999845400453,1575420030,,,,0,11.046614663748816,6,6.0,29.200000762939453,0.0,0.0,7.885272590424635,66.7128,C,,
Raw,1727326413000,481979000000,18,46.041296866543945,-1411361149021999872,0.0,46.041296866543945,-4132.4756247927035,0.0,0,10,0.0,47,363230919826410,316,24.200000762939453,-1577.4475773432987,0.14999,28,-69028.20007277903,0.002025000052526593,1575420030,,,,0,5.036239459875992,6,6.0,24.200000762939453,0.0,0.0,7.885272590424635,66.7128,C,,
Raw,1727326413000,481979000000,18,46.041296866543945,-1411361149021999872,0.0,46.041296866543945,-4132.4756247927035,0.0,0,14,0.0,47,363216919836703,487,23.68000030517578,-1002.8311767578125,0.14999,16,-46318.850697950256,0.009999999776482582,1561097980,,,,0,3.852756240714373,5,6.0,23.68000030517578,0.0,0.0,11.579391443181153,66.7128,I,,
Raw,1727326413000,481979000000,18,46.041296866543945,-1411361149021999872,0.0,46.041296866543945,-4132.4756247927035,0.0,0,41,0.0,16905,363216918402582,316,23.347000122070312,-1297.407470703125,0.14999,17,-56841.41282775081,0.002025000052526593,1561097980,,,,0,6.041656625744953,5,6.0,23.347000122070312,0.0,0.0,11.579391443181153,66.7128,I,,
Raw,1727326413000,481979000000,18,46.041296866543945,-1411361149021999872,0.0,46.041296866543945,-4132.4756247927035,0.0,0,12,0.0,16431,363230921654671,487,19.5,-1367.7905012525434,0.14999,28,-59251.57496805717,0.009999999776482582,1575420030,,,,0,0.0,6,6.0,19.5,0.0,0.0,7.885272590424635,66.7128,C,,
Raw,1727326413000,481979000000,18,46.041296866543945,-1411361149021999872,0.0,46.041296866543945,-4132.4756247927035,0.0,0,9,0.0,16905,363216878490927,396,23.200000762939453,-1350.4932861328125,0.14999,16,-58824.00315529868,0.004900000058114529,1561097980,,,,0,3.7438408369719616,5,6.0,23.200000762939453,0.0,0.0,11.579391443181153,66.7128,I,,
Raw,1727326413000,481979000000,18,46.041296866543945,-1411361149021999872,0.0,46.041296866543945,-4132.4756247927035,0.0,0,11,0.0,16905,363216922652057,74,33.29999923706055,-685.4204711914062,0.14999,25,-38541.944675723586,0.0006249999860301614,1561097980,,,,0,13.556035740215904,5,6.0,33.29999923706055,0.0,0.0,11.579391443181153,66.7128,I,,
Raw,1727326413000,481979000000,18,46.041296866543945,-1411361149021999872,0.0,46.041296866543945,-4132.4756247927035,0.0,0,13,0.0,16905,363216875618598,316,25.700000762939453,-1406.9222412109375,0.14999,16,-60796.81988713067,0.002025000052526593,1561097980,,,,0,6.920979594013938,5,6.0,25.700000762939453,0.0,0.0,11.579391443181153,66.7128,I,,
Raw,1727326413000,481979000000,18,46.041296866543945,-1411361149021999872,0.0,46.041296866543945,-4132.4756247927035,0.0,0,25,0.0,16905,363216920958383,235,27.729999542236328,-1649.2305908203125,0.14999,16,-69145.22047171093,0.0008999999845400453,1561097980,,,,0,9.99427536398077,5,6.0,27.729999542236328,0.0,0.0,11.579391443181153,66.7128,I,,
Raw,1727326413000,481979000000,18,46.041296866543945,-1411361149021999872,0.0,46.041296866543945,-4132.4756247927035,0.0,0,43,0.0,16905,363216925770320,74,29.799999237060547,-830.7097778320312,0.14999,21,-37849.380871778965,0.0006249999860301614,1561097980,,,,0,11.751822020539178,5,6.0,29.799999237060547,0.0,0.0,11.579391443181153,66.7128,I,,
Raw,1727326413000,481979000000,18,46.041296866543945,-1411361149021999872,0.0,46.041296866543945,-4132.4756247927035,0.0,0,8,0.0,47,363216873214996,316,23.899999618530273,-1410.091064453125,0.14999,16,-61636.672418019996,0.002025000052526593,1561097980,,,,0,4.678149700373383,5,6.0,23.899999618530273,0.0,0.0,11.579391443181153,66.7128,I,,
Fix,FLP,12.9368352000,77.5431804000,795.699951171875,0.92416763,2.233,311.48083,1727326413008,2.2,66.9,115143149000000,1.07784,0,,,
Status,1727326413000,67,0,2,126,1575420030,0.00,230.0,69.0,0,0,0,0.0
Status,1727326413000,67,1,2,127,1575420030,0.00,242.0,60.0,0,0,0,0.0
Status,1727326413000,67,2,1,32,1575420030,28.00,312.0,59.0,1,0,0,28.0
Status,1727326413000,67,3,1,18,1575420030,25.40,130.0,45.0,1,0,0,25.4
Status,1727326413000,67,4,1,28,1575420030,26.70,182.0,43.0,1,0,0,26.7
Status,1727326413000,67,5,1,10,1575420030,20.70,355.0,35.0,1,0,0,20.7
Status,1727326413000,67,6,1,23,1575420030,28.30,43.0,33.0,1,0,0,28.3
Status,1727326413000,67,7,1,27,1575420030,30.90,273.0,30.0,1,0,0,30.9
Status,1727326413000,67,8,2,128,1575420030,0.00,0.0,14.0,0,0,0,0.0
Status,1727326413000,67,9,1,24,1575420030,0.00,43.0,11.0,0,0,0,0.0
Status,1727326413000,67,10,1,31,1575420030,0.00,202.0,11.0,0,0,0,0.0
Status,1727326413000,67,11,1,8,1575420030,0.00,300.0,10.0,0,0,0,0.0
Status,1727326413000,67,12,1,25,1575420030,0.00,126.0,8.0,0,0,0,0.0
Status,1727326413000,67,13,1,26,1575420030,0.00,206.0,3.0,0,0,0,0.0
Status,1727326413000,67,14,3,17,1602000000,21.40,316.0,64.0,1,0,0,21.4
Status,1727326413000,67,15,3,24,1602000000,25.60,169.0,53.0,1,0,0,25.6
Status,1727326413000,67,16,3,3,1602000000,23.10,295.0,31.0,1,0,0,23.1
Status,1727326413000,67,17,3,2,1602000000,17.20,357.0,29.0,1,0,0,17.2
Status,1727326413000,67,18,3,13,1602000000,0.00,141.0,18.0,0,0,0,0.0
Status,1727326413000,67,19,3,12,1602000000,19.20,94.0,17.0,1,0,0,19.2
Status,1727326413000,67,20,3,18,1602000000,13.10,333.0,17.0,1,0,0,13.1
Status,1727326413000,67,21,3,4,1602000000,0.00,253.0,5.0,0,0,0,0.0
Status,1727326413000,67,22,3,1,1602000000,0.00,38.0,3.0,0,0,0,0.0
Status,1727326413000,67,23,6,12,1575420030,17.60,32.0,75.0,1,0,0,17.6
Status,1727326413000,67,24,6,4,1575420030,19.80,311.0,63.0,1,0,0,19.8
Status,1727326413000,67,25,6,10,1575420030,24.70,344.0,56.0,1,0,0,24.7
Status,1727326413000,67,26,6,6,1575420030,24.30,264.0,50.0,1,0,0,24.3
Status,1727326413000,67,27,6,33,1575420030,20.40,131.0,36.0,1,0,0,20.4
Status,1727326413000,67,28,6,9,1575420030,19.40,246.0,30.0,1,0,0,19.4
Status,1727326413000,67,29,6,11,1575420030,13.50,332.0,29.0,1,0,0,13.5
Status,1727326413000,67,30,6,19,1575420030,0.00,28.0,27.0,0,0,0,0.0
Status,1727326413000,67,31,6,31,1575420030,0.00,181.0,10.0,0,0,0,0.0
Status,1727326413000,67,32,5,60,1561097980,0.00,168.0,77.0,0,0,0,0.0
Status,1727326413000,67,33,5,2,1561097980,0.00,147.0,76.0,0,0,0,0.0
Status,1727326413000,67,34,5,9,1561097980,23.10,120.0,67.0,1,0,0,23.1
Status,1727326413000,67,35,5,6,1561097980,24.30,89.0,65.0,1,0,0,24.3
Status,1727326413000,67,36,5,5,1561097980,0.00,241.0,65.0,0,0,0,0.0
Status,1727326413000,67,37,5,16,1561097980,23.80,73.0,60.0,1,0,0,23.8
Status,1727326413000,67,38,5,39,1561097980,19.50,59.0,55.0,1,0,0,19.5
Status,1727326413000,67,39,5,43,1561097980,29.70,185.0,53.0,1,0,0,29.7
Status,1727326413000,67,40,5,3,1561097980,0.00,107.0,50.0,0,0,0,0.0
Status,1727326413000,67,41,5,61,1561097980,0.00,108.0,49.0,0,0,0,0.0
Status,1727326413000,67,42,5,28,1561097980,25.70,301.0,46.0,1,0,0,25.7
Status,1727326413000,67,43,5,13,1561097980,25.70,38.0,41.0,1,0,0,25.7
Status,1727326413000,67,44,5,56,1561097980,0.00,139.0,40.0,0,0,0,0.0
Status,1727326413000,67,45,5,33,1561097980,21.90,353.0,39.0,1,0,0,21.9
Status,1727326413000,67,46,5,11,1561097980,24.30,165.0,35.0,1,0,0,24.3
Status,1727326413000,67,47,5,8,1561097980,23.80,55.0,34.0,1,0,0,23.8
Status,1727326413000,67,48,5,38,1561097980,22.80,72.0,31.0,1,0,0,22.8
Status,1727326413000,67,49,5,25,1561097980,27.70,158.0,30.0,1,0,0,27.7
Status,1727326413000,67,50,5,14,1561097980,19.30,24.0,29.0,1,0,0,19.3
Status,1727326413000,67,51,5,24,1561097980,21.90,96.0,28.0,1,0,0,21.9
Status,1727326413000,67,52,5,41,1561097980,23.30,293.0,27.0,1,0,0,23.3
Status,1727326413000,67,53,5,10,1561097980,0.00,170.0,21.0,0,0,0,0.0
Status,1727326413000,67,54,5,59,1561097980,0.00,94.0,19.0,0,0,0,0.0
Status,1727326413000,67,55,5,7,1561097980,0.00,159.0,15.0,0,0,0,0.0
Status,1727326413000,67,56,5,1,1561097980,0.00,94.0,14.0,0,0,0,0.0
Status,1727326413000,67,57,5,42,1561097980,0.00,46.0,14.0,0,0,0,0.0
Status,1727326413000,67,58,5,34,1561097980,0.00,156.0,13.0,0,0,0,0.0
Status,1727326413000,67,59,5,27,1561097980,0.00,321.0,6.0,0,0,0,0.0
Status,1727326413000,67,60,5,40,1561097980,0.00,157.0,4.0,0,0,0,0.0
Status,1727326413000,67,61,5,23,1561097980,0.00,201.0,3.0,0,0,0,0.0
Status,1727326413000,67,62,5,26,1561097980,0.00,54.0,2.0,0,0,0,0.0
Status,1727326413000,67,63,5,57,1561097980,0.00,134.0,2.0,0,0,0,0.0
Status,1727326413000,67,64,4,196,1575420030,0.00,56.0,36.0,0,0,0,0.0
Status,1727326413000,67,65,4,199,1575420030,0.00,44.0,29.0,0,0,0,0.0
Status,1727326413000,67,66,4,195,1575420030,19.00,129.0,20.0,1,0,0,19.0
Fix,GPS,12.9368416667,77.5431583333,778.6,1.0315033,2.2,299.63,1727326414000,2.5,69.1,115144149000000,18.8,0,,,
Raw,1727326414000,482979000000,18,45.72192563449673,-1411361149021999872,0.0,45.72192563449673,-4115.026445032438,0.0,0,23,0.0,16431,363231926176300,235,28.261999130249023,-1225.6853560843974,0.14999,20,-55527.31681266225,0.0008999999845400453,1575420030,,,,0,9.382821218202935,1,6.0,28.261999130249023,0.0,0.0,0.0,66.7128,C,,
Raw,1727326414000,482979000000,18,45.72192563449673,-1411361149021999872,0.0,45.72192563449673,-4115.026445032438,0.0,0,18,0.0,16431,363231928469354,316,25.363000869750977,-837.2652144314034,0.14999,20,-36511.133627034986,0.002025000052526593,1575420030,,,,0,5.5519916964289715,1,6.0,25.363000869750977,0.0,0.0,0.0,66.7128,C,,
Raw,1727326414000,482979000000,18,45.72192563449673,-1411361149021999872,0.0,45.72192563449673,-4115.026445032438,0.0,0,195,0.0,47,363231876549326,487,19.0,-1247.0457279391815,0.14999,16,-56642.63901925255,0.009999999776482582,1575420030,,,,0,0.0,4,6.0,19.0,0.0,,0.0,,C,,
Raw,1727326414000,482979000000,18,45.72192563449673,-1411361149021999872,0.0,45.72192563449673,-4115.026445032438,0.0,0,32,0.0,16431,363231929947329,235,28.04199981689453,-1090.9455423886052,0.14999,20,-49055.1162979013,0.0008999999845400453,1575420030,,,,0,9.105856344479795,1,6.0,28.04199981689453,0.0,0.0,0.0,66.7128,C,,
Raw,1727326414000,482979000000,18,45.72192563449673,-1411361149021999872,0.0,45.72192563449673,-4115.026445032438,0.0,0,9,0.0,16431,363231914101603,487,19.399999618530273,-1474.9783370483408,0.14999,24,-63227.45622448081,0.009999999776482582,1575420030,,,,0,0.0,6,6.0,19.399999618530273,0.0,0.0,3.4848081531427093,66.7128,C,,
Raw,1727326414000,482979000000,18,45.72192563449673,-1411361149021999872,0.0,45.72192563449673,-4115.026445032438,0.0,0,28,0.0,16905,363217924629378,316,25.700000762939453,-1473.623046875,0.14999,20,-67167.12666603479,0.002025000052526593,1561097980,,,,0,6.958909303362157,5,6.0,25.700000762939453,0.0,0.0,7.342504601812239,66.7128,I,,
Raw,1727326414000,482979000000,18,45.72192563449673,-1411361149021999872,0.0,45.72192563449673,-4115.026445032438,0.0,0,39,0.0,16905,363217877748209,396,19.548999786376953,-1221.4117431640625,0.14999,16,-55478.44911692441,0.004900000058114529,1561097980,,,,0,1.144012838051657,5,6.0,19.548999786376953,0.0,0.0,7.342504601812239,66.7128,I,,
Raw,1727326414000,482979000000,18,45.72192563449673,-1411361149021999872,0.0,45.72192563449673,-4115.026445032438,0.0,0,10,0.0,16431,363231925529639,487,20.677000045776367,-1397.953535060403,0.14999,16,-63744.28837512997,0.009999999776482582,1575420030,,,,0,0.0,1,6.0,20.677000045776367,0.0,0.0,0.0,66.7128,C,,
Raw,1727326414000,482979000000,18,45.72192563449673,-1411361149021999872,0.0,45.72192563449673,-4115.026445032438,0.0,0,33,0.0,47,363217921670564,487,21.889999389648438,-1084.050048828125,0.14999,16,-48713.1751103309,0.009999999776482582,1561097980,,,,0,0.0,5,6.0,21.889999389648438,0.0,0.0,7.342504601812239,66.7128,I,,
Raw,1727326414000,482979000000,18,45.72192563449673,-1411361149021999872,0.0,45.72192563449673,-4115.026445032438,0.0,0,24,0.0,16905,363217920669053,487,21.88800048828125,-1342.275634765625,0.14999,16,-59197.661015854195,0.009999999776482582,1561097980,,,,0,3.1777845789611794,5,6.0,21.88800048828125,0.0,0.0,7.342504601812239,66.7128,I,,
Raw,1727326414000,482979000000,18,45.72192563449673,-1411361149021999872,0.0,45.72192563449673,-4115.026445032438,0.0,0,4,0.0,16431,363231921567948,487,19.799999237060547,-1106.9411750898935,0.14999,28,-50580.14931585681,0.009999999776482582,1575420030,,,,0,0.0,6,6.0,19.799999237060547,0.0,0.0,3.4848081531427093,66.7128,C,,
Raw,1727326414000,482979000000,18,45.72192563449673,-1411361149021999872,0.0,45.72192563449673,-4115.026445032438,0.0,0,6,0.0,16905,363217879581947,487,24.334999084472656,-1312.071533203125,0.14999,16,-58648.84872124959,0.009999999776482582,1561097980,,,,0,2.634739658088883,5,6.0,24.334999084472656,0.0,0.0,7.342504601812239,66.7128,I,,
