# 
# Header Description:
# 
# Version: v3.1.0.1 Platform: 11 Manufacturer: OnePlus Model: HD1901 GNSS Hardware Model Name: qcom;MPSS.HE.1.0.c11.1-00007-SM8150_GEN_PACK-2.387049.1.399262.2;
# 
# Raw,utcTimeMillis,TimeNanos,LeapSecond,TimeUncertaintyNanos,FullBiasNanos,BiasNanos,BiasUncertaintyNanos,DriftNanosPerSecond,DriftUncertaintyNanosPerSecond,HardwareClockDiscontinuityCount,Svid,TimeOffsetNanos,State,ReceivedSvTimeNanos,ReceivedSvTimeUncertaintyNanos,Cn0DbHz,PseudorangeRateMetersPerSecond,PseudorangeRateUncertaintyMetersPerSecond,AccumulatedDeltaRangeState,AccumulatedDeltaRangeMeters,AccumulatedDeltaRangeUncertaintyMeters,CarrierFrequencyHz,CarrierCycles,CarrierPhase,CarrierPhaseUncertainty,MultipathIndicator,SnrInDb,ConstellationType,AgcDb,BasebandCn0DbHz,FullInterSignalBiasNanos,FullInterSignalBiasUncertaintyNanos,SatelliteInterSignalBiasNanos,SatelliteInterSignalBiasUncertaintyNanos,CodeType,ChipsetElapsedRealtimeNanos,IsFullTracking
# 
# UncalAccel,utcTimeMillis,elapsedRealtimeNanos,UncalAccelXMps2,UncalAccelYMps2,UncalAccelZMps2,BiasXMps2,BiasYMps2,BiasZMps2
# 
# Accel,utcTimeMillis,elapsedRealtimeNanos,AccelXMps2,AccelYMps2,AccelZMps2
# 
# UncalGyro,utcTimeMillis,elapsedRealtimeNanos,UncalGyroXRadPerSec,UncalGyroYRadPerSec,UncalGyroZRadPerSec,DriftXRadPerSec,DriftYRadPerSec,DriftZRadPerSec
# 
# Gyro,utcTimeMillis,elapsedRealtimeNanos,GyroXRadPerSec,GyroYRadPerSec,GyroZRadPerSec
# 
# UncalMag,utcTimeMillis,elapsedRealtimeNanos,UncalMagXMicroT,UncalMagYMicroT,UncalMagZMicroT,BiasXMicroT,BiasYMicroT,BiasZMicroT
# 
# Mag,utcTimeMillis,elapsedRealtimeNanos,MagXMicroT,MagYMicroT,MagZMicroT
# 
# Pressure,utcTimeMillis,elapsedRealtimeNanos,PressureHpa
# 
# OrientationDeg,utcTimeMillis,elapsedRealtimeNanos,yawDeg,rollDeg,pitchDeg
# 
# Fix,Provider,LatitudeDegrees,LongitudeDegrees,AltitudeMeters,SpeedMps,AccuracyMeters,BearingDegrees,UnixTimeMillis,SpeedAccuracyMps,BearingAccuracyDegrees,elapsedRealtimeNanos,VerticalAccuracyMeters,MockLocation,NumberOfUsedSignals,VerticalSpeedAccuracyMps,SolutionType
# 
# Nav,Svid,Type,Status,MessageId,Sub-messageId,Data(Bytes)
# 
# Status,UnixTimeMillis,SignalCount,SignalIndex,ConstellationType,Svid,CarrierFrequencyHz,Cn0DbHz,AzimuthDegrees,ElevationDegrees,UsedInFix,HasAlmanacData,HasEphemerisData,BasebandCn0DbHz
# 
# Agc,utcTimeMillis,TimeNanos,LeapSecond,TimeUncertaintyNanos,FullBiasNanos,BiasNanos,BiasUncertaintyNanos,DriftNanosPerSecond,DriftUncertaintyNanosPerSecond,HardwareClockDiscontinuityCount,AgcDb,CarrierFrequencyHz,ConstellationType
# 
Raw,1727326412187,2889174757000000,18,,-1408472455430039250,-0.6308853626251221,14284.459874033928,-12.77678339987209,39.987052678316246,168,18,0.0,16399,363230114592929,422,25.4,392.84228515625,0.8075000047683716,16,0.0,0.0,1575420030,,,,0,,1,0.15,21.799999999999997,0.0,0.0,,,C,,
Raw,1727326412187,2889174757000000,18,,-1408472455430039250,-0.6308853626251221,14284.459874033928,-12.77678339987209,39.987052678316246,168,27,0.0,16399,363230110307967,422,25.4,57.002471923828125,0.8014999628067017,16,0.0,0.0,1575420030,,,,0,,1,0.15,21.799999999999997,0.0,0.0,,,C,,
Raw,1727326412187,2889174757000000,18,,-1408472455430039250,-0.6308853626251221,14284.459874033928,-12.77678339987209,39.987052678316246,168,28,0.0,16399,363230113902404,14,34.3,-538.94970703125,0.7390000224113464,16,0.0,0.0,1575420030,,,,0,,1,0.15,30.699999999999996,0.0,0.0,,,C,,
Raw,1727326412187,2889174757000000,18,,-1408472455430039250,-0.6308853626251221,14284.459874033928,-12.77678339987209,39.987052678316246,168,32,0.0,16399,363230116069413,318,27.3,137.36349487304688,0.6904999613761902,16,0.0,0.0,1575420030,,,,0,,1,0.15,23.7,0.0,0.0,,,C,,
Raw,1727326412187,2889174757000000,18,,-1408472455430039250,-0.6308853626251221,14284.459874033928,-12.77678339987209,39.987052678316246,168,12,0.0,49359,28412110732836,239,29.4,-222.63946533203125,0.8184999823570251,16,0.0,0.0,1601437440,,,,0,,3,-2.88,25.4,3819.484375,18.45820426940918,,,C,,
Raw,1727326412187,2889174757000000,18,,-1408472455430039250,-0.6308853626251221,14284.459874033928,-12.77678339987209,39.987052678316246,168,24,0.0,49359,28412119847485,12,36.4,520.219970703125,1.1349999904632568,16,0.0,0.0,1603124990,,,,0,,3,-2.88,32.4,3819.484375,18.45820426940918,,,C,,
Raw,1727326412187,2889174757000000,18,,-1408472455430039250,-0.6308853626251221,14284.459874033928,-12.77678339987209,39.987052678316246,168,17,0.0,49359,28412121840870,422,25.3,-267.790283203125,1.0420000553131104,16,0.0,0.0,1604249980,,,,0,,3,-2.88,21.3,3819.484375,18.45820426940918,,,C,,
Raw,1727326412187,2889174757000000,18,,-1408472455430039250,-0.6308853626251221,14284.459874033928,-12.77678339987209,39.987052678316246,168,3,0.0,49359,28412114668778,487,24.6,52.09152603149414,1.0824999809265137,16,0.0,0.0,1604812540,,,,0,,3,-2.88,20.6,3819.484375,18.45820426940918,,,C,,
Raw,1727326412187,2889174757000000,18,,-1408472455430039250,-0.6308853626251221,14284.459874033928,-12.77678339987209,39.987052678316246,168,4,0.0,23567,363230107690559,487,24.9,122.6633071899414,1.0789999961853027,16,0.0,0.0,1575420030,,,,0,,6,-1.13,20.599999999999998,-726.3916015625,23.30735206604004,,,C,,
Raw,1727326412187,2889174757000000,18,,-1408472455430039250,-0.6308853626251221,14284.459874033928,-12.77678339987209,39.987052678316246,168,9,0.0,23567,363230100222040,367,26.2,-244.93650817871094,0.9605000019073486,16,0.0,0.0,1575420030,,,,0,,6,-1.13,21.9,-726.3916015625,23.30735206604004,,,C,,
Raw,1727326412187,2889174757000000,18,,-1408472455430039250,-0.6308853626251221,14284.459874033928,-12.77678339987209,39.987052678316246,168,10,0.0,23567,363230105951513,318,27.4,-343.3088073730469,0.9020000100135803,16,0.0,0.0,1575420030,,,,0,,6,-1.13,23.099999999999998,-726.3916015625,23.30735206604004,,,C,,
Raw,1727326412187,2889174757000000,18,,-1408472455430039250,-0.6308853626251221,14284.459874033928,-12.77678339987209,39.987052678316246,168,12,0.0,23567,363230107780324,487,24.7,-133.94772338867188,1.0789999961853027,16,0.0,0.0,1575420030,,,,0,,6,-1.13,20.4,-726.3916015625,23.30735206604004,,,C,,
Raw,1727326412447,2889175017000000,18,,-1408472455430039029,-0.31883931159973145,90.7245630514808,-12.510320474245544,7.420409857467862,168,8,0.0,16399,363230364621076,561,23.2,-199.86544799804688,0.9375,16,0.0,0.0,1575420030,,,,0,,1,0.46,19.599999999999998,0.0,0.0,,,C,,
Raw,1727326412447,2889175017000000,18,,-1408472455430039029,-0.31883931159973145,90.7245630514808,-12.510320474245544,7.420409857467862,168,10,0.0,16399,363230371649973,561,23.8,-169.91322326660156,0.9479999542236328,16,0.0,0.0,1575420030,,,,0,,1,0.46,20.2,0.0,0.0,,,C,,
Raw,1727326412447,2889175017000000,18,,-1408472455430039029,-0.31883931159973145,90.7245630514808,-12.510320474245544,7.420409857467862,168,18,0.0,16399,363230374592586,27,28.0,391.9859619140625,0.6525000333786011,16,0.0,0.0,1575420030,,,,0,,1,0.46,24.4,0.0,0.0,,,C,,
Raw,1727326412447,2889175017000000,18,,-1408472455430039029,-0.31883931159973145,90.7245630514808,-12.510320474245544,7.420409857467862,168,23,0.0,16399,363230372297502,487,24.4,2.131289005279541,0.8794999718666077,16,0.0,0.0,1575420030,,,,0,,1,0.46,20.799999999999997,0.0,0.0,,,C,,
Raw,1727326412447,2889175017000000,18,,-1408472455430039029,-0.31883931159973145,90.7245630514808,-12.510320474245544,7.420409857467862,168,27,0.0,16399,363230370307959,561,23.3,56.54576110839844,0.9465000033378601,16,0.0,0.0,1575420030,,,,0,,1,0.46,19.7,0.0,0.0,,,C,,
Raw,1727326412447,2889175017000000,18,,-1408472455430039029,-0.31883931159973145,90.7245630514808,-12.510320474245544,7.420409857467862,168,28,0.0,16399,363230373902833,10,37.8,-539.5301513671875,0.8090000152587891,16,0.0,0.0,1575420030,,,,0,,1,0.46,34.199999999999996,0.0,0.0,,,C,,
Raw,1727326412447,2889175017000000,18,,-1408472455430039029,-0.31883931159973145,90.7245630514808,-12.510320474245544,7.420409857467862,168,32,0.0,16399,363230376069237,24,29.2,136.89727783203125,0.6154999732971191,16,0.0,0.0,1575420030,,,,0,,1,0.46,25.599999999999998,0.0,0.0,,,C,,
Raw,1727326412447,2889175017000000,18,,-1408472455430039029,-0.31883931159973145,90.7245630514808,-12.510320474245544,7.420409857467862,168,24,0.0,49359,28412379846989,8,40.1,520.0142822265625,0.9700000286102295,16,0.0,0.0,1603124990,,,,0,,3,-3.9,36.1,3819.066162109375,7.420697212219238,,,C,,
Raw,1727326412447,2889175017000000,18,,-1408472455430039029,-0.31883931159973145,90.7245630514808,-12.510320474245544,7.420409857467862,168,4,0.0,23567,363230367690479,487,24.6,121.44541931152344,1.093999981880188,16,0.0,0.0,1575420030,,,,0,,6,-0.87,20.3,-722.60009765625,9.557533264160156,,,C,,
Raw,1727326412447,2889175017000000,18,,-1408472455430039029,-0.31883931159973145,90.7245630514808,-12.510320474245544,7.420409857467862,168,9,0.0,23567,363230360222231,487,24.7,-244.91748046875,1.0954999923706055,16,0.0,0.0,1575420030,,,,0,,6,-0.87,20.4,-722.60009765625,9.557533264160156,,,C,,
Raw,1727326412447,2889175017000000,18,,-1408472455430039029,-0.31883931159973145,90.7245630514808,-12.510320474245544,7.420409857467862,168,10,0.0,23567,363230365951808,423,25.9,-343.2422180175781,1.0369999408721924,16,0.0,0.0,1575420030,,,,0,,6,-0.87,21.599999999999998,-722.60009765625,9.557533264160156,,,C,,
Raw,1727326412447,2889175017000000,18,,-1408472455430039029,-0.31883931159973145,90.7245630514808,-12.510320474245544,7.420409857467862,168,12,0.0,23567,363230367780438,487,24.0,-133.91917419433594,1.093999981880188,16,0.0,0.0,1575420030,,,,0,,6,-0.87,19.7,-722.60009765625,9.557533264160156,,,C,,
Raw,1727326413447,2889176017000000,18,,-1408472455430039027,-0.20287442207336426,87.94212044449523,-14.671791163849738,18.12612111094359,168,8,0.0,16399,363231364621654,490,24.4,-199.45631408691406,1.6175000667572021,16,0.0,0.0,1575420030,,,,0,,1,0.15,20.799999999999997,0.0,0.0,,,C,,
Raw,1727326413447,2889176017000000,18,,-1408472455430039027,-0.20287442207336426,87.94212044449523,-14.671791163849738,18.12612111094359,168,10,0.0,16399,363231371650501,564,23.4,-169.97982788085938,1.6979999542236328,16,0.0,0.0,1575420030,,,,0,,1,0.15,19.799999999999997,0.0,0.0,,,C,,
Raw,1727326413447,2889176017000000,18,,-1408472455430039027,-0.20287442207336426,87.94212044449523,-14.671791163849738,18.12612111094359,168,18,0.0,16399,363231374591268,40,24.7,391.51971435546875,0.8524999618530273,16,0.0,0.0,1575420030,,,,0,,1,0.15,21.099999999999998,0.0,0.0,,,C,,
Raw,1727326413447,2889176017000000,18,,-1408472455430039027,-0.20287442207336426,87.94212044449523,-14.671791163849738,18.12612111094359,168,23,0.0,16399,363231372297488,21,30.0,2.331097364425659,0.8655000329017639,16,0.0,0.0,1575420030,,,,0,,1,0.15,26.4,0.0,0.0,,,C,,
Raw,1727326413447,2889176017000000,18,,-1408472455430039027,-0.20287442207336426,87.94212044449523,-14.671791163849738,18.12612111094359,168,27,0.0,16399,363231370307768,425,25.1,56.0034294128418,1.566499948501587,16,0.0,0.0,1575420030,,,,0,,1,0.15,21.5,0.0,0.0,,,C,,
Raw,1727326413447,2889176017000000,18,,-1408472455430039027,-0.20287442207336426,87.94212044449523,-14.671791163849738,18.12612111094359,168,28,0.0,16399,363231373904652,11,37.1,-539.4691162109375,0.20000000298023224,16,0.0,1902.9177342976868,1575420030,,,,0,,1,0.15,33.5,0.0,0.0,,,C,,
Raw,1727326413447,2889176017000000,18,,-1408472455430039027,-0.20287442207336426,87.94212044449523,-14.671791163849738,18.12612111094359,168,32,0.0,16399,363231376068762,31,27.0,137.50621032714844,0.6754999756813049,16,0.0,0.0,1575420030,,,,0,,1,0.15,23.4,0.0,0.0,,,C,,
Raw,1727326413447,2889176017000000,18,,-1408472455430039027,-0.20287442207336426,87.94212044449523,-14.671791163849738,18.12612111094359,168,195,0.0,16399,363231322670435,650,22.1,-19.95229148864746,1.7645000219345093,16,0.0,0.0,1575420030,,,,0,,4,0.15,18.5,0.0,0.0,,,C,,
Raw,1727326413447,2889176017000000,18,,-1408472455430039027,-0.20287442207336426,87.94212044449523,-14.671791163849738,18.12612111094359,168,196,0.0,16399,363231308209839,490,24.7,-142.09228515625,1.623500108718872,16,0.0,0.0,1575420030,,,,0,,4,0.15,21.099999999999998,0.0,0.0,,,C,,
Raw,1727326413447,2889176017000000,18,,-1408472455430039027,-0.20287442207336426,87.94212044449523,-14.671791163849738,18.12612111094359,168,2,0.0,49359,28413374145575,655,22.1,357.72705078125,2.642500162124634,16,0.0,0.0,1599750020,,,,0,,3,-4.21,18.1,3819.06201171875,7.469449996948242,,,C,,
Raw,1727326413447,2889176017000000,18,,-1408472455430039027,-0.20287442207336426,87.94212044449523,-14.671791163849738,18.12612111094359,168,12,0.0,49359,28413370733752,46,24.3,-223.47250366210938,1.058500051498413,16,0.0,0.0,1601437440,,,,0,,3,-4.21,20.3,3819.06201171875,7.469449996948242,,,C,,
Raw,1727326413447,2889176017000000,18,,-1408472455430039027,-0.20287442207336426,87.94212044449523,-14.671791163849738,18.12612111094359,168,24,0.0,49359,28413379845274,13,35.0,520.3228759765625,0.22060000896453857,16,0.0,1870.0318021494788,1603124990,,,,0,,3,-4.21,31.0,3819.06201171875,7.469449996948242,,,C,,
Raw,1727326413447,2889176017000000,18,,-1408472455430039027,-0.20287442207336426,87.94212044449523,-14.671791163849738,18.12612111094359,168,17,0.0,49359,28413381842002,21,30.4,-267.6314697265625,0.7519999742507935,16,0.0,0.0,1604249980,,,,0,,3,-4.21,26.4,3819.06201171875,7.469449996948242,,,C,,
Raw,1727326413447,2889176017000000,18,,-1408472455430039027,-0.20287442207336426,87.94212044449523,-14.671791163849738,18.12612111094359,168,3,0.0,49359,28413374668481,371,26.1,52.12889099121094,1.9975001811981201,16,0.0,0.0,1604812540,,,,0,,3,-4.21,22.1,3819.06201171875,7.469449996948242,,,C,,
Raw,1727326413447,2889176017000000,18,,-1408472455430039027,-0.20287442207336426,87.94212044449523,-14.671791163849738,18.12612111094359,168,4,0.0,23567,363231367690091,491,24.8,121.59765625,1.8440001010894775,16,0.0,0.0,1575420030,,,,0,,6,-1.22,20.5,-722.5950317382812,9.595152854919434,,,C,,
Raw,1727326413447,2889176017000000,18,,-1408472455430039027,-0.20287442207336426,87.94212044449523,-14.671791163849738,18.12612111094359,168,6,0.0,23567,363231365559804,426,25.6,-90.60832977294922,1.787000060081482,16,0.0,0.0,1575420030,,,,0,,6,-1.22,21.3,-722.5950317382812,9.595152854919434,,,C,,
Raw,1727326413447,2889176017000000,18,,-1408472455430039027,-0.20287442207336426,87.94212044449523,-14.671791163849738,18.12612111094359,168,9,0.0,23567,363231360223047,565,23.1,-245.03164672851562,1.9155000448226929,16,0.0,0.0,1575420030,,,,0,,6,-1.22,18.8,-722.5950317382812,9.595152854919434,,,C,,
Raw,1727326413447,2889176017000000,18,,-1408472455430039027,-0.20287442207336426,87.94212044449523,-14.671791163849738,18.12612111094359,168,10,0.0,23567,363231365952942,426,25.0,-343.88922119140625,1.787000060081482,16,0.0,0.0,1575420030,,,,0,,6,-1.22,20.7,-722.5950317382812,9.595152854919434,,,C,,
Raw,1727326413447,2889176017000000,18,,-1408472455430039027,-0.20287442207336426,87.94212044449523,-14.671791163849738,18.12612111094359,168,12,0.0,23567,363231367780898,565,23.9,-134.09994506835938,1.9140000343322754,16,0.0,0.0,1575420030,,,,0,,6,-1.22,19.599999999999998,-722.5950317382812,9.595152854919434,,,C,,
Raw,1727326413447,2889176017000000,18,,-1408472455430039027,-0.20287442207336426,87.94212044449523,-14.671791163849738,18.12612111094359,168,33,0.0,23567,363231362235016,565,23.0,336.9339599609375,1.9185000658035278,16,0.0,0.0,1575420030,,,,0,,6,-1.22,18.7,-722.5950317382812,9.595152854919434,,,C,,
Raw,1727326414447,2889177017000000,18,,-1408472455430039038,-0.013666868209838867,69.21693420736119,-15.502548916776403,19.058868595240682,168,8,0.0,16399,363232364622319,569,23.7,-199.6370849609375,2.4375,16,0.0,0.0,1575420030,,,,0,,1,0.18,20.099999999999998,0.0,0.0,,,C,,
Raw,1727326414447,2889177017000000,18,,-1408472455430039038,-0.013666868209838867,69.21693420736119,-15.502548916776403,19.058868595240682,168,10,0.0,16399,363232371651082,655,22.8,-170.29380798339844,2.5280001163482666,16,0.0,0.0,1575420030,,,,0,,1,0.18,19.2,0.0,0.0,,,C,,
Raw,1727326414447,2889177017000000,18,,-1408472455430039038,-0.013666868209838867,69.21693420736119,-15.502548916776403,19.058868595240682,168,18,0.0,16399,363232374589973,19,30.8,391.4089050292969,0.20000000298023224,16,0.0,1902.9177342976868,1575420030,,,,0,,1,0.18,27.2,0.0,0.0,,,C,,
Raw,1727326414447,2889177017000000,18,,-1408472455430039038,-0.013666868209838867,69.21693420736119,-15.502548916776403,19.058868595240682,168,23,0.0,16399,363232372297474,21,29.7,2.4060916900634766,0.20000000298023224,16,0.0,1902.9177342976868,1575420030,,,,0,,1,0.18,26.099999999999998,0.0,0.0,,,C,,
Raw,1727326414447,2889177017000000,18,,-1408472455430039038,-0.013666868209838867,69.21693420736119,-15.502548916776403,19.058868595240682,168,27,0.0,16399,363232370307496,40,25.0,56.82168960571289,1.128499984741211,16,0.0,0.0,1575420030,,,,0,,1,0.18,21.4,0.0,0.0,,,C,,
Raw,1727326414447,2889177017000000,18,,-1408472455430039038,-0.013666868209838867,69.21693420736119,-15.502548916776403,19.058868595240682,168,28,0.0,16399,363232373906444,17,32.0,-539.6879272460938,0.20000000298023224,16,0.0,1902.9177342976868,1575420030,,,,0,,1,0.18,28.4,0.0,0.0,,,C,,
Raw,1727326414447,2889177017000000,18,,-1408472455430039038,-0.013666868209838867,69.21693420736119,-15.502548916776403,19.058868595240682,168,31,0.0,16399,363232364630422,868,20.4,-695.4948120117188,2.6875,16,0.0,0.0,1575420030,,,,0,,1,0.18,16.799999999999997,0.0,0.0,,,C,,
Raw,1727326414447,2889177017000000,18,,-1408472455430039038,-0.013666868209838867,69.21693420736119,-15.502548916776403,19.058868595240682,168,32,0.0,16399,363232376068329,27,28.2,138.37203979492188,0.640500009059906,16,0.0,0.0,1575420030,,,,0,,1,0.18,24.599999999999998,0.0,0.0,,,C,,
Raw,1727326414447,2889177017000000,18,,-1408472455430039038,-0.013666868209838867,69.21693420736119,-15.502548916776403,19.058868595240682,168,195,0.0,16399,363232322670564,569,23.5,-19.50510025024414,2.434499979019165,16,0.0,0.0,1575420030,,,,0,,4,0.18,19.9,0.0,0.0,,,C,,
Raw,1727326414447,2889177017000000,18,,-1408472455430039038,-0.013666868209838867,69.21693420736119,-15.502548916776403,19.058868595240682,168,196,0.0,16399,363232308210320,495,24.3,-141.76878356933594,2.373500108718872,16,0.0,0.0,1575420030,,,,0,,4,0.18,20.7,0.0,0.0,,,C,,
Raw,1727326414447,2889177017000000,18,,-1408472455430039038,-0.013666868209838867,69.21693420736119,-15.502548916776403,19.058868595240682,168,2,0.0,49359,28414374144472,757,21.4,356.7244567871094,3.0975000858306885,16,0.0,0.0,1599750020,,,,0,,3,-4.22,17.4,3819.058349609375,7.517775535583496,,,C,,
Raw,1727326414447,2889177017000000,18,,-1408472455430039038,-0.013666868209838867,69.21693420736119,-15.502548916776403,19.058868595240682,168,12,0.0,49359,28414370734587,35,26.0,-223.84690856933594,0.9414999485015869,16,0.0,0.0,1601437440,,,,0,,3,-4.22,22.0,3819.058349609375,7.517775535583496,,,C,,
Raw,1727326414447,2889177017000000,18,,-1408472455430039038,-0.013666868209838867,69.21693420736119,-15.502548916776403,19.058868595240682,168,24,0.0,49359,28414379843426,35,26.9,520.7529296875,0.9249999523162842,16,0.0,0.0,1603124990,,,,0,,3,-4.22,22.9,3819.058349609375,7.517775535583496,,,C,,
Raw,1727326414447,2889177017000000,18,,-1408472455430039038,-0.013666868209838867,69.21693420736119,-15.502548916776403,19.058868595240682,168,17,0.0,49359,28414381842936,35,26.3,-266.79986572265625,0.9279999732971191,16,0.0,0.0,1604249980,,,,0,,3,-4.22,22.3,3819.058349609375,7.517775535583496,,,C,,
Raw,1727326414447,2889177017000000,18,,-1408472455430039038,-0.013666868209838867,69.21693420736119,-15.502548916776403,19.058868595240682,168,3,0.0,49359,28414374668159,46,24.1,53.623355865478516,1.0525000095367432,16,0.0,0.0,1604812540,,,,0,,3,-4.22,20.1,3819.058349609375,7.517775535583496,,,C,,
Raw,1727326414447,2889177017000000,18,,-1408472455430039038,-0.013666868209838867,69.21693420736119,-15.502548916776403,19.058868595240682,168,28,0.0,16399,363218370752479,368,26.0,-244.96556091308594,1.3264999389648438,16,0.0,0.0,1561097980,,,,0,,5,0.42,21.7,-1504.990234375,22.976520538330078,,,I,,
Raw,1727326414447,2889177017000000,18,,-1408472455430039038,-0.013666868209838867,69.21693420736119,-15.502548916776403,19.058868595240682,168,25,0.0,16399,363218367087278,13,36.0,-418.0892028808594,1.3070001602172852,16,0.0,0.0,1561097980,,,,0,,5,0.42,31.7,-1504.990234375,22.976520538330078,,,I,,
Raw,1727326414447,2889177017000000,18,,-1408472455430039038,-0.013666868209838867,69.21693420736119,-15.502548916776403,19.058868595240682,168,24,0.0,16399,363218366791987,563,23.7,-113.38971710205078,1.5104999542236328,16,0.0,0.0,1561097980,,,,0,,5,0.42,19.4,-1504.990234375,22.976520538330078,,,I,,
Raw,1727326414447,2889177017000000,18,,-1408472455430039038,-0.013666868209838867,69.21693420736119,-15.502548916776403,19.058868595240682,168,16,0.0,16399,363218323392534,489,24.1,-39.28167724609375,1.4359999895095825,16,0.0,0.0,1561097980,,,,0,,5,0.42,19.8,-1504.990234375,22.976520538330078,,,I,,
Raw,1727326414447,2889177017000000,18,,-1408472455430039038,-0.013666868209838867,69.21693420736119,-15.502548916776403,19.058868595240682,168,14,0.0,16399,363218365962468,368,26.0,230.956298828125,1.319000005722046,16,0.0,0.0,1561097980,,,,0,,5,0.42,21.7,-1504.990234375,22.976520538330078,,,I,,
Raw,1727326414447,2889177017000000,18,,-1408472455430039038,-0.013666868209838867,69.21693420736119,-15.502548916776403,19.058868595240682,168,13,0.0,16399,363218321746301,19,31.8,-174.1702117919922,1.4580000638961792,16,0.0,0.0,1561097980,,,,0,,5,0.42,27.5,-1504.990234375,22.976520538330078,,,I,,
Raw,1727326414447,2889177017000000,18,,-1408472455430039038,-0.013666868209838867,69.21693420736119,-15.502548916776403,19.058868595240682,168,11,0.0,16399,363218368776263,19,31.6,546.5443725585938,1.468500018119812,16,0.0,0.0,1561097980,,,,0,,5,0.42,27.3,-1504.990234375,22.976520538330078,,,I,,
Raw,1727326414447,2889177017000000,18,,-1408472455430039038,-0.013666868209838867,69.21693420736119,-15.502548916776403,19.058868595240682,168,9,0.0,16399,363218324618335,27,28.6,-117.77781677246094,1.2075001001358032,16,0.0,0.0,1561097980,,,,0,,5,0.42,24.3,-1504.990234375,22.976520538330078,,,I,,
Raw,1727326414447,2889177017000000,18,,-1408472455430039038,-0.013666868209838867,69.21693420736119,-15.502548916776403,19.058868595240682,168,8,0.0,16399,363218319342697,563,23.0,-176.7339324951172,1.5299999713897705,16,0.0,0.0,1561097980,,,,0,,5,0.42,18.7,-1504.990234375,22.976520538330078,,,I,,
Raw,1727326414447,2889177017000000,18,,-1408472455430039038,-0.013666868209838867,69.21693420736119,-15.502548916776403,19.058868595240682,168,6,0.0,16399,363218325704825,489,24.7,-84.30533599853516,1.4390000104904175,16,0.0,0.0,1561097980,,,,0,,5,0.42,20.4,-1504.990234375,22.976520538330078,,,I,,
Raw,1727326414447,2889177017000000,18,,-1408472455430039038,-0.013666868209838867,69.21693420736119,-15.502548916776403,19.058868595240682,168,2,0.0,16399,363218327937561,373,26.3,0.33606910705566406,4.793099880218506,16,0.0,0.0,1561097980,,,,0,,5,0.42,22.0,-1504.990234375,22.976520538330078,,,I,,
Raw,1727326414447,2889177017000000,18,,-1408472455430039038,-0.013666868209838867,69.21693420736119,-15.502548916776403,19.058868595240682,168,4,0.0,23567,363232367689685,497,24.5,121.24561309814453,2.5939998626708984,16,0.0,0.0,1575420030,,,,0,,6,-1.13,20.2,-722.3623657226562,9.521294593811035,,,C,,
Raw,1727326414447,2889177017000000,18,,-1408472455430039038,-0.013666868209838867,69.21693420736119,-15.502548916776403,19.058868595240682,168,6,0.0,23567,363232365560112,497,24.9,-90.72250366210938,2.5970001220703125,16,0.0,0.0,1575420030,,,,0,,6,-1.13,20.599999999999998,-722.3623657226562,9.521294593811035,,,C,,
Raw,1727326414447,2889177017000000,18,,-1408472455430039038,-0.013666868209838867,69.21693420736119,-15.502548916776403,19.058868595240682,168,9,0.0,23567,363232360223863,757,21.8,-244.6700897216797,2.825500011444092,16,0.0,0.0,1575420030,,,,0,,6,-1.13,17.5,-722.3623657226562,9.521294593811035,,,C,,
Raw,1727326414447,2889177017000000,18,,-1408472455430039038,-0.013666868209838867,69.21693420736119,-15.502548916776403,19.058868595240682,168,10,0.0,23567,363232365954076,497,24.7,-343.9177551269531,2.5970001220703125,16,0.0,0.0,1575420030,,,,0,,6,-1.13,20.4,-722.3623657226562,9.521294593811035,,,C,,
Raw,1727326414447,2889177017000000,18,,-1408472455430039038,-0.013666868209838867,69.21693420736119,-15.502548916776403,19.058868595240682,168,12,0.0,23567,363232367781332,657,22.3,-134.03335571289062,2.74399995803833,16,0.0,0.0,1575420030,,,,0,,6,-1.13,18.0,-722.3623657226562,9.521294593811035,,,C,,
Raw,1727326414447,2889177017000000,18,,-1408472455430039038,-0.013666868209838867,69.21693420736119,-15.502548916776403,19.058868595240682,168,33,0.0,23567,363232362233912,497,24.5,337.20989990234375,2.5985000133514404,16,0.0,0.0,1575420030,,,,0,,6,-1.13,20.2,-722.3623657226562,9.521294593811035,,,C,,
Raw,1727326415447,2889178017000000,18,,-1408472455430039053,-0.04893851280212402,59.79224806651473,-15.66957813701911,16.752404269723744,168,8,0.0,16399,363233364622988,663,22.6,-199.67515563964844,3.267500162124634,16,0.0,0.0,1575420030,,,,0,,1,0.09,19.0,0.0,0.0,,,C,,
Raw,1727326415447,2889178017000000,18,,-1408472455430039053,-0.04893851280212402,59.79224806651473,-15.66957813701911,16.752404269723744,168,10,0.0,16399,363233371651647,663,22.5,-169.79904174804688,3.2780001163482666,16,0.0,0.0,1575420030,,,,0,,1,0.09,18.9,0.0,0.0,,,C,,
Raw,1727326415447,2889178017000000,18,,-1408472455430039053,-0.04893851280212402,59.79224806651473,-15.66957813701911,16.752404269723744,168,18,0.0,16399,363233374588674,14,33.9,392.57281494140625,0.20000000298023224,16,0.0,1902.9177342976868,1575420030,,,,0,,1,0.09,30.299999999999997,0.0,0.0,,,C,,
Raw,1727326415447,2889178017000000,18,,-1408472455430039053,-0.04893851280212402,59.79224806651473,-15.66957813701911,16.752404269723744,168,23,0.0,16399,363233372297468,27,28.4,3.5489768981933594,0.6345000267028809,16,0.0,0.0,1575420030,,,,0,,1,0.09,24.799999999999997,0.0,0.0,,,C,,
Raw,1727326415447,2889178017000000,18,,-1408472455430039053,-0.04893851280212402,59.79224806651473,-15.66957813701911,16.752404269723744,168,27,0.0,16399,363233370307300,46,24.4,58.20132064819336,0.8614999651908875,16,0.0,0.0,1575420030,,,,0,,1,0.09,20.799999999999997,0.0,0.0,,,C,,
Raw,1727326415447,2889178017000000,18,,-1408472455430039053,-0.04893851280212402,59.79224806651473,-15.66957813701911,16.752404269723744,168,28,0.0,16399,363233373908236,17,31.7,-538.460693359375,0.20000000298023224,16,0.0,1902.9177342976868,1575420030,,,,0,,1,0.09,28.099999999999998,0.0,0.0,,,C,,
Raw,1727326415447,2889178017000000,18,,-1408472455430039053,-0.04893851280212402,59.79224806651473,-15.66957813701911,16.752404269723744,168,31,0.0,16399,363233364632718,1008,19.7,-694.8953857421875,3.5275001525878906,16,0.0,0.0,1575420030,,,,0,,1,0.09,16.099999999999998,0.0,0.0,,,C,,
Raw,1727326415447,2889178017000000,18,,-1408472455430039053,-0.04893851280212402,59.79224806651473,-15.66957813701911,16.752404269723744,168,32,0.0,16399,363233376067795,27,28.3,140.2274169921875,0.640500009059906,16,0.0,0.0,1575420030,,,,0,,1,0.09,24.7,0.0,0.0,,,C,,
Raw,1727326415447,2889178017000000,18,,-1408472455430039053,-0.04893851280212402,59.79224806651473,-15.66957813701911,16.752404269723744,168,195,0.0,16399,363233322670677,40,24.6,-19.419469833374023,1.2005000114440918,16,0.0,0.0,1575420030,,,,0,,4,0.09,21.0,0.0,0.0,,,C,,
Raw,1727326415447,2889178017000000,18,,-1408472455430039053,-0.04893851280212402,59.79224806651473,-15.66957813701911,16.752404269723744,168,196,0.0,16399,363233308210728,27,28.4,-140.11322021484375,0.9615000486373901,16,0.0,0.0,1575420030,,,,0,,4,0.09,24.799999999999997,0.0,0.0,,,C,,
Raw,1727326415447,2889178017000000,18,,-1408472455430039053,-0.04893851280212402,59.79224806651473,-15.66957813701911,16.752404269723744,168,2,0.0,49359,28415374143236,881,20.9,356.9961853027344,3.937500238418579,16,0.0,0.0,1599750020,,,,0,,3,-4.3,16.9,3819.329345703125,7.484714508056641,,,C,,
Raw,1727326415447,2889178017000000,18,,-1408472455430039053,-0.04893851280212402,59.79224806651473,-15.66957813701911,16.752404269723744,168,12,0.0,49359,28415370735206,46,24.5,-221.88128662109375,1.0614999532699585,16,0.0,0.0,1601437440,,,,0,,3,-4.3,20.5,3819.329345703125,7.484714508056641,,,C,,
Raw,1727326415447,2889178017000000,18,,-1408472455430039053,-0.04893851280212402,59.79224806651473,-15.66957813701911,16.752404269723744,168,24,0.0,49359,28415379841794,24,29.9,521.3610229492188,0.23180000483989716,16,0.0,1870.0318021494788,1603124990,,,,0,,3,-4.3,25.9,3819.329345703125,7.484714508056641,,,C,,
Raw,1727326415447,2889178017000000,18,,-1408472455430039053,-0.04893851280212402,59.79224806651473,-15.66957813701911,16.752404269723744,168,17,0.0,49359,28415381843848,35,26.5,-264.9404602050781,0.9279999732971191,16,0.0,0.0,1604249980,,,,0,,3,-4.3,22.5,3819.329345703125,7.484714508056641,,,C,,
Raw,1727326415447,2889178017000000,18,,-1408472455430039053,-0.04893851280212402,59.79224806651473,-15.66957813701911,16.752404269723744,168,28,0.0,16399,363219370753286,429,25.7,-244.04379272460938,2.136500120162964,16,0.0,0.0,1561097980,,,,0,,5,0.21,21.4,-1497.6568603515625,9.314265251159668,,,I,,
Raw,1727326415447,2889178017000000,18,,-1408472455430039053,-0.04893851280212402,59.79224806651473,-15.66957813701911,16.752404269723744,168,25,0.0,16399,363219367088649,27,28.7,-417.0425720214844,0.6270000338554382,16,0.0,0.0,1561097980,,,,0,,5,0.21,24.4,-1497.6568603515625,9.314265251159668,,,I,,
Raw,1727326415447,2889178017000000,18,,-1408472455430039053,-0.04893851280212402,59.79224806651473,-15.66957813701911,16.752404269723744,168,24,0.0,16399,363219366792328,654,22.8,-112.41032409667969,2.3405001163482666,16,0.0,0.0,1561097980,,,,0,,5,0.21,18.5,-1497.6568603515625,9.314265251159668,,,I,,
Raw,1727326415447,2889178017000000,18,,-1408472455430039053,-0.04893851280212402,59.79224806651473,-15.66957813701911,16.752404269723744,168,16,0.0,16399,363219323392709,35,26.3,-37.774166107177734,2.065999984741211,16,0.0,0.0,1561097980,,,,0,,5,0.21,22.0,-1497.6568603515625,9.314265251159668,,,I,,
Raw,1727326415447,2889178017000000,18,,-1408472455430039053,-0.04893851280212402,59.79224806651473,-15.66957813701911,16.752404269723744,168,14,0.0,16399,363219365961686,493,24.7,230.985107421875,2.188999891281128,16,0.0,0.0,1561097980,,,,0,,5,0.21,20.4,-1497.6568603515625,9.314265251159668,,,I,,
Raw,1727326415447,2889178017000000,18,,-1408472455430039053,-0.04893851280212402,59.79224806651473,-15.66957813701911,16.752404269723744,168,13,0.0,16399,363219321746861,27,28.7,-171.62570190429688,0.6180000305175781,16,0.0,0.0,1561097980,,,,0,,5,0.21,24.4,-1497.6568603515625,9.314265251159668,,,I,,
Raw,1727326415447,2889178017000000,18,,-1408472455430039053,-0.04893851280212402,59.79224806651473,-15.66957813701911,16.752404269723744,168,11,0.0,16399,363219368774448,46,25.2,547.4757690429688,0.9635000228881836,16,0.0,0.0,1561097980,,,,0,,5,0.21,20.9,-1497.6568603515625,9.314265251159668,,,I,,
Raw,1727326415447,2889178017000000,18,,-1408472455430039053,-0.04893851280212402,59.79224806651473,-15.66957813701911,16.752404269723744,168,9,0.0,16399,363219324618734,35,27.0,-116.09747314453125,0.67249995470047,16,0.0,0.0,1561097980,,,,0,,5,0.21,22.7,-1497.6568603515625,9.314265251159668,,,I,,
Raw,1727326415447,2889178017000000,18,,-1408472455430039053,-0.04893851280212402,59.79224806651473,-15.66957813701911,16.752404269723744,168,8,0.0,16399,363219319343298,654,22.5,-175.86016845703125,2.3600001335144043,16,0.0,0.0,1561097980,,,,0,,5,0.21,18.2,-1497.6568603515625,9.314265251159668,,,I,,
Raw,1727326415447,2889178017000000,18,,-1408472455430039053,-0.04893851280212402,59.79224806651473,-15.66957813701911,16.752404269723744,168,6,0.0,16399,363219325705091,429,25.6,-83.71961975097656,2.128999948501587,16,0.0,0.0,1561097980,,,,0,,5,0.21,21.3,-1497.6568603515625,9.314265251159668,,,I,,
Raw,1727326415447,2889178017000000,18,,-1408472455430039053,-0.04893851280212402,59.79224806651473,-15.66957813701911,16.752404269723744,168,2,0.0,16399,363219327937557,383,26.4,2.698154926300049,5.543099880218506,16,0.0,0.0,1561097980,,,,0,,5,0.21,22.099999999999998,-1497.6568603515625,9.314265251159668,,,I,,
Raw,1727326415447,2889178017000000,18,,-1408472455430039053,-0.04893851280212402,59.79224806651473,-15.66957813701911,16.752404269723744,168,4,0.0,23567,363233367689278,580,23.9,121.38833618164062,3.4140000343322754,16,0.0,0.0,1575420030,,,,0,,6,-1.19,19.599999999999998,-722.0238037109375,9.423629760742188,,,C,,
Raw,1727326415447,2889178017000000,18,,-1408472455430039053,-0.04893851280212402,59.79224806651473,-15.66957813701911,16.752404269723744,168,6,0.0,23567,363233365560408,505,24.2,-90.60832977294922,3.3470001220703125,16,0.0,0.0,1575420030,,,,0,,6,-1.19,19.9,-722.0238037109375,9.423629760742188,,,C,,
Raw,1727326415447,2889178017000000,18,,-1408472455430039053,-0.04893851280212402,59.79224806651473,-15.66957813701911,16.752404269723744,168,9,0.0,23567,363233360224689,765,21.5,-244.0516357421875,3.575500011444092,16,0.0,0.0,1575420030,,,,0,,6,-1.19,17.2,-722.0238037109375,9.423629760742188,,,C,,
Raw,1727326415447,2889178017000000,18,,-1408472455430039053,-0.04893851280212402,59.79224806651473,-15.66957813701911,16.752404269723744,168,10,0.0,23567,363233365955232,505,24.3,-343.4610595703125,3.3470001220703125,16,0.0,0.0,1575420030,,,,0,,6,-1.19,20.0,-722.0238037109375,9.423629760742188,,,C,,
Raw,1727326415447,2889178017000000,18,,-1408472455430039053,-0.04893851280212402,59.79224806651473,-15.66957813701911,16.752404269723744,168,12,0.0,23567,363233367781783,666,22.2,-133.87159729003906,3.494000196456909,16,0.0,0.0,1575420030,,,,0,,6,-1.19,17.9,-722.0238037109375,9.423629760742188,,,C,,
Raw,1727326415447,2889178017000000,18,,-1408472455430039053,-0.04893851280212402,59.79224806651473,-15.66957813701911,16.752404269723744,168,33,0.0,23567,363233362232789,21,30.8,338.58953857421875,0.7515000104904175,16,0.0,0.0,1575420030,,,,0,,6,-1.19,26.5,-722.0238037109375,9.423629760742188,,,C,,
Raw,1727326416447,2889179017000000,18,,-1408472455430039052,-0.3076057434082031,56.595967180328444,-11.580770805907408,16.96822543344169,168,8,0.0,16399,363234364623639,773,21.7,-199.6370849609375,4.097499847412109,16,0.0,0.0,1575420030,,,,0,,1,0.06,18.099999999999998,0.0,0.0,,,C,,
Raw,1727326416447,2889179017000000,18,,-1408472455430039052,-0.3076057434082031,56.595967180328444,-11.580770805907408,16.96822543344169,168,10,0.0,16399,363234371652199,674,22.2,-169.6943817138672,4.0279998779296875,16,0.0,0.0,1575420030,,,,0,,1,0.06,18.599999999999998,0.0,0.0,,,C,,
Raw,1727326416447,2889179017000000,18,,-1408472455430039052,-0.3076057434082031,56.595967180328444,-11.580770805907408,16.96822543344169,168,18,0.0,16399,363234374587345,13,34.9,392.2525939941406,0.20000000298023224,16,0.0,1902.9177342976868,1575420030,,,,0,,1,0.06,31.299999999999997,0.0,0.0,,,C,,
Raw,1727326416447,2889179017000000,18,,-1408472455430039052,-0.3076057434082031,56.595967180328444,-11.580770805907408,16.96822543344169,168,23,0.0,16399,363234372297452,24,29.5,4.124213695526123,0.20000000298023224,16,0.0,1902.9177342976868,1575420030,,,,0,,1,0.06,25.9,0.0,0.0,,,C,,
Raw,1727326416447,2889179017000000,18,,-1408472455430039052,-0.3076057434082031,56.595967180328444,-11.580770805907408,16.96822543344169,168,27,0.0,16399,363234370307218,61,21.7,58.42015838623047,1.091499924659729,16,0.0,0.0,1575420030,,,,0,,1,0.06,18.099999999999998,0.0,0.0,,,C,,
Raw,1727326416447,2889179017000000,18,,-1408472455430039052,-0.3076057434082031,56.595967180328444,-11.580770805907408,16.96822543344169,168,28,0.0,16399,363234373910069,24,29.1,-538.7593994140625,0.5960000157356262,16,0.0,0.0,1575420030,,,,0,,1,0.06,25.5,0.0,0.0,,,C,,
Raw,1727326416447,2889179017000000,18,,-1408472455430039052,-0.3076057434082031,56.595967180328444,-11.580770805907408,16.96822543344169,168,31,0.0,16399,363234364635070,1171,18.8,-694.72412109375,4.377500057220459,16,0.0,0.0,1575420030,,,,0,,1,0.06,15.200000000000001,0.0,0.0,,,C,,
Raw,1727326416447,2889179017000000,18,,-1408472455430039052,-0.3076057434082031,56.595967180328444,-11.580770805907408,16.96822543344169,168,32,0.0,16399,363234376067401,35,26.1,140.2178955078125,0.750499963760376,16,0.0,0.0,1575420030,,,,0,,1,0.06,22.5,0.0,0.0,,,C,,
Raw,1727326416447,2889179017000000,18,,-1408472455430039052,-0.3076057434082031,56.595967180328444,-11.580770805907408,16.96822543344169,168,195,0.0,16399,363234322670650,24,28.6,-19.303726196289062,0.20000000298023224,16,0.0,1902.9177342976868,1575420030,,,,0,,4,0.06,25.0,0.0,0.0,,,C,,
Raw,1727326416447,2889179017000000,18,,-1408472455430039052,-0.3076057434082031,56.595967180328444,-11.580770805907408,16.96822543344169,168,196,0.0,16399,363234308211252,31,26.8,-141.064697265625,0.7384999990463257,16,0.0,0.0,1575420030,,,,0,,4,0.06,23.2,0.0,0.0,,,C,,
Raw,1727326416447,2889179017000000,18,,-1408472455430039052,-0.3076057434082031,56.595967180328444,-11.580770805907408,16.96822543344169,168,2,0.0,49359,28416374142063,893,20.8,357.3709716796875,4.6875,16,0.0,0.0,1599750020,,,,0,,3,-4.33,16.8,3819.244384765625,7.45947790145874,,,C,,
Raw,1727326416447,2889179017000000,18,,-1408472455430039052,-0.3076057434082031,56.595967180328444,-11.580770805907408,16.96822543344169,168,18,0.0,49359,28416370694859,1183,18.3,-737.7763061523438,5.246500015258789,16,0.0,0.0,1600312450,,,,0,,3,-4.33,14.3,3819.244384765625,7.45947790145874,,,C,,
Raw,1727326416447,2889179017000000,18,,-1408472455430039052,-0.3076057434082031,56.595967180328444,-11.580770805907408,16.96822543344169,168,12,0.0,49359,28416370736023,24,29.1,-222.4624481201172,0.2483000010251999,16,0.0,1872.002391714177,1601437440,,,,0,,3,-4.33,25.1,3819.244384765625,7.45947790145874,,,C,,
Raw,1727326416447,2889179017000000,18,,-1408472455430039052,-0.3076057434082031,56.595967180328444,-11.580770805907408,16.96822543344169,168,24,0.0,49359,28416379840000,24,29.2,521.6849975585938,0.23180000483989716,16,0.0,1870.0318021494788,1603124990,,,,0,,3,-4.33,25.2,3819.244384765625,7.45947790145874,,,C,,
Raw,1727326416447,2889179017000000,18,,-1408472455430039052,-0.3076057434082031,56.595967180328444,-11.580770805907408,16.96822543344169,168,17,0.0,49359,28416381844677,27,28.5,-264.7442626953125,0.8180000185966492,16,0.0,0.0,1604249980,,,,0,,3,-4.33,24.5,3819.244384765625,7.45947790145874,,,C,,
Raw,1727326416447,2889179017000000,18,,-1408472455430039052,-0.3076057434082031,56.595967180328444,-11.580770805907408,16.96822543344169,168,3,0.0,49359,28416374667894,70,21.3,55.13650131225586,2.047499895095825,16,0.0,0.0,1604812540,,,,0,,3,-4.33,17.3,3819.244384765625,7.45947790145874,,,C,,
Raw,1727326416447,2889179017000000,18,,-1408472455430039052,-0.3076057434082031,56.595967180328444,-11.580770805907408,16.96822543344169,168,28,0.0,16399,363220370754096,31,28.0,-243.33323669433594,0.8684999942779541,16,0.0,0.0,1561097980,,,,0,,5,0.31,23.7,-1498.20166015625,9.218952178955078,,,I,,
Raw,1727326416447,2889179017000000,18,,-1408472455430039052,-0.3076057434082031,56.595967180328444,-11.580770805907408,16.96822543344169,168,25,0.0,16399,363220367090019,40,25.9,-418.06036376953125,0.796999990940094,16,0.0,0.0,1561097980,,,,0,,5,0.31,21.599999999999998,-1498.20166015625,9.218952178955078,,,I,,
Raw,1727326416447,2889179017000000,18,,-1408472455430039052,-0.3076057434082031,56.595967180328444,-11.580770805907408,16.96822543344169,168,24,0.0,16399,363220366792707,19,31.3,-112.01663208007812,0.7545000314712524,16,0.0,0.0,1561097980,,,,0,,5,0.31,27.0,-1498.20166015625,9.218952178955078,,,I,,
Raw,1727326416447,2889179017000000,18,,-1408472455430039052,-0.3076057434082031,56.595967180328444,-11.580770805907408,16.96822543344169,168,16,0.0,16399,363220323392842,31,27.7,-37.04441833496094,0.6589999794960022,16,0.0,0.0,1561097980,,,,0,,5,0.31,23.4,-1498.20166015625,9.218952178955078,,,I,,
Raw,1727326416447,2889179017000000,18,,-1408472455430039052,-0.3076057434082031,56.595967180328444,-11.580770805907408,16.96822543344169,168,14,0.0,16399,363220365960897,500,24.7,231.48440551757812,2.938999891281128,16,0.0,0.0,1561097980,,,,0,,5,0.31,20.4,-1498.20166015625,9.218952178955078,,,I,,
Raw,1727326416447,2889179017000000,18,,-1408472455430039052,-0.3076057434082031,56.595967180328444,-11.580770805907408,16.96822543344169,168,13,0.0,16399,363220321747458,31,27.9,-171.6160888671875,0.6679999828338623,16,0.0,0.0,1561097980,,,,0,,5,0.31,23.599999999999998,-1498.20166015625,9.218952178955078,,,I,,
Raw,1727326416447,2889179017000000,18,,-1408472455430039052,-0.3076057434082031,56.595967180328444,-11.580770805907408,16.96822543344169,168,11,0.0,16399,363220368772599,35,27.0,547.4757690429688,0.6784999966621399,16,0.0,0.0,1561097980,,,,0,,5,0.31,22.7,-1498.20166015625,9.218952178955078,,,I,,
Raw,1727326416447,2889179017000000,18,,-1408472455430039052,-0.3076057434082031,56.595967180328444,-11.580770805907408,16.96822543344169,168,9,0.0,16399,363220324619114,40,26.2,-115.80941009521484,0.7324999570846558,16,0.0,0.0,1561097980,,,,0,,5,0.31,21.9,-1498.20166015625,9.218952178955078,,,I,,
Raw,1727326416447,2889179017000000,18,,-1408472455430039052,-0.3076057434082031,56.595967180328444,-11.580770805907408,16.96822543344169,168,8,0.0,16399,363220319343886,661,22.7,-176.37867736816406,3.1100001335144043,16,0.0,0.0,1561097980,,,,0,,5,0.31,18.4,-1498.20166015625,9.218952178955078,,,I,,
Raw,1727326416447,2889179017000000,18,,-1408472455430039052,-0.3076057434082031,56.595967180328444,-11.580770805907408,16.96822543344169,168,6,0.0,16399,363220325705379,40,25.4,-83.56597900390625,2.878999948501587,16,0.0,0.0,1561097980,,,,0,,5,0.31,21.099999999999998,-1498.20166015625,9.218952178955078,,,I,,
Raw,1727326416447,2889179017000000,18,,-1408472455430039052,-0.3076057434082031,56.595967180328444,-11.580770805907408,16.96822543344169,168,3,0.0,16399,363220324117676,526,24.8,-6.039642333984375,8.209799766540527,16,0.0,0.0,1561097980,,,,0,,5,0.31,20.5,-1498.20166015625,9.218952178955078,,,I,,
Raw,1727326416447,2889179017000000,18,,-1408472455430039052,-0.3076057434082031,56.595967180328444,-11.580770805907408,16.96822543344169,168,2,0.0,16399,363220327937561,456,25.3,0.9986054301261902,7.237199783325195,16,0.0,0.0,1561097980,,,,0,,5,0.31,21.0,-1498.20166015625,9.218952178955078,,,I,,
Raw,1727326416447,2889179017000000,18,,-1408472455430039052,-0.3076057434082031,56.595967180328444,-11.580770805907408,16.96822543344169,168,4,0.0,23567,363234367688869,591,23.4,121.61669158935547,4.164000034332275,16,0.0,0.0,1575420030,,,,0,,6,-1.25,19.099999999999998,-722.0936889648438,9.341606140136719,,,C,,
Raw,1727326416447,2889179017000000,18,,-1408472455430039052,-0.3076057434082031,56.595967180328444,-11.580770805907408,16.96822543344169,168,6,0.0,23567,363234365560703,591,23.7,-90.41803741455078,4.1670002937316895,16,0.0,0.0,1575420030,,,,0,,6,-1.25,19.4,-722.0936889648438,9.341606140136719,,,C,,
Raw,1727326416447,2889179017000000,18,,-1408472455430039052,-0.3076057434082031,56.595967180328444,-11.580770805907408,16.96822543344169,168,9,0.0,23567,363234360225499,891,20.9,-244.04212951660156,4.415500164031982,16,0.0,0.0,1575420030,,,,0,,6,-1.25,16.599999999999998,-722.0936889648438,9.341606140136719,,,C,,
Raw,1727326416447,2889179017000000,18,,-1408472455430039052,-0.3076057434082031,56.595967180328444,-11.580770805907408,16.96822543344169,168,10,0.0,23567,363234365956374,46,24.6,-343.1090087890625,4.4720001220703125,16,0.0,0.0,1575420030,,,,0,,6,-1.25,20.3,-722.0936889648438,9.341606140136719,,,C,,
Raw,1727326416447,2889179017000000,18,,-1408472455430039052,-0.3076057434082031,56.595967180328444,-11.580770805907408,16.96822543344169,168,12,0.0,23567,363234367782232,777,21.7,-133.8240203857422,4.324000358581543,16,0.0,0.0,1575420030,,,,0,,6,-1.25,17.4,-722.0936889648438,9.341606140136719,,,C,,
Raw,1727326416447,2889179017000000,18,,-1408472455430039052,-0.3076057434082031,56.595967180328444,-11.580770805907408,16.96822543344169,168,33,0.0,23567,363234362231663,17,32.8,338.0704650878906,0.20000000298023224,16,0.0,1902.9177342976868,1575420030,,,,0,,6,-1.25,28.499999999999996,-722.0936889648438,9.341606140136719,,,C,,
Fix,FLP,12.9368397000,77.5430465000,796.7999877929688,0.73809886,12.524,278.5442,1727326411727,1.5,45.0,657982837000000,1.0644104,,,,
Raw,1727326417447,2889180017000000,18,,-1408472455430039069,-0.3545341491699219,54.73637429531664,-11.557587634303438,19.330111146311978,168,18,0.0,16399,363235374586090,27,27.8,391.1581726074219,0.6875,16,0.0,0.0,1575420030,,,,0,,1,0.46,24.2,0.0,0.0,,,C,,
Raw,1727326417447,2889180017000000,18,,-1408472455430039069,-0.3545341491699219,54.73637429531664,-11.557587634303438,19.330111146311978,168,23,0.0,16399,363235372297408,31,27.3,3.415771484375,0.684499979019165,16,0.0,0.0,1575420030,,,,0,,1,0.46,23.7,0.0,0.0,,,C,,
Raw,1727326417447,2889180017000000,18,,-1408472455430039069,-0.3545341491699219,54.73637429531664,-11.557587634303438,19.330111146311978,168,28,0.0,16399,363235373911815,19,30.6,-539.9110107421875,0.20000000298023224,16,0.0,1902.9177342976868,1575420030,,,,0,,1,0.46,27.0,0.0,0.0,,,C,,
Raw,1727326417447,2889180017000000,18,,-1408472455430039069,-0.3545341491699219,54.73637429531664,-11.557587634303438,19.330111146311978,168,32,0.0,16399,363235376066916,27,28.3,139.15225219726562,0.640500009059906,16,0.0,0.0,1575420030,,,,0,,1,0.46,24.7,0.0,0.0,,,C,,
Raw,1727326417447,2889180017000000,18,,-1408472455430039069,-0.3545341491699219,54.73637429531664,-11.557587634303438,19.330111146311978,168,195,0.0,16399,363235322670741,53,22.8,-18.829559326171875,0.999500036239624,16,0.0,0.0,1575420030,,,,0,,4,0.46,19.2,0.0,0.0,,,C,,
Raw,1727326417447,2889180017000000,18,,-1408472455430039069,-0.3545341491699219,54.73637429531664,-11.557587634303438,19.330111146311978,168,196,0.0,16399,363235308211684,46,23.8,-141.66412353515625,0.9284999966621399,16,0.0,0.0,1575420030,,,,0,,4,0.46,20.2,0.0,0.0,,,C,,
Raw,1727326417447,2889180017000000,18,,-1408472455430039069,-0.3545341491699219,54.73637429531664,-11.557587634303438,19.330111146311978,168,12,0.0,49359,28417370736748,17,32.6,-223.06768798828125,0.240200012922287,16,0.0,1872.002391714177,1601437440,,,,0,,3,-3.72,28.6,3819.434326171875,7.4265828132629395,,,C,,
Raw,1727326417447,2889180017000000,18,,-1408472455430039069,-0.3545341491699219,54.73637429531664,-11.557587634303438,19.330111146311978,168,24,0.0,49359,28417379838365,21,30.3,520.2271118164062,0.22519999742507935,16,0.0,1870.0318021494788,1603124990,,,,0,,3,-3.72,26.3,3819.434326171875,7.4265828132629395,,,C,,
Raw,1727326417447,2889180017000000,18,,-1408472455430039069,-0.3545341491699219,54.73637429531664,-11.557587634303438,19.330111146311978,168,17,0.0,49359,28417381845495,40,25.2,-265.61322021484375,0.9879999756813049,16,0.0,0.0,1604249980,,,,0,,3,-3.72,21.2,3819.434326171875,7.4265828132629395,,,C,,
Raw,1727326417447,2889180017000000,18,,-1408472455430039069,-0.3545341491699219,54.73637429531664,-11.557587634303438,19.330111146311978,168,3,0.0,49359,28417374667659,35,26.7,54.865631103515625,0.9474999904632568,16,0.0,0.0,1604812540,,,,0,,3,-3.72,22.7,3819.434326171875,7.4265828132629395,,,C,,
Raw,1727326417447,2889180017000000,18,,-1408472455430039069,-0.3545341491699219,54.73637429531664,-11.557587634303438,19.330111146311978,168,28,0.0,16399,363221370754918,35,27.0,-243.6981201171875,0.6814999580383301,16,0.0,0.0,1561097980,,,,0,,5,0.55,22.7,-1498.6468505859375,9.114980697631836,,,I,,
Raw,1727326417447,2889180017000000,18,,-1408472455430039069,-0.3545341491699219,54.73637429531664,-11.557587634303438,19.330111146311978,168,25,0.0,16399,363221367091437,31,27.5,-418.87652587890625,0.6769999861717224,16,0.0,0.0,1561097980,,,,0,,5,0.55,23.2,-1498.6468505859375,9.114980697631836,,,I,,
Raw,1727326417447,2889180017000000,18,,-1408472455430039069,-0.3545341491699219,54.73637429531664,-11.557587634303438,19.330111146311978,168,24,0.0,16399,363221366793077,19,31.9,-112.57787322998047,0.20000000298023224,16,0.0,1920.3757538518662,1561097980,,,,0,,5,0.55,27.599999999999998,-1498.6468505859375,9.114980697631836,,,I,,
Raw,1727326417447,2889180017000000,18,,-1408472455430039069,-0.3545341491699219,54.73637429531664,-11.557587634303438,19.330111146311978,168,16,0.0,16399,363221323392963,24,29.7,-37.6511116027832,0.20000000298023224,16,0.0,1920.3757538518662,1561097980,,,,0,,5,0.55,25.4,-1498.6468505859375,9.114980697631836,,,I,,
Raw,1727326417447,2889180017000000,18,,-1408472455430039069,-0.3545341491699219,54.73637429531664,-11.557587634303438,19.330111146311978,168,13,0.0,16399,363221321747992,35,26.8,-171.93295288085938,0.7279999852180481,16,0.0,0.0,1561097980,,,,0,,5,0.55,22.5,-1498.6468505859375,9.114980697631836,,,I,,
Raw,1727326417447,2889180017000000,18,,-1408472455430039069,-0.3545341491699219,54.73637429531664,-11.557587634303438,19.330111146311978,168,11,0.0,16399,363221368770785,40,25.4,546.3619384765625,0.7985000014305115,16,0.0,0.0,1561097980,,,,0,,5,0.55,21.099999999999998,-1498.6468505859375,9.114980697631836,,,I,,
Raw,1727326417447,2889180017000000,18,,-1408472455430039069,-0.3545341491699219,54.73637429531664,-11.557587634303438,19.330111146311978,168,6,0.0,16399,363221325705680,53,24.0,-83.412353515625,0.8359999656677246,16,0.0,0.0,1561097980,,,,0,,5,0.55,19.7,-1498.6468505859375,9.114980697631836,,,I,,
Raw,1727326417447,2889180017000000,18,,-1408472455430039069,-0.3545341491699219,54.73637429531664,-11.557587634303438,19.330111146311978,168,10,0.0,23567,363235365957523,80,20.7,-342.2241516113281,1.687000036239624,16,0.0,0.0,1575420030,,,,0,,6,-0.87,16.4,-722.07568359375,9.244423866271973,,,C,,
Raw,1727326417447,2889180017000000,18,,-1408472455430039069,-0.3545341491699219,54.73637429531664,-11.557587634303438,19.330111146311978,168,33,0.0,23567,363235362230545,46,24.5,336.67706298828125,0.8884999752044678,16,0.0,0.0,1575420030,,,,0,,6,-0.87,20.2,-722.07568359375,9.244423866271973,,,C,,
Raw,1727326418447,2889181017000000,18,,-1408472455430039071,-0.8802809715270996,46.436274715233594,-12.588900379560798,13.789656811425301,168,18,0.0,16399,363236374584733,40,25.0,393.80322265625,0.8075000047683716,16,0.0,0.0,1575420030,,,,0,,1,0.46,21.4,0.0,0.0,,,C,,
Raw,1727326418447,2889181017000000,18,,-1408472455430039071,-0.8802809715270996,46.436274715233594,-12.588900379560798,13.789656811425301,168,23,0.0,16399,363236372297426,27,28.5,5.432884693145752,0.6345000267028809,16,0.0,0.0,1575420030,,,,0,,1,0.46,24.9,0.0,0.0,,,C,,
Raw,1727326418447,2889181017000000,18,,-1408472455430039071,-0.8802809715270996,46.436274715233594,-12.588900379560798,13.789656811425301,168,27,0.0,16399,363236370306669,80,20.4,60.713199615478516,1.93149995803833,16,0.0,0.0,1575420030,,,,0,,1,0.46,16.799999999999997,0.0,0.0,,,C,,
Raw,1727326418447,2889181017000000,18,,-1408472455430039071,-0.8802809715270996,46.436274715233594,-12.588900379560798,13.789656811425301,168,28,0.0,16399,363236373913609,21,30.2,-538.08544921875,0.20000000298023224,16,0.0,1902.9177342976868,1575420030,,,,0,,1,0.46,26.599999999999998,0.0,0.0,,,C,,
Raw,1727326418447,2889181017000000,18,,-1408472455430039071,-0.8802809715270996,46.436274715233594,-12.588900379560798,13.789656811425301,168,32,0.0,16399,363236376066453,19,31.4,141.85552978515625,0.20000000298023224,16,0.0,1902.9177342976868,1575420030,,,,0,,1,0.46,27.799999999999997,0.0,0.0,,,C,,
Raw,1727326418447,2889181017000000,18,,-1408472455430039071,-0.8802809715270996,46.436274715233594,-12.588900379560798,13.789656811425301,168,195,0.0,16399,363236322670884,70,21.4,-17.097885131835938,1.0794999599456787,16,0.0,0.0,1575420030,,,,0,,4,0.46,17.799999999999997,0.0,0.0,,,C,,
Raw,1727326418447,2889181017000000,18,,-1408472455430039071,-0.8802809715270996,46.436274715233594,-12.588900379560798,13.789656811425301,168,196,0.0,16399,363236308212279,46,23.9,-139.85633850097656,0.9284999966621399,16,0.0,0.0,1575420030,,,,0,,4,0.46,20.299999999999997,0.0,0.0,,,C,,
Raw,1727326418447,2889181017000000,18,,-1408472455430039071,-0.8802809715270996,46.436274715233594,-12.588900379560798,13.789656811425301,168,12,0.0,49359,28418370737449,31,27.3,-220.99208068847656,0.8814999461174011,16,0.0,0.0,1601437440,,,,0,,3,-3.06,23.3,3819.3876953125,7.399163722991943,,,C,,
Raw,1727326418447,2889181017000000,18,,-1408472455430039071,-0.8802809715270996,46.436274715233594,-12.588900379560798,13.789656811425301,168,24,0.0,49359,28418379836569,21,30.8,522.3339233398438,0.22519999742507935,16,0.0,1870.0318021494788,1603124990,,,,0,,3,-3.06,26.8,3819.3876953125,7.399163722991943,,,C,,
Raw,1727326418447,2889181017000000,18,,-1408472455430039071,-0.8802809715270996,46.436274715233594,-12.588900379560798,13.789656811425301,168,17,0.0,49359,28418381846521,40,25.8,-262.4830627441406,0.9879999756813049,16,0.0,0.0,1604249980,,,,0,,3,-3.06,21.8,3819.3876953125,7.399163722991943,,,C,,
Raw,1727326418447,2889181017000000,18,,-1408472455430039071,-0.8802809715270996,46.436274715233594,-12.588900379560798,13.789656811425301,168,3,0.0,49359,28418374667503,40,25.2,55.90241622924805,1.0075000524520874,16,0.0,0.0,1604812540,,,,0,,3,-3.06,21.2,3819.3876953125,7.399163722991943,,,C,,
Raw,1727326418447,2889181017000000,18,,-1408472455430039071,-0.8802809715270996,46.436274715233594,-12.588900379560798,13.789656811425301,168,28,0.0,16399,363222370755751,24,29.6,-241.44940185546875,0.20000000298023224,16,0.0,1920.3757538518662,1561097980,,,,0,,5,0.62,25.3,-1499.0557861328125,9.032501220703125,,,I,,
Raw,1727326418447,2889181017000000,18,,-1408472455430039071,-0.8802809715270996,46.436274715233594,-12.588900379560798,13.789656811425301,168,25,0.0,16399,363222367092817,53,23.9,-416.3128356933594,0.9269999861717224,16,0.0,0.0,1561097980,,,,0,,5,0.62,19.599999999999998,-1499.0557861328125,9.032501220703125,,,I,,
Raw,1727326418447,2889181017000000,18,,-1408472455430039071,-0.8802809715270996,46.436274715233594,-12.588900379560798,13.789656811425301,168,24,0.0,16399,363222366793453,14,35.2,-110.50682830810547,0.20000000298023224,16,0.0,1920.3757538518662,1561097980,,,,0,,5,0.62,30.900000000000002,-1499.0557861328125,9.032501220703125,,,I,,
Raw,1727326418447,2889181017000000,18,,-1408472455430039071,-0.8802809715270996,46.436274715233594,-12.588900379560798,13.789656811425301,168,16,0.0,16399,363222323393090,24,29.7,-35.61213302612305,0.20000000298023224,16,0.0,1920.3757538518662,1561097980,,,,0,,5,0.62,25.4,-1499.0557861328125,9.032501220703125,,,I,,
Raw,1727326418447,2889181017000000,18,,-1408472455430039071,-0.8802809715270996,46.436274715233594,-12.588900379560798,13.789656811425301,168,13,0.0,16399,363222321748573,46,24.6,-171.0975799560547,0.8479999899864197,16,0.0,0.0,1561097980,,,,0,,5,0.62,20.3,-1499.0557861328125,9.032501220703125,,,I,,
Raw,1727326418447,2889181017000000,18,,-1408472455430039071,-0.8802809715270996,46.436274715233594,-12.588900379560798,13.789656811425301,168,11,0.0,16399,363222368768961,53,24.2,549.1561279296875,0.8585000038146973,16,0.0,0.0,1561097980,,,,0,,5,0.62,19.9,-1499.0557861328125,9.032501220703125,,,I,,
Raw,1727326418447,2889181017000000,18,,-1408472455430039071,-0.8802809715270996,46.436274715233594,-12.588900379560798,13.789656811425301,168,9,0.0,16399,363222324619877,70,21.8,-116.00144958496094,1.8324999809265137,16,0.0,0.0,1561097980,,,,0,,5,0.62,17.5,-1499.0557861328125,9.032501220703125,,,I,,
Raw,1727326418447,2889181017000000,18,,-1408472455430039071,-0.8802809715270996,46.436274715233594,-12.588900379560798,13.789656811425301,168,8,0.0,16399,363222319345051,53,24.1,-175.1304168701172,0.875,16,0.0,0.0,1561097980,,,,0,,5,0.62,19.8,-1499.0557861328125,9.032501220703125,,,I,,
Raw,1727326418447,2889181017000000,18,,-1408472455430039071,-0.8802809715270996,46.436274715233594,-12.588900379560798,13.789656811425301,168,6,0.0,16399,363222325705924,35,26.6,-81.74160766601562,0.7339999675750732,16,0.0,0.0,1561097980,,,,0,,5,0.62,22.3,-1499.0557861328125,9.032501220703125,,,I,,
Raw,1727326418447,2889181017000000,18,,-1408472455430039071,-0.8802809715270996,46.436274715233594,-12.588900379560798,13.789656811425301,168,4,0.0,23567,363236367688043,27,28.8,125.49867248535156,0.6360000371932983,16,0.0,0.0,1575420030,,,,0,,6,-0.94,24.5,-722.2509155273438,9.181519508361816,,,C,,
Raw,1727326418447,2889181017000000,18,,-1408472455430039071,-0.8802809715270996,46.436274715233594,-12.588900379560798,13.789656811425301,168,10,0.0,23567,363236365958651,61,22.6,-339.61712646484375,1.037000060081482,16,0.0,0.0,1575420030,,,,0,,6,-0.94,18.3,-722.2509155273438,9.181519508361816,,,C,,
Raw,1727326418447,2889181017000000,18,,-1408472455430039071,-0.8802809715270996,46.436274715233594,-12.588900379560798,13.789656811425301,168,10,0.0,81935,363236365965719,8,28.4,-339.0337219238281,0.14140000939369202,16,0.0,2548.2550006752426,1176450050,,,,0,,6,0.0,23.099999999999998,-7824.25390625,194.02549743652344,,,Q,,
Raw,1727326418447,2889181017000000,18,,-1408472455430039071,-0.8802809715270996,46.436274715233594,-12.588900379560798,13.789656811425301,168,33,0.0,81935,363236362236452,11,24.6,339.63482666015625,0.8854999542236328,16,0.0,0.0,1176450050,,,,0,,6,0.0,19.3,-7824.25390625,194.02549743652344,,,Q,,
Raw,1727326419447,2889182017000000,18,,-1408472455430039072,-0.0032155513763427734,46.39107646653429,-6.521585387007449,15.089380915310809,168,10,0.0,16399,363237371653857,46,24.1,-164.64208984375,0.9319999814033508,16,0.0,0.0,1575420030,,,,0,,1,0.43,20.5,0.0,0.0,,,C,,
Raw,1727326419447,2889182017000000,18,,-1408472455430039072,-0.0032155513763427734,46.39107646653429,-6.521585387007449,15.089380915310809,168,18,0.0,16399,363237374583357,46,23.7,394.46923828125,0.9375,16,0.0,0.0,1575420030,,,,0,,1,0.43,20.099999999999998,0.0,0.0,,,C,,
Raw,1727326419447,2889182017000000,18,,-1408472455430039072,-0.0032155513763427734,46.39107646653429,-6.521585387007449,15.089380915310809,168,23,0.0,16399,363237372297396,31,27.3,6.4224114418029785,0.684499979019165,16,0.0,0.0,1575420030,,,,0,,1,0.43,23.7,0.0,0.0,,,C,,
Raw,1727326419447,2889182017000000,18,,-1408472455430039072,-0.0032155513763427734,46.39107646653429,-6.521585387007449,15.089380915310809,168,28,0.0,16399,363237373915456,17,31.6,-537.55859375,0.20000000298023224,16,0.0,1902.9177342976868,1575420030,,,,0,,1,0.43,28.0,0.0,0.0,,,C,,
Raw,1727326419447,2889182017000000,18,,-1408472455430039072,-0.0032155513763427734,46.39107646653429,-6.521585387007449,15.089380915310809,168,32,0.0,16399,363237376065979,31,27.5,143.2340545654297,0.6904999613761902,16,0.0,0.0,1575420030,,,,0,,1,0.43,23.9,0.0,0.0,,,C,,
Raw,1727326419447,2889182017000000,18,,-1408472455430039072,-0.0032155513763427734,46.39107646653429,-6.521585387007449,15.089380915310809,168,196,0.0,16399,363237308212586,53,23.0,-137.9343719482422,0.9284999966621399,16,0.0,0.0,1575420030,,,,0,,4,0.43,19.4,0.0,0.0,,,C,,
Raw,1727326419447,2889182017000000,18,,-1408472455430039072,-0.0032155513763427734,46.39107646653429,-6.521585387007449,15.089380915310809,168,2,0.0,49359,28419374138422,70,21.0,359.8165588378906,1.9574999809265137,16,0.0,0.0,1599750020,,,,0,,3,-3.9,17.0,3819.2705078125,7.376699924468994,,,C,,
Raw,1727326419447,2889182017000000,18,,-1408472455430039072,-0.0032155513763427734,46.39107646653429,-6.521585387007449,15.089380915310809,168,18,0.0,49359,28419370702022,70,21.0,-734.7695922851562,1.9515000581741333,16,0.0,0.0,1600312450,,,,0,,3,-3.9,17.0,3819.2705078125,7.376699924468994,,,C,,
Raw,1727326419447,2889182017000000,18,,-1408472455430039072,-0.0032155513763427734,46.39107646653429,-6.521585387007449,15.089380915310809,168,12,0.0,49359,28419370738220,27,28.1,-219.74717712402344,0.8314999938011169,16,0.0,0.0,1601437440,,,,0,,3,-3.9,24.1,3819.2705078125,7.376699924468994,,,C,,
Raw,1727326419447,2889182017000000,18,,-1408472455430039072,-0.0032155513763427734,46.39107646653429,-6.521585387007449,15.089380915310809,168,24,0.0,49359,28419379834748,35,26.5,523.7076416015625,0.9249999523162842,16,0.0,0.0,1603124990,,,,0,,3,-3.9,22.5,3819.2705078125,7.376699924468994,,,C,,
Raw,1727326419447,2889182017000000,18,,-1408472455430039072,-0.0032155513763427734,46.39107646653429,-6.521585387007449,15.089380915310809,168,17,0.0,49359,28419381847236,27,28.6,-261.118896484375,0.8180000185966492,16,0.0,0.0,1604249980,,,,0,,3,-3.9,24.6,3819.2705078125,7.376699924468994,,,C,,
