# 
# Header Description:
# 
# Version: v3.1.0.3 Platform: 13 Manufacturer: OPPO Model: CPH2371 GNSS Hardware Model Name: MTK_MNLD_6_0_0_20040301,MNL_VER_22051902ALPS05_6.7o_00
# 
# Raw,utcTimeMillis,TimeNanos,LeapSecond,TimeUncertaintyNanos,FullBiasNanos,BiasNanos,BiasUncertaintyNanos,DriftNanosPerSecond,DriftUncertaintyNanosPerSecond,HardwareClockDiscontinuityCount,Svid,TimeOffsetNanos,State,ReceivedSvTimeNanos,ReceivedSvTimeUncertaintyNanos,Cn0DbHz,PseudorangeRateMetersPerSecond,PseudorangeRateUncertaintyMetersPerSecond,AccumulatedDeltaRangeState,AccumulatedDeltaRangeMeters,AccumulatedDeltaRangeUncertaintyMeters,CarrierFrequencyHz,CarrierCycles,CarrierPhase,CarrierPhaseUncertainty,MultipathIndicator,SnrInDb,ConstellationType,AgcDb,BasebandCn0DbHz,FullInterSignalBiasNanos,FullInterSignalBiasUncertaintyNanos,SatelliteInterSignalBiasNanos,SatelliteInterSignalBiasUncertaintyNanos,CodeType,ChipsetElapsedRealtimeNanos,IsFullTracking
# 
# UncalAccel,utcTimeMillis,elapsedRealtimeNanos,UncalAccelXMps2,UncalAccelYMps2,UncalAccelZMps2,BiasXMps2,BiasYMps2,BiasZMps2
# 
# Accel,utcTimeMillis,elapsedRealtimeNanos,AccelXMps2,AccelYMps2,AccelZMps2
# 
# UncalGyro,utcTimeMillis,elapsedRealtimeNanos,UncalGyroXRadPerSec,UncalGyroYRadPerSec,UncalGyroZRadPerSec,DriftXRadPerSec,DriftYRadPerSec,DriftZRadPerSec
# 
# Gyro,utcTimeMillis,elapsedRealtimeNanos,GyroXRadPerSec,GyroYRadPerSec,GyroZRadPerSec
# 
# UncalMag,utcTimeMillis,elapsedRealtimeNanos,UncalMagXMicroT,UncalMagYMicroT,UncalMagZMicroT,BiasXMicroT,BiasYMicroT,BiasZMicroT
# 
# Mag,utcTimeMillis,elapsedRealtimeNanos,MagXMicroT,MagYMicroT,MagZMicroT
# 
# Pressure,utcTimeMillis,elapsedRealtimeNanos,PressureHpa
# 
# OrientationDeg,utcTimeMillis,elapsedRealtimeNanos,yawDeg,rollDeg,pitchDeg
# 
# Fix,Provider,LatitudeDegrees,LongitudeDegrees,AltitudeMeters,SpeedMps,AccuracyMeters,BearingDegrees,UnixTimeMillis,SpeedAccuracyMps,BearingAccuracyDegrees,elapsedRealtimeNanos,VerticalAccuracyMeters,MockLocation,NumberOfUsedSignals,VerticalSpeedAccuracyMps,SolutionType
# 
# Nav,Svid,Type,Status,MessageId,Sub-messageId,Data(Bytes)
# 
# Status,UnixTimeMillis,SignalCount,SignalIndex,ConstellationType,Svid,CarrierFrequencyHz,Cn0DbHz,AzimuthDegrees,ElevationDegrees,UsedInFix,HasAlmanacData,HasEphemerisData,BasebandCn0DbHz
# 
# Agc,utcTimeMillis,TimeNanos,LeapSecond,TimeUncertaintyNanos,FullBiasNanos,BiasNanos,BiasUncertaintyNanos,DriftNanosPerSecond,DriftUncertaintyNanosPerSecond,HardwareClockDiscontinuityCount,AgcDb,CarrierFrequencyHz,ConstellationType
# 
Raw,1730973588136,644977000000,18,707059.0439936952,-1415008161159000064,0.0,140.18106683997226,-3354.429223370617,0.0,0,9,0.0,47,381606067621347,74,30.08099937438965,-1307.0472370592538,0.14999,21,-4997.850222066441,0.0006249999860301614,1575420030,,,,0,11.639738523309111,1,6.0,30.08099937438965,0.0,0.0,0.0,66.7128,C,,
Raw,1730973588136,644977000000,18,707059.0439936952,-1415008161159000064,0.0,140.18106683997226,-3354.429223370617,0.0,0,8,0.0,47,381606066858411,316,25.46299934387207,-941.5909330381343,0.14999,17,-3731.996489586062,0.002025000052526593,1575420030,,,,0,5.7047145696149855,1,6.0,25.46299934387207,0.0,0.0,0.0,66.7128,C,,
Raw,1730973588136,644977000000,18,707059.0439936952,-1415008161159000064,0.0,140.18106683997226,-3354.429223370617,0.0,0,7,0.0,47,381606058086101,51,37.49800109863281,-1221.4293934921825,0.14999,21,-4739.678134729199,0.00022499999613501132,1575420030,,,,0,20.112405066418834,1,6.0,37.49800109863281,0.0,0.0,0.0,66.7128,C,,
Raw,1730973588136,644977000000,18,707059.0439936952,-1415008161159000064,0.0,140.18106683997226,-3354.429223370617,0.0,0,4,0.0,47,381606068527769,487,20.677000045776367,-959.3422292880188,0.14999,16,-3784.305762588115,0.009999999776482582,1575420030,,,,0,0.0,1,6.0,20.677000045776367,0.0,0.0,0.0,66.7128,C,,
Raw,1730973588136,644977000000,18,707059.0439936952,-1415008161159000064,0.0,140.18106683997226,-3354.429223370617,0.0,0,11,0.0,17,86521,396,0.0,-898.3056345300863,0.14999,17,-3526.1255037792776,0.004900000058114529,1602000000,,,,0,4.425973230706705,3,6.0,23.0,0.0,0.0,-25.752491048805044,66.7128,C,,
Raw,1730973588136,644977000000,18,707059.0439936952,-1415008161159000064,0.0,140.18106683997226,-3354.429223370617,0.0,0,30,0.0,47,381606052789433,797,18.235000610351562,-1283.1423377486185,0.14999,16,-4485.904326631279,0.02250000089406967,1575420030,,,,0,0.0,1,6.0,18.235000610351562,0.0,0.0,0.0,66.7128,C,,
Raw,1730973588136,644977000000,18,707059.0439936952,-1415008161159000064,0.0,140.18106683997226,-3354.429223370617,0.0,0,3,0.0,47,381606058298572,797,14.800000190734863,-468.67208460616445,0.14999,16,-2562.0912508984848,0.02250000089406967,1575420030,,,,0,0.0,1,6.0,14.800000190734863,0.0,0.0,0.0,66.7128,C,,
Raw,1730973590001,646842000000,18,707024.4367188183,-1415008161159000064,0.0,121.52750412021602,-3353.274171159862,0.0,0,9,0.0,47,381607932629482,58,33.41999816894531,-1306.6804943216878,0.14999,17,-7444.839360890688,0.00039999998989515007,1575420030,,,,0,15.569105434689165,1,6.0,33.41999816894531,0.0,0.0,0.0,66.7128,C,,
Raw,1730973590001,646842000000,18,707024.4367188183,-1415008161159000064,0.0,121.52750412021602,-3353.274171159862,0.0,0,8,0.0,47,381607931864293,316,25.312000274658203,-940.9170072525842,0.14999,17,-5497.638886145428,0.002025000052526593,1575420030,,,,0,5.47461132150849,1,6.0,25.312000274658203,0.0,0.0,0.0,66.7128,C,,
Raw,1730973590001,646842000000,18,707024.4367188183,-1415008161159000064,0.0,121.52750412021602,-3353.274171159862,0.0,0,7,0.0,47,381607923093700,74,29.802000045776367,-1221.1438600661525,0.14999,20,-7027.307847175686,0.0006249999860301614,1575420030,,,,0,11.308621919316026,1,6.0,29.802000045776367,0.0,0.0,0.0,66.7128,C,,
Raw,1730973590001,646842000000,18,707024.4367188183,-1415008161159000064,0.0,121.52750412021602,-3353.274171159862,0.0,0,4,0.0,47,381607933533743,396,21.187000274658203,-958.3324091532666,0.14999,16,-5582.573030237639,0.004900000058114529,1575420030,,,,0,0.0,1,6.0,21.187000274658203,0.0,0.0,0.0,66.7128,C,,
Raw,1730973590001,646842000000,18,707024.4367188183,-1415008161159000064,0.0,121.52750412021602,-3353.274171159862,0.0,0,5,0.0,47,381593879339515,235,25.200000762939453,-997.3045654296875,0.14999,16,-5815.8460188699555,0.0008999999845400453,1561097980,,,,0,6.2956937105426745,5,6.0,25.200000762939453,0.0,0.0,13.128382190635385,66.7128,I,,
Raw,1730973590001,646842000000,18,707024.4367188183,-1415008161159000064,0.0,121.52750412021602,-3353.274171159862,0.0,0,11,0.0,17,92111,316,26.5,-897.845377755429,0.14999,20,-5210.673863763219,0.002025000052526593,1602000000,,,,0,4.569586570307389,3,6.0,26.5,0.0,0.0,-26.766107683875536,66.7128,C,,
Raw,1730973590001,646842000000,18,707024.4367188183,-1415008161159000064,0.0,121.52750412021602,-3353.274171159862,0.0,0,7,0.0,17,494670,797,0.0,-529.7833364781893,0.14999,16,-4673.360844521066,0.02250000089406967,1604812540,,,,0,0.0,3,6.0,16.0,0.0,0.0,-26.766107683875536,66.7128,C,,
Raw,1730973590001,646842000000,18,707024.4367188183,-1415008161159000064,0.0,121.52750412021602,-3353.274171159862,0.0,0,8,0.0,17,398103,235,0.0,-1268.3503431770948,0.14999,16,-6761.065398927145,0.0008999999845400453,1605374980,,,,0,7.864387399989065,3,6.0,27.0,0.0,0.0,-26.766107683875536,66.7128,C,,
Raw,1730973590001,646842000000,18,707024.4367188183,-1415008161159000064,0.0,121.52750412021602,-3353.274171159862,0.0,0,30,0.0,47,381607917797412,1797,14.300000190734863,-1282.6460689466576,0.14999,16,-6888.413687058535,0.02250000089406967,1575420030,,,,0,0.0,1,6.0,14.300000190734863,0.0,0.0,0.0,66.7128,C,,
Raw,1730973590001,646842000000,18,707024.4367188183,-1415008161159000064,0.0,121.52750412021602,-3353.274171159862,0.0,0,20,0.0,47,381593925718072,316,23.700000762939453,-1080.860107421875,0.14999,16,-5942.280841343048,0.002025000052526593,1561097980,,,,0,4.393868751804429,5,6.0,23.700000762939453,0.0,0.0,13.128382190635385,66.7128,I,,
Raw,1730973590001,646842000000,18,707024.4367188183,-1415008161159000064,0.0,121.52750412021602,-3353.274171159862,0.0,0,7,0.0,47,381607922702326,235,28.200000762939453,-1085.5459594229517,0.14999,24,-5930.813546750626,0.0008999999845400453,1575420030,,,,0,9.911586313835617,6,6.0,28.200000762939453,0.0,0.0,-3.652137996927265,66.7128,C,,
Raw,1730973590001,646842000000,18,707024.4367188183,-1415008161159000064,0.0,121.52750412021602,-3353.274171159862,0.0,0,27,0.0,47,381607921070567,74,30.100000381469727,-845.4194098110122,0.14999,24,-5568.827648672971,0.0006249999860301614,1575420030,,,,0,12.068528290544688,6,6.0,30.100000381469727,0.0,0.0,-3.652137996927265,66.7128,C,,
Raw,1730973591001,647842000000,18,707006.1428129723,-1415008161159000064,0.0,123.43594414272309,-3354.760702073481,0.0,0,9,0.0,47,381608932633841,235,28.31599998474121,-1307.4028297769291,0.14999,21,-8742.548562768507,0.0008999999845400453,1575420030,,,,0,9.456849134807749,1,6.0,28.31599998474121,0.0,0.0,0.0,66.7128,C,,
Raw,1730973591001,647842000000,18,707006.1428129723,-1415008161159000064,0.0,123.43594414272309,-3354.760702073481,0.0,0,8,0.0,47,381608931867427,235,28.07900047302246,-941.6386922899986,0.14999,17,-6430.047204826257,0.0008999999845400453,1575420030,,,,0,9.156874932500411,1,6.0,28.07900047302246,0.0,0.0,0.0,66.7128,C,,
Raw,1730973591001,647842000000,18,707006.1428129723,-1415008161159000064,0.0,123.43594414272309,-3354.760702073481,0.0,0,7,0.0,47,381608923097776,74,30.54599952697754,-1222.278188756349,0.14999,17,-8239.744777704462,0.0006249999860301614,1575420030,,,,0,12.212845457029857,1,6.0,30.54599952697754,0.0,0.0,0.0,66.7128,C,,
Raw,1730973591001,647842000000,18,707006.1428129723,-1415008161159000064,0.0,123.43594414272309,-3354.760702073481,0.0,0,4,0.0,47,381608933536937,487,23.6560001373291,-958.7901174697728,0.14999,16,-6532.205202769114,0.009999999776482582,1575420030,,,,0,3.123548438719715,1,6.0,23.6560001373291,0.0,0.0,0.0,66.7128,C,,
Raw,1730973591001,647842000000,18,707006.1428129723,-1415008161159000064,0.0,123.43594414272309,-3354.760702073481,0.0,0,5,0.0,47,381594879342843,316,24.899999618530273,-1002.04931640625,0.14999,16,-6804.546532895892,0.002025000052526593,1561097980,,,,0,5.912430524802489,5,6.0,24.899999618530273,0.0,0.0,12.916866580053416,66.7128,I,,
Raw,1730973591001,647842000000,18,707006.1428129723,-1415008161159000064,0.0,123.43594414272309,-3354.760702073481,0.0,0,29,0.0,47,381608914974291,316,24.700000762939453,-1462.7671140147306,0.14999,24,-7101.810400463793,0.002025000052526593,1575420030,,,,0,5.742479366662724,6,6.0,24.700000762939453,0.0,0.0,-2.6210055952418676,66.7128,C,,
Raw,1730973591001,647842000000,18,707006.1428129723,-1415008161159000064,0.0,123.43594414272309,-3354.760702073481,0.0,0,11,0.0,17,95106,396,24.799999237060547,-897.9343771793949,0.14999,16,-6099.734836382156,0.004900000058114529,1602000000,,,,0,4.714503062006895,3,6.0,24.799999237060547,0.0,0.0,-26.627441064022246,66.7128,C,,
Raw,1730973591001,647842000000,18,707006.1428129723,-1415008161159000064,0.0,123.43594414272309,-3354.760702073481,0.0,0,8,0.0,17,402325,487,0.0,-1269.4781866865096,0.14999,17,-8021.282418490555,0.009999999776482582,1605374980,,,,0,5.870580818991105,3,6.0,20.0,0.0,0.0,-26.627441064022246,66.7128,C,,
Raw,1730973591001,647842000000,18,707006.1428129723,-1415008161159000064,0.0,123.43594414272309,-3354.760702073481,0.0,0,30,0.0,47,381608917801691,797,14.300000190734863,-1283.040036316123,0.14999,16,-8162.575112567478,0.02250000089406967,1575420030,,,,0,0.0,1,6.0,14.300000190734863,0.0,0.0,0.0,66.7128,C,,
Raw,1730973591001,647842000000,18,707006.1428129723,-1415008161159000064,0.0,123.43594414272309,-3354.760702073481,0.0,0,20,0.0,47,381594925721674,396,22.399999618530273,-1081.617919921875,0.14999,16,-7014.374415882524,0.004900000058114529,1561097980,,,,0,2.6796264876727784,5,6.0,22.399999618530273,0.0,0.0,12.916866580053416,66.7128,I,,
Raw,1730973591001,647842000000,18,707006.1428129723,-1415008161159000064,0.0,123.43594414272309,-3354.760702073481,0.0,0,7,0.0,47,381608922705951,235,27.799999237060547,-1086.5537353873906,0.14999,25,-7007.615421517838,0.0008999999845400453,1575420030,,,,0,9.505852873465088,6,6.0,27.799999237060547,0.0,0.0,-2.6210055952418676,66.7128,C,,
Raw,1730973591001,647842000000,18,707006.1428129723,-1415008161159000064,0.0,123.43594414272309,-3354.760702073481,0.0,0,27,0.0,47,381608921073388,316,24.700000762939453,-846.4197524288575,0.14999,25,-6405.497201370028,0.002025000052526593,1575420030,,,,0,5.742479366662724,6,6.0,24.700000762939453,0.0,0.0,-2.6210055952418676,66.7128,C,,
Raw,1730973592001,648842000000,18,706973.3597167411,-1415008161159000064,0.0,77.10800971855886,-3384.837682058188,0.0,0,9,0.0,47,381609932638219,235,29.131999969482422,-1314.858569327229,0.14999,20,-10054.849303246885,0.0008999999845400453,1575420030,,,,0,10.475803431999166,1,6.0,29.131999969482422,0.0,0.0,0.0,66.7128,C,,
Raw,1730973592001,648842000000,18,706973.3597167411,-1415008161159000064,0.0,77.10800971855886,-3384.837682058188,0.0,0,8,0.0,47,381609931870585,316,25.858999252319336,-950.7205693244995,0.14999,21,-7377.273686261921,0.002025000052526593,1575420030,,,,0,6.219040083162447,1,6.0,25.858999252319336,0.0,0.0,0.0,66.7128,C,,
Raw,1730973592001,648842000000,18,706973.3597167411,-1415008161159000064,0.0,77.10800971855886,-3384.837682058188,0.0,0,7,0.0,47,381609923101870,74,29.934999465942383,-1230.4547770925712,0.14999,21,-9466.831496976773,0.0006249999860301614,1575420030,,,,0,11.466014939607255,1,6.0,29.934999465942383,0.0,0.0,0.0,66.7128,C,,
Raw,1730973592001,648842000000,18,706973.3597167411,-1415008161159000064,0.0,77.10800971855886,-3384.837682058188,0.0,0,4,0.0,47,381609933540145,396,23.875999450683594,-968.234834734878,0.14999,16,-7496.103379778762,0.004900000058114529,1575420030,,,,0,3.4239549666262126,1,6.0,23.875999450683594,0.0,0.0,0.0,66.7128,C,,
Raw,1730973592001,648842000000,18,706973.3597167411,-1415008161159000064,0.0,77.10800971855886,-3384.837682058188,0.0,0,5,0.0,47,381595879346198,316,25.799999237060547,-1012.4241333007812,0.14999,16,-7812.958215656779,0.002025000052526593,1561097980,,,,0,7.014936651324163,5,6.0,25.799999237060547,0.0,0.0,12.514404211066527,66.7128,I,,
Raw,1730973592001,648842000000,18,706973.3597167411,-1415008161159000064,0.0,77.10800971855886,-3384.837682058188,0.0,0,21,0.0,47,381609914360688,316,25.200000762939453,-1251.8500856763455,0.14999,24,-8160.151327863999,0.002025000052526593,1575420030,,,,0,6.360564837541136,6,6.0,25.200000762939453,0.0,0.0,-6.500832277393456,66.7128,C,,
Raw,1730973592001,648842000000,18,706973.3597167411,-1415008161159000064,0.0,77.10800971855886,-3384.837682058188,0.0,0,29,0.0,47,381609914979183,235,28.399999618530273,-1471.2003386421,0.14999,24,-8569.374383932016,0.0008999999845400453,1575420030,,,,0,10.2095484198889,6,6.0,28.399999618530273,0.0,0.0,-6.500832277393456,66.7128,C,,
Raw,1730973592001,648842000000,18,706973.3597167411,-1415008161159000064,0.0,77.10800971855886,-3384.837682058188,0.0,0,11,0.0,17,98129,396,18.5,-907.5056530132299,0.14999,16,-7002.836363065921,0.004900000058114529,1602000000,,,,0,3.7445525034728155,3,6.0,18.5,0.0,0.0,-26.683705813825938,66.7128,C,,
Raw,1730973592001,648842000000,18,706973.3597167411,-1415008161159000064,0.0,77.10800971855886,-3384.837682058188,0.0,0,8,0.0,17,406575,487,0.0,-1278.867126008801,0.14999,20,-9295.930825632542,0.009999999776482582,1605374980,,,,0,0.0,3,6.0,18.0,0.0,0.0,-26.683705813825938,66.7128,C,,
Raw,1730973592001,648842000000,18,706973.3597167411,-1415008161159000064,0.0,77.10800971855886,-3384.837682058188,0.0,0,30,0.0,47,381609917805986,487,17.128999710083008,-1291.9797505970196,0.14999,16,-9450.222476709909,0.009999999776482582,1575420030,,,,0,0.0,1,6.0,17.128999710083008,0.0,0.0,0.0,66.7128,C,,
Raw,1730973592001,648842000000,18,706973.3597167411,-1415008161159000064,0.0,77.10800971855886,-3384.837682058188,0.0,0,3,0.0,47,381609923304607,487,18.57900047302246,-477.1476328507016,0.14999,16,-4374.268829667962,0.009999999776482582,1575420030,,,,0,0.0,1,6.0,18.57900047302246,0.0,0.0,0.0,66.7128,C,,
Raw,1730973592001,648842000000,18,706973.3597167411,-1415008161159000064,0.0,77.10800971855886,-3384.837682058188,0.0,0,20,0.0,47,381595925725296,396,20.200000762939453,-1090.61962890625,0.14999,16,-8100.910556224613,0.004900000058114529,1561097980,,,,0,0.0,5,6.0,20.200000762939453,0.0,0.0,12.514404211066527,66.7128,I,,
Raw,1730973592001,648842000000,18,706973.3597167411,-1415008161159000064,0.0,77.10800971855886,-3384.837682058188,0.0,0,28,0.0,47,381595919374535,235,24.899999618530273,-1101.86279296875,0.14999,16,-8089.733304682626,0.0008999999845400453,1561097980,,,,0,5.912430524802489,5,6.0,24.899999618530273,0.0,0.0,12.514404211066527,66.7128,I,,
Raw,1730973592001,648842000000,18,706973.3597167411,-1415008161159000064,0.0,77.10800971855886,-3384.837682058188,0.0,0,7,0.0,47,381609922709592,74,29.200000762939453,-1094.9010119447705,0.14999,29,-8098.836674513387,0.0006249999860301614,1575420030,,,,0,11.067052060561519,6,6.0,29.200000762939453,0.0,0.0,-6.500832277393456,66.7128,C,,
Raw,1730973592001,648842000000,18,706973.3597167411,-1415008161159000064,0.0,77.10800971855886,-3384.837682058188,0.0,0,27,0.0,47,381609921076229,235,28.299999237060547,-854.7719535783556,0.14999,29,-7256.636774872744,0.0008999999845400453,1575420030,,,,0,10.096153994281218,6,6.0,28.299999237060547,0.0,0.0,-6.500832277393456,66.7128,C,,
Raw,1730973593001,649842000000,18,706950.6356627557,-1415008161159000064,0.0,77.76205334630669,-3413.110319001339,0.0,0,9,0.0,47,381610932642626,235,28.750999450683594,-1323.4624821757557,0.14999,16,-11375.63760248667,0.0008999999845400453,1575420030,,,,0,10.004360382883773,1,6.0,28.750999450683594,0.0,0.0,0.0,66.7128,C,,
Raw,1730973593001,649842000000,18,706950.6356627557,-1415008161159000064,0.0,77.76205334630669,-3413.110319001339,0.0,0,8,0.0,47,381610931873775,235,27.06399917602539,-958.8086079194246,0.14999,17,-8333.169373059072,0.0008999999845400453,1575420030,,,,0,7.841222883822051,1,6.0,27.06399917602539,0.0,0.0,0.0,66.7128,C,,
Raw,1730973593001,649842000000,18,706950.6356627557,-1415008161159000064,0.0,77.76205334630669,-3413.110319001339,0.0,0,7,0.0,47,381610923105994,235,29.325000762939453,-1239.1150904583776,0.14999,21,-10703.1155521751,0.0008999999845400453,1575420030,,,,0,10.712901989518071,1,6.0,29.325000762939453,0.0,0.0,0.0,66.7128,C,,
Raw,1730973593001,649842000000,18,706950.6356627557,-1415008161159000064,0.0,77.76205334630669,-3413.110319001339,0.0,0,4,0.0,47,381610933543387,316,26.527000427246094,-976.2005018615044,0.14999,16,-8469.022031331215,0.002025000052526593,1575420030,,,,0,7.132406161001149,1,6.0,26.527000427246094,0.0,0.0,0.0,66.7128,C,,
Raw,1730973593001,649842000000,18,706950.6356627557,-1415008161159000064,0.0,77.76205334630669,-3413.110319001339,0.0,0,5,0.0,47,381596879349597,316,25.799999237060547,-1022.9379272460938,0.14999,16,-8832.028428107536,0.002025000052526593,1561097980,,,,0,7.014936651324163,5,6.0,25.799999237060547,0.0,0.0,12.175012474129993,66.7128,I,,
Raw,1730973593001,649842000000,18,706950.6356627557,-1415008161159000064,0.0,77.76205334630669,-3413.110319001339,0.0,0,21,0.0,47,381610914364870,316,23.200000762939453,-1260.1292541955609,0.14999,25,-9417.446466025784,0.002025000052526593,1575420030,,,,0,3.7617821439115477,6,6.0,23.200000762939453,0.0,0.0,-8.371744369310377,66.7128,C,,
Raw,1730973593001,649842000000,18,706950.6356627557,-1415008161159000064,0.0,77.76205334630669,-3413.110319001339,0.0,0,29,0.0,47,381610914984104,316,23.799999237060547,-1479.370887384215,0.14999,25,-10046.016087422768,0.002025000052526593,1575420030,,,,0,4.5745617816919495,6,6.0,23.799999237060547,0.0,0.0,-8.371744369310377,66.7128,C,,
Raw,1730973593001,649842000000,18,706950.6356627557,-1415008161159000064,0.0,77.76205334630669,-3413.110319001339,0.0,0,11,0.0,17,101169,316,22.5,-915.129541040534,0.14999,16,-7915.229578524714,0.002025000052526593,1602000000,,,,0,5.550977996289166,3,6.0,22.5,0.0,0.0,-26.895678947316355,66.7128,C,,
Raw,1730973593001,649842000000,18,706950.6356627557,-1415008161159000064,0.0,77.76205334630669,-3413.110319001339,0.0,0,8,0.0,17,410857,396,0.0,-1286.691910786626,0.14999,16,-10579.746561168005,0.004900000058114529,1605374980,,,,0,2.7768640327210354,3,6.0,22.0,0.0,0.0,-26.895678947316355,66.7128,C,,
Raw,1730973593001,649842000000,18,706950.6356627557,-1415008161159000064,0.0,77.76205334630669,-3413.110319001339,0.0,0,30,0.0,47,381610917810313,797,17.128999710083008,-1300.3890955984566,0.14999,16,-10747.468356816937,0.02250000089406967,1575420030,,,,0,0.0,1,6.0,17.128999710083008,0.0,0.0,0.0,66.7128,C,,
Raw,1730973593001,649842000000,18,706950.6356627557,-1415008161159000064,0.0,77.76205334630669,-3413.110319001339,0.0,0,3,0.0,47,381610923306217,797,17.54599952697754,-486.57162966217686,0.14999,16,-4857.458903452597,0.02250000089406967,1575420030,,,,0,0.0,1,6.0,17.54599952697754,0.0,0.0,0.0,66.7128,C,,
Raw,1730973593001,649842000000,18,706950.6356627557,-1415008161159000064,0.0,77.76205334630669,-3413.110319001339,0.0,0,20,0.0,47,381596925728948,316,24.399999618530273,-1099.1064453125,0.14999,17,-9196.788564881928,0.002025000052526593,1561097980,,,,0,5.327149247241278,5,6.0,24.399999618530273,0.0,0.0,12.175012474129993,66.7128,I,,
Raw,1730973593001,649842000000,18,706950.6356627557,-1415008161159000064,0.0,77.76205334630669,-3413.110319001339,0.0,0,28,0.0,47,381596919378224,316,26.200000762939453,-1114.7730712890625,0.14999,16,-9199.743044492127,0.002025000052526593,1561097980,,,,0,7.499682879358788,5,6.0,26.200000762939453,0.0,0.0,12.175012474129993,66.7128,I,,
Raw,1730973593001,649842000000,18,706950.6356627557,-1415008161159000064,0.0,77.76205334630669,-3413.110319001339,0.0,0,7,0.0,47,381610922713264,74,29.399999618530273,-1102.9880284545388,0.14999,28,-9199.155642072343,0.0006249999860301614,1575420030,,,,0,11.288745732981155,6,6.0,29.399999618530273,0.0,0.0,-8.371744369310377,66.7128,C,,
Raw,1730973593001,649842000000,18,706950.6356627557,-1415008161159000064,0.0,77.76205334630669,-3413.110319001339,0.0,0,27,0.0,47,381610921079100,235,26.899999618530273,-862.9613644374521,0.14999,28,-8116.900451319274,0.0008999999845400453,1575420030,,,,0,8.413811675484089,6,6.0,26.899999618530273,0.0,0.0,-8.371744369310377,66.7128,C,,
Raw,1730973594001,650842000000,18,706923.6899381905,-1415008161159000064,0.0,78.50803120057911,-3427.5919676075077,0.0,0,9,0.0,47,381611932647047,58,33.03900146484375,-1328.370535097902,0.14999,17,-12702.19516598257,0.00039999998989515007,1575420030,,,,0,15.132849993519649,1,6.0,33.03900146484375,0.0,0.0,0.0,66.7128,C,,
Raw,1730973594001,650842000000,18,706923.6899381905,-1415008161159000064,0.0,78.50803120057911,-3427.5919676075077,0.0,0,8,0.0,47,381611931876984,235,27.743000030517578,-962.7785725014475,0.14999,17,-9294.409981649627,0.0008999999845400453,1575420030,,,,0,8.713354794877146,1,6.0,27.743000030517578,0.0,0.0,0.0,66.7128,C,,
Raw,1730973594001,650842000000,18,706923.6899381905,-1415008161159000064,0.0,78.50803120057911,-3427.5919676075077,0.0,0,7,0.0,47,381611923110135,396,22.375999450683594,-1242.7298339900549,0.14999,20,-11944.59773508986,0.004900000058114529,1575420030,,,,0,1.1278466763578752,1,6.0,22.375999450683594,0.0,0.0,0.0,66.7128,C,,
Raw,1730973594001,650842000000,18,706923.6899381905,-1415008161159000064,0.0,78.50803120057911,-3427.5919676075077,0.0,0,4,0.0,47,381611933546650,316,25.738000869750977,-979.9274889267463,0.14999,16,-9447.754866620959,0.002025000052526593,1575420030,,,,0,6.075171127161026,1,6.0,25.738000869750977,0.0,0.0,0.0,66.7128,C,,
Raw,1730973594001,650842000000,18,706923.6899381905,-1415008161159000064,0.0,78.50803120057911,-3427.5919676075077,0.0,0,5,0.0,47,381597879353028,316,21.899999618530273,-1030.197021484375,0.14999,16,-9858.875920549995,0.002025000052526593,1561097980,,,,0,1.955383034583883,5,6.0,21.899999618530273,0.0,0.0,11.937829256619231,66.7128,I,,
Raw,1730973594001,650842000000,18,706923.6899381905,-1415008161159000064,0.0,78.50803120057911,-3427.5919676075077,0.0,0,29,0.0,47,381611914989051,487,18.200000762939453,-1484.8234329443485,0.14999,28,-11528.923954063868,0.009999999776482582,1575420030,,,,0,0.0,6,6.0,18.200000762939453,0.0,0.0,-10.590792203683478,66.7128,C,,
Raw,1730973594001,650842000000,18,706923.6899381905,-1415008161159000064,0.0,78.50803120057911,-3427.5919676075077,0.0,0,11,0.0,17,104236,74,22.420000076293945,-919.4165902953675,0.14999,17,-8833.556743827121,0.0006249999860301614,1602000000,,,,0,11.780168473947434,3,6.0,22.420000076293945,0.0,0.0,-31.767234994764067,66.7128,C,,
Raw,1730973594001,650842000000,18,706923.6899381905,-1415008161159000064,0.0,78.50803120057911,-3427.5919676075077,0.0,0,8,0.0,17,415159,487,0.0,-1290.3707833091298,0.14999,16,-11869.127539184876,0.009999999776482582,1605374980,,,,0,0.6309359324959335,3,6.0,20.0,0.0,0.0,-31.767234994764067,66.7128,C,,
Raw,1730973594001,650842000000,18,706923.6899381905,-1415008161159000064,0.0,78.50803120057911,-3427.5919676075077,0.0,0,30,0.0,47,381611917814671,1797,12.899999618530273,-1304.9784437853984,0.14999,16,-12051.01068805803,0.02250000089406967,1575420030,,,,0,0.0,1,6.0,12.899999618530273,0.0,0.0,0.0,66.7128,C,,
Raw,1730973594001,650842000000,18,706923.6899381905,-1415008161159000064,0.0,78.50803120057911,-3427.5919676075077,0.0,0,3,0.0,47,381611923307834,797,17.038999557495117,-490.45109324942166,0.14999,16,-5346.856957028578,0.02250000089406967,1575420030,,,,0,0.0,1,6.0,17.038999557495117,0.0,0.0,0.0,66.7128,C,,
Raw,1730973594001,650842000000,18,706923.6899381905,-1415008161159000064,0.0,78.50803120057911,-3427.5919676075077,0.0,0,20,0.0,47,381597925732623,487,23.799999237060547,-1102.9901123046875,0.14999,20,-10298.629681648366,0.009999999776482582,1561097980,,,,0,4.598855011922934,5,6.0,23.799999237060547,0.0,0.0,11.937829256619231,66.7128,I,,
Raw,1730973594001,650842000000,18,706923.6899381905,-1415008161159000064,0.0,78.50803120057911,-3427.5919676075077,0.0,0,28,0.0,47,381597919381958,235,26.200000762939453,-1122.6422119140625,0.14999,16,-10319.814884714811,0.0008999999845400453,1561097980,,,,0,7.499682879358788,5,6.0,26.200000762939453,0.0,0.0,11.937829256619231,66.7128,I,,
Raw,1730973594001,650842000000,18,706923.6899381905,-1415008161159000064,0.0,78.50803120057911,-3427.5919676075077,0.0,0,7,0.0,47,381611922716954,74,30.5,-1107.0892845207727,0.14999,24,-10305.206013181853,0.0006249999860301614,1575420030,,,,0,12.494479519278123,6,6.0,30.5,0.0,0.0,-10.590792203683478,66.7128,C,,
Raw,1730973594001,650842000000,18,706923.6899381905,-1415008161159000064,0.0,78.50803120057911,-3427.5919676075077,0.0,0,27,0.0,47,381611921081985,235,28.0,-866.95186363944,0.14999,24,-8982.854508534845,0.0008999999845400453,1575420030,,,,0,9.746808398026971,6,6.0,28.0,0.0,0.0,-10.590792203683478,66.7128,C,,
Fix,FLP,12.9295208000,77.5197701000,750.0,0.2130335,18.092,98.77902,1730973592962,1.5,45.0,2287144103000000,1.2273632,0,,,
Raw,1730973595001,651842000000,18,706906.4384201419,-1415008161159000064,0.0,79.92346200416634,-3438.309204024205,0.0,0,9,0.0,47,381612932651487,58,33.375999450683594,-1331.313582848007,0.14999,21,-14032.207872844972,0.00039999998989515007,1575420030,,,,0,15.514635525204614,1,6.0,33.375999450683594,0.0,0.0,0.0,66.7128,C,,
Raw,1730973595001,651842000000,18,706906.4384201419,-1415008161159000064,0.0,79.92346200416634,-3438.309204024205,0.0,0,8,0.0,47,381612931880203,316,26.156999588012695,-966.067921285986,0.14999,17,-10259.244284218423,0.002025000052526593,1575420030,,,,0,6.615037545673394,1,6.0,26.156999588012695,0.0,0.0,0.0,66.7128,C,,
Raw,1730973595001,651842000000,18,706906.4384201419,-1415008161159000064,0.0,79.92346200416634,-3438.309204024205,0.0,0,7,0.0,47,381612923114288,396,25.610000610351562,-1246.7416111466673,0.14999,17,-13189.67454695849,0.004900000058114529,1575420030,,,,0,5.874615138449634,1,6.0,25.610000610351562,0.0,0.0,0.0,66.7128,C,,
Raw,1730973595001,651842000000,18,706906.4384201419,-1415008161159000064,0.0,79.92346200416634,-3438.309204024205,0.0,0,4,0.0,47,381612933549925,396,24.726999282836914,-983.3873400987775,0.14999,16,-10429.937537403148,0.004900000058114529,1575420030,,,,0,4.651452300162589,1,6.0,24.726999282836914,0.0,0.0,0.0,66.7128,C,,
Raw,1730973595001,651842000000,18,706906.4384201419,-1415008161159000064,0.0,79.92346200416634,-3438.309204024205,0.0,0,5,0.0,47,381598879356475,316,21.899999618530273,-1031.1920166015625,0.14999,16,-10892.446464402608,0.002025000052526593,1561097980,,,,0,1.955383034583883,5,6.0,21.899999618530273,0.0,0.0,7.407372358097625,66.7128,I,,
Raw,1730973595001,651842000000,18,706906.4384201419,-1415008161159000064,0.0,79.92346200416634,-3438.309204024205,0.0,0,21,0.0,47,381612914373311,316,25.799999237060547,-1267.5320311513804,0.14999,25,-11947.364200526652,0.002025000052526593,1575420030,,,,0,7.075760896535618,6,6.0,25.799999237060547,0.0,0.0,-9.027173302659733,66.7128,C,,
Raw,1730973595001,651842000000,18,706906.4384201419,-1415008161159000064,0.0,79.92346200416634,-3438.309204024205,0.0,0,29,0.0,47,381612914994004,487,19.5,-1487.2429872605933,0.14999,24,-13014.771743139345,0.009999999776482582,1575420030,,,,0,0.0,6,6.0,19.5,0.0,0.0,-9.027173302659733,66.7128,C,,
Raw,1730973595001,651842000000,18,706906.4384201419,-1415008161159000064,0.0,79.92346200416634,-3438.309204024205,0.0,0,11,0.0,17,107312,235,19.700000762939453,-922.8032285401805,0.14999,20,-9755.210678528645,0.0008999999845400453,1602000000,,,,0,10.749753980779083,3,6.0,19.700000762939453,0.0,0.0,-33.2874231923098,66.7128,C,,
Raw,1730973595001,651842000000,18,706906.4384201419,-1415008161159000064,0.0,79.92346200416634,-3438.309204024205,0.0,0,8,0.0,17,419468,487,0.0,-1293.3666033836569,0.14999,16,-13161.301995355268,0.009999999776482582,1605374980,,,,0,0.0,3,6.0,19.0,0.0,0.0,-33.2874231923098,66.7128,C,,
Raw,1730973595001,651842000000,18,706906.4384201419,-1415008161159000064,0.0,79.92346200416634,-3438.309204024205,0.0,0,30,0.0,47,381612917819031,487,12.899999618530273,-1309.1924079693592,0.14999,16,-13358.210637154423,0.009999999776482582,1575420030,,,,0,0.0,1,6.0,12.899999618530273,0.0,0.0,0.0,66.7128,C,,
Raw,1730973595001,651842000000,18,706906.4384201419,-1415008161159000064,0.0,79.92346200416634,-3438.309204024205,0.0,0,3,0.0,47,381612923309453,487,22.365999221801758,-493.2052410792148,0.14999,16,-5838.885540312528,0.009999999776482582,1575420030,,,,0,1.0871532464518534,1,6.0,22.365999221801758,0.0,0.0,0.0,66.7128,C,,
Raw,1730973595001,651842000000,18,706906.4384201419,-1415008161159000064,0.0,79.92346200416634,-3438.309204024205,0.0,0,20,0.0,47,381598925736304,316,25.100000381469727,-1105.86669921875,0.14999,17,-11403.193602435531,0.002025000052526593,1561097980,,,,0,6.1926033485179754,5,6.0,25.100000381469727,0.0,0.0,7.407372358097625,66.7128,I,,
Raw,1730973595001,651842000000,18,706906.4384201419,-1415008161159000064,0.0,79.92346200416634,-3438.309204024205,0.0,0,7,0.0,47,381612922720682,396,21.299999237060547,-1110.744446874553,0.14999,24,-10930.329396042158,0.004900000058114529,1575420030,,,,0,1.1507864221756383,6,6.0,21.299999237060547,0.0,0.0,-9.027173302659733,66.7128,C,,
Raw,1730973595001,651842000000,18,706906.4384201419,-1415008161159000064,0.0,79.92346200416634,-3438.309204024205,0.0,0,28,0.0,47,381598919385710,316,27.0,-1127.8968505859375,0.14999,16,-11443.580788251951,0.002025000052526593,1561097980,,,,0,8.497632732621339,5,6.0,27.0,0.0,0.0,7.407372358097625,66.7128,I,,
Raw,1730973595001,651842000000,18,706906.4384201419,-1415008161159000064,0.0,79.92346200416634,-3438.309204024205,0.0,0,27,0.0,47,381612921084886,396,21.5,-870.3951756153003,0.14999,25,-9852.108744165995,0.004900000058114529,1575420030,,,,0,1.4007573321551017,6,6.0,21.5,0.0,0.0,-9.027173302659733,66.7128,C,,
Raw,1730973596001,652842000000,18,69.77541851994896,-1415008161159000064,0.0,69.77541851994896,-3440.8114292552987,0.0,0,9,0.0,16431,381613932655932,58,33.34199905395508,-1331.9731065245317,0.14999,17,-15363.705148205561,0.00039999998989515007,1575420030,,,,0,15.483589656075942,1,6.0,33.34199905395508,0.0,0.0,0.0,66.7128,C,,
Raw,1730973596001,652842000000,18,69.77541851994896,-1415008161159000064,0.0,69.77541851994896,-3440.8114292552987,0.0,0,8,0.0,47,381613931883425,396,22.56100082397461,-966.655991918379,0.14999,20,-11225.365921886692,0.004900000058114529,1575420030,,,,0,1.442587256971359,1,6.0,22.56100082397461,0.0,0.0,0.0,66.7128,C,,
Raw,1730973596001,652842000000,18,69.77541851994896,-1415008161159000064,0.0,69.77541851994896,-3440.8114292552987,0.0,0,7,0.0,47,381613923118447,74,30.125,-1247.130375173517,0.14999,17,-14436.291526434907,0.0006249999860301614,1575420030,,,,0,11.696882740198726,1,6.0,30.125,0.0,0.0,0.0,66.7128,C,,
Raw,1730973596001,652842000000,18,69.77541851994896,-1415008161159000064,0.0,69.77541851994896,-3440.8114292552987,0.0,0,4,0.0,47,381613933553205,396,22.375999450683594,-983.8392875716736,0.14999,16,-11413.591155656626,0.004900000058114529,1575420030,,,,0,1.1278466763578752,1,6.0,22.375999450683594,0.0,0.0,0.0,66.7128,C,,
Raw,1730973596001,652842000000,18,69.77541851994896,-1415008161159000064,0.0,69.77541851994896,-3440.8114292552987,0.0,0,5,0.0,47,381599879359918,316,21.875,-1030.855224609375,0.14999,16,-11924.506922799472,0.002025000052526593,1561097980,,,,0,1.3637172349232323,5,6.0,21.875,0.0,0.0,-0.7536799203127271,66.7128,I,,
Raw,1730973596001,652842000000,18,69.77541851994896,-1415008161159000064,0.0,69.77541851994896,-3440.8114292552987,0.0,0,21,0.0,47,381613914377540,396,23.200000762939453,-1267.852129639071,0.14999,28,-13215.516267442968,0.004900000058114529,1575420030,,,,0,3.7143181479992555,6,6.0,23.200000762939453,0.0,0.0,-8.004010859001212,66.7128,C,,
Raw,1730973596001,652842000000,18,69.77541851994896,-1415008161159000064,0.0,69.77541851994896,-3440.8114292552987,0.0,0,29,0.0,47,381613914998965,487,19.600000381469727,-1488.0671595641682,0.14999,24,-14502.3039677232,0.009999999776482582,1575420030,,,,0,0.0,6,6.0,19.600000381469727,0.0,0.0,-8.004010859001212,66.7128,C,,
Raw,1730973596001,652842000000,18,69.77541851994896,-1415008161159000064,0.0,69.77541851994896,-3440.8114292552987,0.0,0,11,0.0,17,110390,316,19.704999923706055,-923.5469311188853,0.14999,17,-10678.28783729021,0.002025000052526593,1602000000,,,,0,8.703135063522527,3,6.0,19.704999923706055,0.0,0.0,-33.184218594664124,66.7128,C,,
Raw,1730973596001,652842000000,18,69.77541851994896,-1415008161159000064,0.0,69.77541851994896,-3440.8114292552987,0.0,0,8,0.0,17,423782,487,0.0,-1294.1371915878822,0.14999,16,-14455.000458416704,0.009999999776482582,1605374980,,,,0,0.0,3,6.0,20.0,0.0,0.0,-33.184218594664124,66.7128,C,,
Raw,1730973596001,652842000000,18,69.77541851994896,-1415008161159000064,0.0,69.77541851994896,-3440.8114292552987,0.0,0,30,0.0,47,381613917823409,797,17.709999084472656,-1310.8600792776526,0.14999,16,-14668.087483868188,0.02250000089406967,1575420030,,,,0,0.0,1,6.0,17.709999084472656,0.0,0.0,0.0,66.7128,C,,
Raw,1730973596001,652842000000,18,69.77541851994896,-1415008161159000064,0.0,69.77541851994896,-3440.8114292552987,0.0,0,3,0.0,47,381613923311099,487,19.527000427246094,-495.07607504159694,0.14999,16,-6332.659007311651,0.009999999776482582,1575420030,,,,0,0.0,1,6.0,19.527000427246094,0.0,0.0,0.0,66.7128,C,,
Raw,1730973596001,652842000000,18,69.77541851994896,-1415008161159000064,0.0,69.77541851994896,-3440.8114292552987,0.0,0,2,0.0,47,381613920340115,797,16.863000869750977,-1258.218140786324,0.14999,16,-12524.36240032638,0.02250000089406967,1575420030,,,,0,0.0,1,6.0,16.863000869750977,0.0,0.0,0.0,66.7128,C,,
Raw,1730973596001,652842000000,18,69.77541851994896,-1415008161159000064,0.0,69.77541851994896,-3440.8114292552987,0.0,0,20,0.0,47,381599925739992,316,25.084999084472656,-1106.7686767578125,0.14999,20,-12509.200979684323,0.002025000052526593,1561097980,,,,0,5.889324523231858,5,6.0,25.084999084472656,0.0,0.0,-0.7536799203127271,66.7128,I,,
Raw,1730973596001,652842000000,18,69.77541851994896,-1415008161159000064,0.0,69.77541851994896,-3440.8114292552987,0.0,0,7,0.0,47,381613922724366,235,27.399999618530273,-1111.0534882591855,0.14999,25,-12041.110500349292,0.0008999999845400453,1575420030,,,,0,8.950977537200739,6,6.0,27.399999618530273,0.0,0.0,-8.004010859001212,66.7128,C,,
Raw,1730973596001,652842000000,18,69.77541851994896,-1415008161159000064,0.0,69.77541851994896,-3440.8114292552987,0.0,0,28,0.0,47,381599919389471,316,23.200000762939453,-1125.8284912109375,0.14999,16,-12569.691312075785,0.002025000052526593,1561097980,,,,0,3.7504144167292615,5,6.0,23.200000762939453,0.0,0.0,-0.7536799203127271,66.7128,I,,
Raw,1730973596001,652842000000,18,69.77541851994896,-1415008161159000064,0.0,69.77541851994896,-3440.8114292552987,0.0,0,27,0.0,47,381613921087789,316,24.799999237060547,-870.8052175967745,0.14999,25,-10722.845405400887,0.002025000052526593,1575420030,,,,0,5.780080679228824,6,6.0,24.799999237060547,0.0,0.0,-8.004010859001212,66.7128,C,,
Raw,1730973597001,653842000000,18,68.6236703473868,-1415008161159000064,0.0,68.6236703473868,-3435.650031927885,0.0,0,9,0.0,16431,381614932660373,58,34.41899871826172,-1330.488760126605,0.14999,17,-16694.915809894836,0.00039999998989515007,1575420030,,,,0,16.706882545039946,1,6.0,34.41899871826172,0.0,0.0,0.0,66.7128,C,,
Raw,1730973597001,653842000000,18,68.6236703473868,-1415008161159000064,0.0,68.6236703473868,-3435.650031927885,0.0,0,8,0.0,47,381614931886648,487,22.06599998474121,-965.1290896112034,0.14999,16,-12191.616377041399,0.009999999776482582,1575420030,,,,0,0.6671233254956511,1,6.0,22.06599998474121,0.0,0.0,0.0,66.7128,C,,
Raw,1730973597001,653842000000,18,68.6236703473868,-1415008161159000064,0.0,68.6236703473868,-3435.650031927885,0.0,0,7,0.0,47,381614923122610,58,32.84299850463867,-1245.8413399573394,0.14999,17,-15683.006716012434,0.00039999998989515007,1575420030,,,,0,14.912778424326294,1,6.0,32.84299850463867,0.0,0.0,0.0,66.7128,C,,
Raw,1730973597001,653842000000,18,68.6236703473868,-1415008161159000064,0.0,68.6236703473868,-3435.650031927885,0.0,0,4,0.0,47,381614933556485,487,20.81999969482422,-982.325207787372,0.14999,16,-12396.881994569061,0.009999999776482582,1575420030,,,,0,0.0,1,6.0,20.81999969482422,0.0,0.0,0.0,66.7128,C,,
Raw,1730973597001,653842000000,18,68.6236703473868,-1415008161159000064,0.0,68.6236703473868,-3435.650031927885,0.0,0,5,0.0,47,381600879363358,396,21.85099983215332,-1032.5675048828125,0.14999,16,-12956.090154068326,0.004900000058114529,1561097980,,,,0,1.3637172349232323,5,6.0,21.85099983215332,0.0,0.0,-6.290178735274715,66.7128,I,,
Raw,1730973597001,653842000000,18,68.6236703473868,-1415008161159000064,0.0,68.6236703473868,-3435.650031927885,0.0,0,21,0.0,47,381614914381767,487,18.799999237060547,-1266.162715791991,0.14999,24,-14482.880533101192,0.009999999776482582,1575420030,,,,0,0.0,6,6.0,18.799999237060547,0.0,0.0,-6.485771768997508,66.7128,C,,
Raw,1730973597001,653842000000,18,68.6236703473868,-1415008161159000064,0.0,68.6236703473868,-3435.650031927885,0.0,0,29,0.0,47,381614915003926,316,24.5,-1486.0452892906856,0.14999,25,-15989.519943973497,0.002025000052526593,1575420030,,,,0,5.396535383331153,6,6.0,24.5,0.0,0.0,-6.485771768997508,66.7128,C,,
Raw,1730973597001,653842000000,18,68.6236703473868,-1415008161159000064,0.0,68.6236703473868,-3435.650031927885,0.0,0,27,0.0,47,381614921090663,316,26.200000762939453,-869.5959050228142,0.14999,25,-12893.39628860859,0.002025000052526593,1575420030,,,,0,7.570706186771185,6,6.0,26.200000762939453,0.0,0.0,-6.485771768997508,66.7128,C,,
Raw,1730973597001,653842000000,18,68.6236703473868,-1415008161159000064,0.0,68.6236703473868,-3435.650031927885,0.0,0,11,0.0,17,113466,487,23.100000381469727,-921.559338233766,0.14999,20,-11600.89079305482,0.009999999776482582,1602000000,,,,0,0.8278537031645016,3,6.0,23.100000381469727,0.0,0.0,-32.348125288963566,66.7128,C,,
Raw,1730973597001,653842000000,18,68.6236703473868,-1415008161159000064,0.0,68.6236703473868,-3435.650031927885,0.0,0,8,0.0,17,428094,396,0.0,-1292.277512682998,0.14999,16,-15748.353160854418,0.004900000058114529,1605374980,,,,0,3.603002310650977,3,6.0,23.0,0.0,0.0,-32.348125288963566,66.7128,C,,
Raw,1730973597001,653842000000,18,68.6236703473868,-1415008161159000064,0.0,68.6236703473868,-3435.650031927885,0.0,0,30,0.0,47,381614917827779,797,17.709999084472656,-1309.251781825276,0.14999,16,-15978.243217463705,0.02250000089406967,1575420030,,,,0,0.0,1,6.0,17.709999084472656,0.0,0.0,0.0,66.7128,C,,
Raw,1730973597001,653842000000,18,68.6236703473868,-1415008161159000064,0.0,68.6236703473868,-3435.650031927885,0.0,0,3,0.0,47,381614923312735,316,25.38800048828125,-492.900102201544,0.14999,16,-6826.908542325527,0.002025000052526593,1575420030,,,,0,5.590424899126399,1,6.0,25.38800048828125,0.0,0.0,0.0,66.7128,C,,
Raw,1730973597001,653842000000,18,68.6236703473868,-1415008161159000064,0.0,68.6236703473868,-3435.650031927885,0.0,0,2,0.0,47,381614920344311,797,16.863000869750977,-1256.8559800230312,0.14999,16,-13782.225434959826,0.02250000089406967,1575420030,,,,0,0.0,1,6.0,16.863000869750977,0.0,0.0,0.0,66.7128,C,,
Raw,1730973597001,653842000000,18,68.6236703473868,-1415008161159000064,0.0,68.6236703473868,-3435.650031927885,0.0,0,20,0.0,47,381600925743677,74,29.600000381469727,-1104.56103515625,0.14999,17,-13614.757900935147,0.0006249999860301614,1561097980,,,,0,11.549835996744505,5,6.0,29.600000381469727,0.0,0.0,-6.290178735274715,66.7128,I,,
Raw,1730973597001,653842000000,18,68.6236703473868,-1415008161159000064,0.0,68.6236703473868,-3435.650031927885,0.0,0,32,0.0,47,381600923302753,235,28.600000381469727,-545.054931640625,0.14999,16,-12373.476840483621,0.0008999999845400453,1561097980,,,,0,10.370278797557749,5,6.0,28.600000381469727,0.0,0.0,-6.290178735274715,66.7128,I,,
Raw,1730973597001,653842000000,18,68.6236703473868,-1415008161159000064,0.0,68.6236703473868,-3435.650031927885,0.0,0,7,0.0,47,381614922728071,316,24.700000762939453,-1109.6144852754803,0.14999,25,-13151.647047466382,0.002025000052526593,1575420030,,,,0,5.7047145696149855,6,6.0,24.700000762939453,0.0,0.0,-6.485771768997508,66.7128,C,,
Raw,1730973597001,653842000000,18,68.6236703473868,-1415008161159000064,0.0,68.6236703473868,-3435.650031927885,0.0,0,28,0.0,47,381600919393252,396,23.239999771118164,-1124.154052734375,0.14999,16,-13694.914177693558,0.004900000058114529,1561097980,,,,0,4.860760973725889,5,6.0,23.239999771118164,0.0,0.0,-6.290178735274715,66.7128,I,,
Raw,1730973598001,654842000000,18,68.21638581830727,-1415008161159000064,0.0,68.21638581830727,-3427.285117206148,0.0,0,9,0.0,16431,381615932664807,58,34.37099838256836,-1327.5964449670018,0.14999,17,-18024.28170285482,0.00039999998989515007,1575420030,,,,0,15.641740475149547,1,6.0,34.37099838256836,0.0,0.0,0.0,66.7128,C,,
Raw,1730973598001,654842000000,18,68.21638581830727,-1415008161159000064,0.0,68.21638581830727,-3427.285117206148,0.0,0,8,0.0,47,381615931889866,797,22.06599998474121,-962.5140382795447,0.14999,16,-13156.14105508533,0.02250000089406967,1575420030,,,,0,0.6671233254956511,1,6.0,22.06599998474121,0.0,0.0,0.0,66.7128,C,,
Raw,1730973598001,654842000000,18,68.21638581830727,-1415008161159000064,0.0,68.21638581830727,-3427.285117206148,0.0,0,7,0.0,47,381615923126766,58,33.61399841308594,-1243.2152315226226,0.14999,17,-16927.997911320912,0.00039999998989515007,1575420030,,,,0,15.797063135735414,1,6.0,33.61399841308594,0.0,0.0,0.0,66.7128,C,,
Raw,1730973598001,654842000000,18,68.21638581830727,-1415008161159000064,0.0,68.21638581830727,-3427.285117206148,0.0,0,4,0.0,47,381615933559763,396,22.708999633789062,-979.497376909469,0.14999,16,-13378.459478189756,0.004900000058114529,1575420030,,,,0,1.6864177140007175,1,6.0,22.708999633789062,0.0,0.0,0.0,66.7128,C,,
Raw,1730973598001,654842000000,18,68.21638581830727,-1415008161159000064,0.0,68.21638581830727,-3427.285117206148,0.0,0,5,0.0,47,381601879366800,396,21.863000869750977,-1026.946533203125,0.14999,16,-13988.479724125938,0.004900000058114529,1561097980,,,,0,2.2788670461367357,5,6.0,21.863000869750977,0.0,0.0,-6.766767004124269,66.7128,I,,
Raw,1730973598001,654842000000,18,68.21638581830727,-1415008161159000064,0.0,68.21638581830727,-3427.285117206148,0.0,0,60,0.0,47,381601880595939,235,28.899999618530273,-1025.5142822265625,0.14999,16,-14112.229161386147,0.0008999999845400453,1561097980,,,,0,10.705882400855412,5,6.0,28.899999618530273,0.0,0.0,-6.766767004124269,66.7128,I,,
Raw,1730973598001,654842000000,18,68.21638581830727,-1415008161159000064,0.0,68.21638581830727,-3427.285117206148,0.0,0,21,0.0,47,381615914385990,487,16.799999237060547,-1264.1111121321337,0.14999,24,-15748.825731401508,0.009999999776482582,1575420030,,,,0,0.0,6,6.0,16.799999237060547,0.0,0.0,-10.602138127883634,66.7128,C,,
Raw,1730973598001,654842000000,18,68.21638581830727,-1415008161159000064,0.0,68.21638581830727,-3427.285117206148,0.0,0,29,0.0,47,381615915008880,235,26.399999618530273,-1483.634376239856,0.14999,28,-17474.891078903227,0.0008999999845400453,1575420030,,,,0,7.7519835066763765,6,6.0,26.399999618530273,0.0,0.0,-10.602138127883634,66.7128,C,,
Raw,1730973598001,654842000000,18,68.21638581830727,-1415008161159000064,0.0,68.21638581830727,-3427.285117206148,0.0,0,27,0.0,47,381615921093581,396,21.200000762939453,-866.9223160867301,0.14999,25,-13762.026927930821,0.004900000058114529,1575420030,,,,0,1.0635064589179204,6,6.0,21.200000762939453,0.0,0.0,-10.602138127883634,66.7128,C,,
Raw,1730973598001,654842000000,18,68.21638581830727,-1415008161159000064,0.0,68.21638581830727,-3427.285117206148,0.0,0,11,0.0,17,116536,396,19.700000762939453,-919.4495767348456,0.14999,16,-12522.09097909312,0.004900000058114529,1602000000,,,,0,1.5645560008060455,3,6.0,19.700000762939453,0.0,0.0,-31.857608939203182,66.7128,C,,
Raw,1730973598001,654842000000,18,68.21638581830727,-1415008161159000064,0.0,68.21638581830727,-3427.285117206148,0.0,0,7,0.0,17,509175,316,0.0,-546.9071359084735,0.14999,16,-12701.567995109635,0.002025000052526593,1604812540,,,,0,4.252161857628875,3,6.0,24.0,0.0,0.0,-31.857608939203182,66.7128,C,,
Raw,1730973598001,654842000000,18,68.21638581830727,-1415008161159000064,0.0,68.21638581830727,-3427.285117206148,0.0,0,8,0.0,17,432403,487,0.0,-1289.5676427455496,0.14999,16,-17040.133806337595,0.009999999776482582,1605374980,,,,0,0.0,3,6.0,20.0,0.0,0.0,-31.857608939203182,66.7128,C,,
Raw,1730973598001,654842000000,18,68.21638581830727,-1415008161159000064,0.0,68.21638581830727,-3427.285117206148,0.0,0,30,0.0,47,381615917832142,797,17.38599967956543,-1305.4919022013573,0.14999,16,-17286.281834383153,0.02250000089406967,1575420030,,,,0,0.0,1,6.0,17.38599967956543,0.0,0.0,0.0,66.7128,C,,
Raw,1730973598001,654842000000,18,68.21638581830727,-1415008161159000064,0.0,68.21638581830727,-3427.285117206148,0.0,0,3,0.0,47,381615923314378,316,24.915000915527344,-489.9275068987289,0.14999,17,-7318.731091738159,0.002025000052526593,1575420030,,,,0,4.912741318195667,1,6.0,24.915000915527344,0.0,0.0,0.0,66.7128,C,,
Raw,1730973598001,654842000000,18,68.21638581830727,-1415008161159000064,0.0,68.21638581830727,-3427.285117206148,0.0,0,2,0.0,47,381615920348501,1797,16.863000869750977,-1253.6424513737481,0.14999,16,-15038.126823103401,0.02250000089406967,1575420030,,,,0,0.0,1,6.0,16.863000869750977,0.0,0.0,0.0,66.7128,C,,
Raw,1730973598001,654842000000,18,68.21638581830727,-1415008161159000064,0.0,68.21638581830727,-3427.285117206148,0.0,0,20,0.0,47,381601925747358,316,24.799999237060547,-1101.900146484375,0.14999,21,-14718.60598752089,0.002025000052526593,1561097980,,,,0,5.8006922272503605,5,6.0,24.799999237060547,0.0,0.0,-6.766767004124269,66.7128,I,,
Raw,1730973598001,654842000000,18,68.21638581830727,-1415008161159000064,0.0,68.21638581830727,-3427.285117206148,0.0,0,32,0.0,47,381601923304562,235,28.899999618530273,-542.8560791015625,0.14999,16,-12917.817697876717,0.0008999999845400453,1561097980,,,,0,10.756381901465485,5,6.0,28.899999618530273,0.0,0.0,-6.766767004124269,66.7128,I,,
Raw,1730973598001,654842000000,18,68.21638581830727,-1415008161159000064,0.0,68.21638581830727,-3427.285117206148,0.0,0,7,0.0,47,381615922731770,316,24.799999237060547,-1106.9367150819373,0.14999,28,-14260.328950537085,0.002025000052526593,1575420030,,,,0,5.891917713171426,6,6.0,24.799999237060547,0.0,0.0,-10.602138127883634,66.7128,C,,
Raw,1730973598001,654842000000,18,68.21638581830727,-1415008161159000064,0.0,68.21638581830727,-3427.285117206148,0.0,0,40,0.0,16905,381601877618948,316,24.600000381469727,-1059.4422607421875,0.14999,16,-14147.224487479196,0.002025000052526593,1561097980,,,,0,5.575072019056578,5,6.0,24.600000381469727,0.0,0.0,-6.766767004124269,66.7128,I,,
Raw,1730973598001,654842000000,18,68.21638581830727,-1415008161159000064,0.0,68.21638581830727,-3427.285117206148,0.0,0,28,0.0,47,381601919396999,487,19.299999237060547,-1121.2410888671875,0.14999,16,-14818.279437819614,0.009999999776482582,1561097980,,,,0,0.0,5,6.0,19.299999237060547,0.0,0.0,-6.766767004124269,66.7128,I,,
Raw,1730973599001,655842000000,18,65.71473145108365,-1415008161159000064,0.0,65.71473145108365,-3428.228146974267,0.0,0,9,0.0,16431,381616932669237,58,34.40999984741211,-1327.8880179871392,0.14999,17,-19352.328066426642,0.00039999998989515007,1575420030,,,,0,17.53037257585039,1,6.0,34.40999984741211,0.0,0.0,0.0,66.7128,C,,
Raw,1730973599001,655842000000,18,65.71473145108365,-1415008161159000064,0.0,65.71473145108365,-3428.228146974267,0.0,0,8,0.0,47,381616931893076,487,20.867000579833984,-962.0549362105521,0.14999,16,-14118.597668642773,0.009999999776482582,1575420030,,,,0,0.0,1,6.0,20.867000579833984,0.0,0.0,0.0,66.7128,C,,
Raw,1730973599001,655842000000,18,65.71473145108365,-1415008161159000064,0.0,65.71473145108365,-3428.228146974267,0.0,0,7,0.0,47,381616923130917,58,33.14099884033203,-1243.6788865164037,0.14999,17,-18171.79949529851,0.00039999998989515007,1575420030,,,,0,15.259746182386756,1,6.0,33.14099884033203,0.0,0.0,0.0,66.7128,C,,
Raw,1730973599001,655842000000,18,65.71473145108365,-1415008161159000064,0.0,65.71473145108365,-3428.228146974267,0.0,0,4,0.0,47,381616933563032,396,22.224000930786133,-979.7650703036742,0.14999,16,-14358.211918395507,0.004900000058114529,1575420030,,,,0,0.9333783376059182,1,6.0,22.224000930786133,0.0,0.0,0.0,66.7128,C,,
Raw,1730973599001,655842000000,18,65.71473145108365,-1415008161159000064,0.0,65.71473145108365,-3428.228146974267,0.0,0,60,0.0,47,381602880599320,235,26.0,-1026.6318359375,0.14999,16,-15129.37307100582,0.0008999999845400453,1561097980,,,,0,7.272239597842887,5,6.0,26.0,0.0,0.0,-9.225773336013937,66.7128,I,,
Raw,1730973599001,655842000000,18,65.71473145108365,-1415008161159000064,0.0,65.71473145108365,-3428.228146974267,0.0,0,21,0.0,47,381616914390214,396,22.200000762939453,-1264.8080812921241,0.14999,25,-17013.48989401515,0.004900000058114529,1575420030,,,,0,2.4896461032247905,6,6.0,22.200000762939453,0.0,0.0,-10.36380263765119,66.7128,C,,
Raw,1730973599001,655842000000,18,65.71473145108365,-1415008161159000064,0.0,65.71473145108365,-3428.228146974267,0.0,0,29,0.0,47,381616915013830,316,24.799999237060547,-1484.1031416594203,0.14999,24,-18958.98585302441,0.002025000052526593,1575420030,,,,0,5.817519916668839,6,6.0,24.799999237060547,0.0,0.0,-10.36380263765119,66.7128,C,,
Raw,1730973599001,655842000000,18,65.71473145108365,-1415008161159000064,0.0,65.71473145108365,-3428.228146974267,0.0,0,27,0.0,47,381616921096476,396,22.200000762939453,-867.3220442998056,0.14999,25,-14629.49541865346,0.004900000058114529,1575420030,,,,0,2.4896461032247905,6,6.0,22.200000762939453,0.0,0.0,-10.36380263765119,66.7128,C,,
Raw,1730973599001,655842000000,18,65.71473145108365,-1415008161159000064,0.0,65.71473145108365,-3428.228146974267,0.0,0,11,0.0,17,119604,797,19.665000915527344,-920.6221030267659,0.14999,16,-13442.150654389148,0.02250000089406967,1602000000,,,,0,1.5645560008060455,3,6.0,19.665000915527344,0.0,0.0,-26.94556971938554,66.7128,C,,
Raw,1730973599001,655842000000,18,65.71473145108365,-1415008161159000064,0.0,65.71473145108365,-3428.228146974267,0.0,0,7,0.0,17,510993,396,0.0,-547.8527622265567,0.14999,16,-13249.395394623802,0.004900000058114529,1604812540,,,,0,4.039435560713175,3,6.0,23.0,0.0,0.0,-26.94556971938554,66.7128,C,,
Raw,1730973599001,655842000000,18,65.71473145108365,-1415008161159000064,0.0,65.71473145108365,-3428.228146974267,0.0,0,8,0.0,17,436705,487,0.0,-1289.3763406449148,0.14999,16,-18329.679312310498,0.009999999776482582,1605374980,,,,0,0.0,3,6.0,18.0,0.0,0.0,-26.94556971938554,66.7128,C,,
Raw,1730973599001,655842000000,18,65.71473145108365,-1415008161159000064,0.0,65.71473145108365,-3428.228146974267,0.0,0,1,0.0,32995,46798921743633,487,0.0,-1781.3014553851779,0.14999,16,-16048.292690220234,0.009999999776482582,1602562560,,,,0,0.0,3,6.0,18.0,0.0,0.0,-26.94556971938554,66.7128,C,,
Raw,1730973599001,655842000000,18,65.71473145108365,-1415008161159000064,0.0,65.71473145108365,-3428.228146974267,0.0,0,30,0.0,47,381616917836497,487,17.38599967956543,-1305.781988552176,0.14999,16,-18591.92204134399,0.009999999776482582,1575420030,,,,0,0.0,1,6.0,17.38599967956543,0.0,0.0,0.0,66.7128,C,,
Raw,1730973599001,655842000000,18,65.71473145108365,-1415008161159000064,0.0,65.71473145108365,-3428.228146974267,0.0,0,3,0.0,47,381616923316011,316,24.496999740600586,-489.6652026808042,0.14999,20,-7808.892230085042,0.002025000052526593,1575420030,,,,0,4.311996006787097,1,6.0,24.496999740600586,0.0,0.0,0.0,66.7128,C,,
Raw,1730973599001,655842000000,18,65.71473145108365,-1415008161159000064,0.0,65.71473145108365,-3428.228146974267,0.0,0,20,0.0,47,381602925751035,316,24.834999084472656,-1102.1649169921875,0.14999,17,-15821.037070779965,0.002025000052526593,1561097980,,,,0,6.689075023018618,5,6.0,24.834999084472656,0.0,0.0,-9.225773336013937,66.7128,I,,
Raw,1730973599001,655842000000,18,65.71473145108365,-1415008161159000064,0.0,65.71473145108365,-3428.228146974267,0.0,0,32,0.0,47,381602923306368,74,28.200000762939453,-539.9130249023438,0.14999,16,-13461.027914539814,0.0006249999860301614,1561097980,,,,0,9.910886750928968,5,6.0,28.200000762939453,0.0,0.0,-9.225773336013937,66.7128,I,,
Raw,1730973599001,655842000000,18,65.71473145108365,-1415008161159000064,0.0,65.71473145108365,-3428.228146974267,0.0,0,7,0.0,47,381616922735462,235,26.799999237060547,-1107.1474504578682,0.14999,25,-15367.728607098637,0.0008999999845400453,1575420030,,,,0,8.274164139534596,6,6.0,26.799999237060547,0.0,0.0,-10.36380263765119,66.7128,C,,
Raw,1730973599001,655842000000,18,65.71473145108365,-1415008161159000064,0.0,65.71473145108365,-3428.228146974267,0.0,0,40,0.0,16905,381602877622483,235,25.600000381469727,-1059.9927978515625,0.14999,17,-15207.337385304641,0.0008999999845400453,1561097980,,,,0,6.848453616444125,5,6.0,25.600000381469727,0.0,0.0,-9.225773336013937,66.7128,I,,
Raw,1730973599001,655842000000,18,65.71473145108365,-1415008161159000064,0.0,65.71473145108365,-3428.228146974267,0.0,0,28,0.0,47,381602919400741,487,19.290000915527344,-1122.3560791015625,0.14999,16,-15940.504706660073,0.009999999776482582,1561097980,,,,0,0.0,5,6.0,19.290000915527344,0.0,0.0,-9.225773336013937,66.7128,I,,
Raw,1730973599001,655842000000,18,65.71473145108365,-1415008161159000064,0.0,65.71473145108365,-3428.228146974267,0.0,0,39,0.0,16905,381602873349570,487,21.799999237060547,-1164.674072265625,0.14999,16,-15363.393557707683,0.009999999776482582,1561097980,,,,0,1.7981022287879587,5,6.0,21.799999237060547,0.0,0.0,-9.225773336013937,66.7128,I,,
Fix,FLP,12.9295209000,77.5197953000,750.2999877929688,0.50586295,18.38,89.82819,1730973598264,1.5,45.0,2287149405000000,1.0982145,0,,,
Raw,1730973600001,656842000000,18,64.87269664511098,-1415008161159000064,0.0,64.87269664511098,-3440.4381404165924,0.0,0,9,0.0,16431,381617932673668,58,34.38999938964844,-1331.7564244713258,0.14999,17,-20681.411200050698,0.00039999998989515007,1575420030,,,,0,16.25826713285711,1,6.0,34.38999938964844,0.0,0.0,0.0,66.7128,C,,
Raw,1730973600001,656842000000,18,64.87269664511098,-1415008161159000064,0.0,64.87269664511098,-3440.4381404165924,0.0,0,8,0.0,47,381617931896288,797,20.867000579833984,-965.3606383575968,0.14999,16,-15081.66349835171,0.02250000089406967,1575420030,,,,0,0.0,1,6.0,20.867000579833984,0.0,0.0,0.0,66.7128,C,,
Raw,1730973600001,656842000000,18,64.87269664511098,-1415008161159000064,0.0,64.87269664511098,-3440.4381404165924,0.0,0,7,0.0,47,381617923135069,74,29.950000762939453,-1247.7191891405694,0.14999,20,-19416.78268924818,0.0006249999860301614,1575420030,,,,0,11.48549003664069,1,6.0,29.950000762939453,0.0,0.0,0.0,66.7128,C,,
Raw,1730973600001,656842000000,18,64.87269664511098,-1415008161159000064,0.0,64.87269664511098,-3440.4381404165924,0.0,0,4,0.0,47,381617933566303,396,22.257999420166016,-984.1593860593641,0.14999,16,-15339.088354329924,0.004900000058114529,1575420030,,,,0,1.981884625358354,1,6.0,22.257999420166016,0.0,0.0,0.0,66.7128,C,,
Raw,1730973600001,656842000000,18,64.87269664511098,-1415008161159000064,0.0,64.87269664511098,-3440.4381404165924,0.0,0,60,0.0,47,381603880602732,316,24.200000762939453,-1025.443603515625,0.14999,16,-16153.900375041067,0.002025000052526593,1561097980,,,,0,5.105450102066121,5,6.0,24.200000762939453,0.0,0.0,-9.248447653298802,66.7128,I,,
Raw,1730973600001,656842000000,18,64.87269664511098,-1415008161159000064,0.0,64.87269664511098,-3440.4381404165924,0.0,0,21,0.0,47,381617914394438,487,19.5,-1268.9668528776267,0.14999,28,-18278.8161860127,0.009999999776482582,1575420030,,,,0,0.0,6,6.0,19.5,0.0,0.0,-6.726787948234061,66.7128,C,,
Raw,1730973600001,656842000000,18,64.87269664511098,-1415008161159000064,0.0,64.87269664511098,-3440.4381404165924,0.0,0,29,0.0,47,381617915018783,396,21.0,-1487.9102230342091,0.14999,25,-20444.189065112132,0.004900000058114529,1575420030,,,,0,0.7344561404947968,6,6.0,21.0,0.0,0.0,-6.726787948234061,66.7128,C,,
Raw,1730973600001,656842000000,18,64.87269664511098,-1415008161159000064,0.0,64.87269664511098,-3440.4381404165924,0.0,0,27,0.0,47,381617921099374,235,25.799999237060547,-871.4721746198929,0.14999,29,-15498.062149720277,0.0008999999845400453,1575420030,,,,0,7.035536499294331,6,6.0,25.799999237060547,0.0,0.0,-6.726787948234061,66.7128,C,,
Raw,1730973600001,656842000000,18,64.87269664511098,-1415008161159000064,0.0,64.87269664511098,-3440.4381404165924,0.0,0,11,0.0,17,122675,797,25.0,-921.7286564397299,0.14999,16,-14362.671053015785,0.02250000089406967,1602000000,,,,0,1.5645560008060455,3,6.0,25.0,0.0,0.0,-40.275332790498204,66.7128,C,,
Raw,1730973600001,656842000000,18,64.87269664511098,-1415008161159000064,0.0,64.87269664511098,-3440.4381404165924,0.0,0,7,0.0,17,512805,316,0.0,-551.7061871923697,0.14999,16,-13798.147313837419,0.002025000052526593,1604812540,,,,0,4.402161760801102,3,6.0,24.0,0.0,0.0,-40.275332790498204,66.7128,C,,
Raw,1730973600001,656842000000,18,64.87269664511098,-1415008161159000064,0.0,64.87269664511098,-3440.4381404165924,0.0,0,8,0.0,17,441009,316,0.0,-1294.1107484948488,0.14999,16,-19620.74155303892,0.002025000052526593,1605374980,,,,0,6.143806087375992,3,6.0,25.0,0.0,0.0,-40.275332790498204,66.7128,C,,
Raw,1730973600001,656842000000,18,64.87269664511098,-1415008161159000064,0.0,64.87269664511098,-3440.4381404165924,0.0,0,1,0.0,32995,46799921749485,487,0.0,-1785.1490096914756,0.14999,16,-17830.3314490588,0.009999999776482582,1602562560,,,,0,0.0,3,6.0,19.0,0.0,0.0,-40.275332790498204,66.7128,C,,
Raw,1730973600001,656842000000,18,64.87269664511098,-1415008161159000064,0.0,64.87269664511098,-3440.4381404165924,0.0,0,30,0.0,47,381617917840848,797,17.937999725341797,-1308.8336560793814,0.14999,16,-19898.472909889908,0.02250000089406967,1575420030,,,,0,0.0,1,6.0,17.937999725341797,0.0,0.0,0.0,66.7128,C,,
Raw,1730973600001,656842000000,18,64.87269664511098,-1415008161159000064,0.0,64.87269664511098,-3440.4381404165924,0.0,0,3,0.0,47,381617923317650,396,23.231000900268555,-494.4018240471334,0.14999,16,-8300.234333793469,0.004900000058114529,1575420030,,,,0,2.4896461032247905,1,6.0,23.231000900268555,0.0,0.0,0.0,66.7128,C,,
