# 
# Header Description:
# 
# Version: v3.1.0.2 Platform: 14 Manufacturer: samsung Model: SM-S918B GNSS Hardware Model Name: Qualcomm GNSS GEN9
# 
# Raw,utcTimeMillis,TimeNanos,LeapSecond,TimeUncertaintyNanos,FullBiasNanos,BiasNanos,BiasUncertaintyNanos,DriftNanosPerSecond,DriftUncertaintyNanosPerSecond,HardwareClockDiscontinuityCount,Svid,TimeOffsetNanos,State,ReceivedSvTimeNanos,ReceivedSvTimeUncertaintyNanos,Cn0DbHz,PseudorangeRateMetersPerSecond,PseudorangeRateUncertaintyMetersPerSecond,AccumulatedDeltaRangeState,AccumulatedDeltaRangeMeters,AccumulatedDeltaRangeUncertaintyMeters,CarrierFrequencyHz,CarrierCycles,CarrierPhase,CarrierPhaseUncertainty,MultipathIndicator,SnrInDb,ConstellationType,AgcDb,BasebandCn0DbHz,FullInterSignalBiasNanos,FullInterSignalBiasUncertaintyNanos,SatelliteInterSignalBiasNanos,SatelliteInterSignalBiasUncertaintyNanos,CodeType,ChipsetElapsedRealtimeNanos,IsFullTracking
# 
# UncalAccel,utcTimeMillis,elapsedRealtimeNanos,UncalAccelXMps2,UncalAccelYMps2,UncalAccelZMps2,BiasXMps2,BiasYMps2,BiasZMps2
# 
# Accel,utcTimeMillis,elapsedRealtimeNanos,AccelXMps2,AccelYMps2,AccelZMps2
# 
# UncalGyro,utcTimeMillis,elapsedRealtimeNanos,UncalGyroXRadPerSec,UncalGyroYRadPerSec,UncalGyroZRadPerSec,DriftXRadPerSec,DriftYRadPerSec,DriftZRadPerSec
# 
# Gyro,utcTimeMillis,elapsedRealtimeNanos,GyroXRadPerSec,GyroYRadPerSec,GyroZRadPerSec
# 
# UncalMag,utcTimeMillis,elapsedRealtimeNanos,UncalMagXMicroT,UncalMagYMicroT,UncalMagZMicroT,BiasXMicroT,BiasYMicroT,BiasZMicroT
# 
# Mag,utcTimeMillis,elapsedRealtimeNanos,MagXMicroT,MagYMicroT,MagZMicroT
# 
# Pressure,utcTimeMillis,elapsedRealtimeNanos,PressureHpa
# 
# OrientationDeg,utcTimeMillis,elapsedRealtimeNanos,yawDeg,rollDeg,pitchDeg
# 
# Fix,Provider,LatitudeDegrees,LongitudeDegrees,AltitudeMeters,SpeedMps,AccuracyMeters,BearingDegrees,UnixTimeMillis,SpeedAccuracyMps,BearingAccuracyDegrees,elapsedRealtimeNanos,VerticalAccuracyMeters,MockLocation,NumberOfUsedSignals,VerticalSpeedAccuracyMps,SolutionType
# 
# Nav,Svid,Type,Status,MessageId,Sub-messageId,Data(Bytes)
# 
# Status,UnixTimeMillis,SignalCount,SignalIndex,ConstellationType,Svid,CarrierFrequencyHz,Cn0DbHz,AzimuthDegrees,ElevationDegrees,UsedInFix,HasAlmanacData,HasEphemerisData,BasebandCn0DbHz
# 
# Agc,utcTimeMillis,TimeNanos,LeapSecond,TimeUncertaintyNanos,FullBiasNanos,BiasNanos,BiasUncertaintyNanos,DriftNanosPerSecond,DriftUncertaintyNanosPerSecond,HardwareClockDiscontinuityCount,AgcDb,CarrierFrequencyHz,ConstellationType
# 
Status,,50,0,1,3,1575420030,22.80,187.83937,24.631954,1,1,1,17.8
Status,,50,1,1,4,1575420030,35.90,94.661446,73.7094,1,1,1,30.9
Status,,50,2,1,7,1575420030,26.50,331.54156,30.046347,1,1,1,21.5
Status,,50,3,1,8,1575420030,44.80,83.73188,55.75062,1,1,1,39.8
Status,,50,4,1,9,1575420030,32.10,340.49304,65.189255,1,1,1,27.1
Status,,50,5,1,21,1575420030,22.00,140.2599,12.461386,1,1,1,17.0
Status,,50,6,1,30,1575420030,19.20,303.9716,11.020963,1,1,1,14.2
Status,,50,7,2,128,1575420030,45.00,0.0,0.0,0,0,0,40.0
Status,,50,8,3,1,1602562560,20.00,332.15686,8.809233,1,1,1,15.0
Status,,50,9,3,21,1604249980,22.70,146.32271,13.753036,1,1,1,17.7
Status,,50,10,3,7,1604812540,38.70,170.76167,56.647655,1,1,1,33.7
Status,,50,11,3,8,1605374980,24.10,315.17087,64.775154,0,1,0,19.1
Status,,50,12,5,60,1561097980,43.70,170.50911,71.969315,0,1,0,38.7
Status,,50,13,5,40,1561097980,41.60,66.55177,55.881954,1,1,1,36.6
Status,,50,14,5,39,1561097980,33.10,68.19496,33.626934,1,1,1,28.1
Status,,50,15,5,32,1561097980,42.10,174.52054,45.56794,1,1,1,37.1
Status,,50,16,5,28,1561097980,39.00,92.71279,26.226011,1,1,1,34.0
Status,,50,17,5,27,1561097980,40.10,144.49747,31.304914,1,1,1,35.1
Status,,50,18,5,20,1561097980,23.30,283.8917,59.674904,1,1,1,18.3
Status,,50,19,5,13,1561097980,19.70,178.1667,14.904849,1,1,1,14.7
Status,,50,20,5,10,1561097980,35.70,100.51019,74.442085,1,1,1,30.7
Status,,50,21,5,7,1561097980,36.60,73.00482,65.284706,1,1,1,31.6
Status,,50,22,5,5,1561097980,31.60,236.43134,63.2429,1,1,1,26.6
Status,,50,23,5,3,1561097980,36.00,111.38528,48.533936,1,1,1,31.0
Status,,50,24,5,2,1561097980,41.20,155.14665,71.94476,1,1,1,36.2
Status,,50,25,6,7,1575420030,39.20,50.313774,76.67442,1,1,1,34.2
Status,,50,26,6,8,1575420030,33.50,130.20158,33.46629,1,1,1,28.5
Status,,50,27,6,21,1575420030,27.40,245.61931,31.929209,1,1,1,22.4
Status,,50,28,6,27,1575420030,27.10,320.78958,63.696617,1,1,1,22.1
Status,,50,29,6,29,1575420030,28.20,329.6237,32.033646,0,1,0,23.2
Status,,50,30,1,4,1176450050,21.10,94.661446,73.7094,1,1,1,16.1
Status,,50,31,1,8,1176450050,30.00,83.73188,55.75062,1,1,1,25.0
Status,,50,32,1,9,1176450050,23.10,340.49304,65.189255,1,1,1,18.1
Status,,50,33,6,7,1176450050,26.20,50.313774,76.67442,1,1,1,21.2
Status,,50,34,6,21,1176450050,18.80,245.61931,31.929209,1,1,1,13.8
Status,,50,35,6,27,1176450050,26.70,320.78958,63.696617,1,1,1,21.7
Status,,50,36,6,29,1176450050,26.60,329.6237,32.033646,0,1,0,21.6
Status,,50,37,5,20,1176450050,25.20,283.8917,59.674904,1,1,1,20.2
Status,,50,38,5,27,1176450050,17.10,144.49747,31.304914,0,1,1,12.1
Status,,50,39,5,28,1176450050,26.30,92.71279,26.226011,1,1,1,21.3
Status,,50,40,5,32,1176450050,22.30,174.52054,45.56794,1,1,1,17.3
Status,,50,41,5,39,1176450050,17.90,68.19496,33.626934,0,1,1,12.9
Status,,50,42,5,40,1176450050,24.30,66.55177,55.881954,1,1,1,19.3
Status,,50,43,5,19,1575420030,21.80,318.06583,17.233057,1,1,1,16.8
Status,,50,44,5,20,1575420030,27.80,283.8917,59.674904,1,1,1,22.8
Status,,50,45,5,27,1575420030,37.00,144.49747,31.304914,1,1,1,32.0
Status,,50,46,5,28,1575420030,36.50,92.71279,26.226011,1,1,1,31.5
Status,,50,47,5,32,1575420030,40.40,174.52054,45.56794,1,1,1,35.4
Status,,50,48,5,39,1575420030,30.80,68.19496,33.626934,1,1,1,25.8
Status,,50,49,5,40,1575420030,40.20,66.55177,55.881954,1,1,1,35.2
Raw,1730973588414,924095655000000,18,0.0,-1414084710759311830,-0.19280433654785156,27.922536901314743,-7.51528184379162,9.788825604369233,51,3,0.0,16399,381606336839836,70,27.8,535.1819458007812,0.999500036239624,16,0.0,0.0,1575420030,,,,0,0.0,1,-53.45,22.8,0.0,0.0,,,C,771630515261500,0
Raw,1730973588414,924095655000000,18,0.0,-1414084710759311830,-0.19280433654785156,27.922536901314743,-7.51528184379162,9.788825604369233,51,4,0.0,16399,381606347069523,14,40.9,44.6551628112793,0.04249565303325653,16,0.0,0.0,1575420030,,,,0,0.0,1,-53.45,35.9,0.0,0.0,,,C,771630515261500,0
Raw,1730973588414,924095655000000,18,0.0,-1414084710759311830,-0.19280433654785156,27.922536901314743,-7.51528184379162,9.788825604369233,51,7,0.0,16399,381606336628107,40,31.5,-216.7920684814453,0.7294999957084656,16,0.0,0.0,1575420030,,,,0,0.0,1,-53.45,26.5,0.0,0.0,,,C,771630515261500,0
Raw,1730973588414,924095655000000,18,0.0,-1414084710759311830,-0.19280433654785156,27.922536901314743,-7.51528184379162,9.788825604369233,51,8,0.0,16399,381606345400155,6,49.8,62.03213119506836,0.03929208219051361,16,0.0,0.0,1575420030,,,,0,0.0,1,-53.45,44.8,0.0,0.0,,,C,771630515261500,0
Raw,1730973588414,924095655000000,18,0.0,-1414084710759311830,-0.19280433654785156,27.922536901314743,-7.51528184379162,9.788825604369233,51,9,0.0,16399,381606346163434,19,37.1,-303.3050842285156,0.060208678245544434,16,0.0,0.0,1575420030,,,,0,0.0,1,-53.45,32.1,0.0,0.0,,,C,771630515261500,0
Raw,1730973588414,924095655000000,18,0.0,-1414084710759311830,-0.19280433654785156,27.922536901314743,-7.51528184379162,9.788825604369233,51,21,0.0,16399,381606335145772,70,27.0,-248.2761688232422,1.7090001106262207,16,0.0,0.0,1575420030,,,,0,0.0,1,-53.45,22.0,0.0,0.0,,,C,771630515261500,0
Raw,1730973588414,924095655000000,18,0.0,-1414084710759311830,-0.19280433654785156,27.922536901314743,-7.51528184379162,9.788825604369233,51,21,0.0,49359,46788336680571,70,26.7,-494.5804748535156,1.0794999599456787,16,0.0,0.0,1604249980,,,,0,0.0,3,-55.57,22.7,3793.5439453125,10.752382278442383,,,C,771630515261500,0
Raw,1730973588414,924095655000000,18,0.0,-1414084710759311830,-0.19280433654785156,27.922536901314743,-7.51528184379162,9.788825604369233,51,7,0.0,49359,46788348028934,11,42.7,476.5029602050781,0.038075655698776245,16,0.0,0.0,1604812540,,,,0,0.0,3,-55.57,38.7,3793.5439453125,10.752382278442383,,,C,771630515261500,0
Raw,1730973588414,924095655000000,18,0.0,-1414084710759311830,-0.19280433654785156,27.922536901314743,-7.51528184379162,9.788825604369233,51,60,0.0,16399,381592294105817,6,48.0,1.58669912815094,0.032439276576042175,16,0.0,0.0,1561097980,,,,0,0.0,5,-60.91,43.7,-1538.576171875,8.363814353942871,,,I,771630515261500,0
Raw,1730973588414,924095655000000,18,0.0,-1414084710759311830,-0.19280433654785156,27.922536901314743,-7.51528184379162,9.788825604369233,51,40,0.0,16399,381592291127715,8,45.9,-34.7561149597168,0.031743377447128296,16,0.0,0.0,1561097980,,,,0,0.0,5,-60.91,41.6,-1538.576171875,8.363814353942871,,,I,771630515261500,0
Raw,1730973588414,924095655000000,18,0.0,-1414084710759311830,-0.19280433654785156,27.922536901314743,-7.51528184379162,9.788825604369233,51,39,0.0,16399,381592286851125,17,37.4,-139.34994506835938,0.05043927952647209,16,0.0,0.0,1561097980,,,,0,0.0,5,-60.91,33.1,-1538.576171875,8.363814353942871,,,I,771630515261500,0
Raw,1730973588414,924095655000000,18,0.0,-1414084710759311830,-0.19280433654785156,27.922536901314743,-7.51528184379162,9.788825604369233,51,32,0.0,16399,381592336829873,7,46.4,483.249755859375,0.023744072765111923,16,0.0,0.0,1561097980,,,,0,0.0,5,-60.91,42.1,-1538.576171875,8.363814353942871,,,I,771630515261500,0
Raw,1730973588414,924095655000000,18,0.0,-1414084710759311830,-0.19280433654785156,27.922536901314743,-7.51528184379162,9.788825604369233,51,28,0.0,16399,381592332903779,10,43.3,-96.47989654541016,0.03145322576165199,16,0.0,0.0,1561097980,,,,0,0.0,5,-60.91,39.0,-1538.576171875,8.363814353942871,,,I,771630515261500,0
Raw,1730973588414,924095655000000,18,0.0,-1414084710759311830,-0.19280433654785156,27.922536901314743,-7.51528184379162,9.788825604369233,51,27,0.0,16399,381592334477088,9,44.4,-372.80242919921875,0.027857903391122818,16,0.0,0.0,1561097980,,,,0,0.0,5,-60.91,40.1,-1538.576171875,8.363814353942871,,,I,771630515261500,0
Raw,1730973588414,924095655000000,18,0.0,-1414084710759311830,-0.19280433654785156,27.922536901314743,-7.51528184379162,9.788825604369233,51,20,0.0,16399,381592339254688,61,27.6,-78.18887329101562,0.9950000047683716,16,0.0,0.0,1561097980,,,,0,0.0,5,-60.91,23.3,-1538.576171875,8.363814353942871,,,I,771630515261500,0
Raw,1730973588414,924095655000000,18,0.0,-1414084710759311830,-0.19280433654785156,27.922536901314743,-7.51528184379162,9.788825604369233,51,13,0.0,16399,381592281464523,106,24.0,243.11241149902344,2.697999954223633,16,0.0,0.0,1561097980,,,,0,0.0,5,-60.91,19.7,-1538.576171875,8.363814353942871,,,I,771630515261500,0
Raw,1730973588414,924095655000000,18,0.0,-1414084710759311830,-0.19280433654785156,27.922536901314743,-7.51528184379162,9.788825604369233,51,10,0.0,16399,381592292753895,14,40.0,-46.99050521850586,0.03508277237415314,16,0.0,0.0,1561097980,,,,0,0.0,5,-60.91,35.7,-1538.576171875,8.363814353942871,,,I,771630515261500,0
Raw,1730973588414,924095655000000,18,0.0,-1414084710759311830,-0.19280433654785156,27.922536901314743,-7.51528184379162,9.788825604369233,51,7,0.0,16399,381592292510440,13,40.9,-21.253007888793945,0.03396894410252571,16,0.0,0.0,1561097980,,,,0,0.0,5,-60.91,36.6,-1538.576171875,8.363814353942871,,,I,771630515261500,0
Raw,1730973588414,924095655000000,18,0.0,-1414084710759311830,-0.19280433654785156,27.922536901314743,-7.51528184379162,9.788825604369233,51,5,0.0,16399,381592292876681,21,35.9,1.8915890455245972,2.94569993019104,16,0.0,0.0,1561097980,,,,0,0.0,5,-60.91,31.599999999999998,-1538.576171875,8.363814353942871,,,I,771630515261500,0
Raw,1730973588414,924095655000000,18,0.0,-1414084710759311830,-0.19280433654785156,27.922536901314743,-7.51528184379162,9.788825604369233,51,3,0.0,16399,381592291118508,13,40.3,-2.3812897205352783,1.360700011253357,16,0.0,0.0,1561097980,,,,0,0.0,5,-60.91,36.0,-1538.576171875,8.363814353942871,,,I,771630515261500,0
Raw,1730973588414,924095655000000,18,0.0,-1414084710759311830,-0.19280433654785156,27.922536901314743,-7.51528184379162,9.788825604369233,51,2,0.0,16399,381592294851706,8,45.5,2.0529658794403076,0.06099554896354675,16,0.0,0.0,1561097980,,,,0,0.0,5,-60.91,41.2,-1538.576171875,8.363814353942871,,,I,771630515261500,0
Raw,1730973588414,924095655000000,18,0.0,-1414084710759311830,-0.19280433654785156,27.922536901314743,-7.51528184379162,9.788825604369233,51,7,0.0,23567,381606336238912,10,43.5,-82.42808532714844,0.03139910474419594,16,0.0,0.0,1575420030,,,,0,0.0,6,-57.28,39.2,-1462.892578125,8.556855201721191,,,C,771630515261500,0
Raw,1730973588414,924095655000000,18,0.0,-1414084710759311830,-0.19280433654785156,27.922536901314743,-7.51528184379162,9.788825604369233,51,8,0.0,23567,381606328540544,17,37.8,346.65679931640625,0.06790715456008911,16,0.0,0.0,1575420030,,,,0,0.0,6,-57.28,33.5,-1462.892578125,8.556855201721191,,,C,771630515261500,0
Raw,1730973588414,924095655000000,18,0.0,-1414084710759311830,-0.19280433654785156,27.922536901314743,-7.51528184379162,9.788825604369233,51,21,0.0,23567,381606327888134,35,31.7,-239.44857788085938,0.06905223429203033,16,0.0,0.0,1575420030,,,,0,0.0,6,-57.28,27.4,-1462.892578125,8.556855201721191,,,C,771630515261500,0
Raw,1730973588414,924095655000000,18,0.0,-1414084710759311830,-0.19280433654785156,27.922536901314743,-7.51528184379162,9.788825604369233,51,27,0.0,23567,381606334608390,35,31.4,157.74778747558594,0.043552231043577194,16,0.0,0.0,1575420030,,,,0,0.0,6,-57.28,27.099999999999998,-1462.892578125,8.556855201721191,,,C,771630515261500,0
Raw,1730973588414,924095655000000,18,0.0,-1414084710759311830,-0.19280433654785156,27.922536901314743,-7.51528184379162,9.788825604369233,51,29,0.0,23567,381606328503985,31,32.5,-458.6378479003906,0.06870638579130173,16,0.0,0.0,1575420030,,,,0,0.0,6,-57.28,28.2,-1462.892578125,8.556855201721191,,,C,771630515261500,0
Raw,1730973588414,924095655000000,18,0.0,-1414084710759311830,-0.19280433654785156,27.922536901314743,-7.51528184379162,9.788825604369233,51,8,0.0,81935,381606345400100,6,35.0,62.03470993041992,0.07702034711837769,16,0.0,0.0,1176450050,,,,0,0.0,1,-44.14,30.0,22.16719627380371,5.277188777923584,,,Q,771630515261500,0
Raw,1730973588414,924095655000000,18,0.0,-1414084710759311830,-0.19280433654785156,27.922536901314743,-7.51528184379162,9.788825604369233,51,9,0.0,81935,381606346163363,12,28.1,-303.36004638671875,0.9404999613761902,16,0.0,0.0,1176450050,,,,0,0.0,1,-44.14,23.1,22.16719627380371,5.277188777923584,,,Q,771630515261500,0
Raw,1730973588414,924095655000000,18,0.0,-1414084710759311830,-0.19280433654785156,27.922536901314743,-7.51528184379162,9.788825604369233,51,7,0.0,81935,381606336238862,9,31.5,-82.43226623535156,0.054372020065784454,16,0.0,0.0,1176450050,,,,0,0.0,6,-44.14,26.2,-1449.0126953125,63.73936080932617,,,Q,771630515261500,0
Raw,1730973588414,924095655000000,18,0.0,-1414084710759311830,-0.19280433654785156,27.922536901314743,-7.51528184379162,9.788825604369233,51,27,0.0,81935,381606334608348,9,32.0,157.73190307617188,0.051372017711400986,16,0.0,0.0,1176450050,,,,0,0.0,6,-44.14,26.7,-1449.0126953125,63.73936080932617,,,Q,771630515261500,0
Raw,1730973588414,924095655000000,18,0.0,-1414084710759311830,-0.19280433654785156,27.922536901314743,-7.51528184379162,9.788825604369233,51,29,0.0,81935,381606328503902,9,31.9,-458.61065673828125,0.07237201929092407,16,0.0,0.0,1176450050,,,,0,0.0,6,-44.14,26.599999999999998,-1449.0126953125,63.73936080932617,,,Q,771630515261500,0
Raw,1730973588414,924095655000000,18,0.0,-1414084710759311830,-0.19280433654785156,27.922536901314743,-7.51528184379162,9.788825604369233,51,20,0.0,16399,381592339254689,10,29.7,-77.83518981933594,0.11924752593040466,16,0.0,0.0,1176450050,,,,0,0.0,5,-44.14,25.2,-1501.9998779296875,63.486610412597656,,,Q,771630515261500,0
Raw,1730973588414,924095655000000,18,0.0,-1414084710759311830,-0.19280433654785156,27.922536901314743,-7.51528184379162,9.788825604369233,51,27,0.0,16399,381592334476997,27,21.6,-372.73699951171875,4.0625,16,0.0,0.0,1176450050,,,,0,0.0,5,-44.14,17.1,-1501.9998779296875,63.486610412597656,,,Q,771630515261500,0
Raw,1730973588414,924095655000000,18,0.0,-1414084710759311830,-0.19280433654785156,27.922536901314743,-7.51528184379162,9.788825604369233,51,28,0.0,16399,381592332903695,9,30.8,-96.50401306152344,0.07837201654911041,16,0.0,0.0,1176450050,,,,0,0.0,5,-44.14,26.3,-1501.9998779296875,63.486610412597656,,,Q,771630515261500,0
Raw,1730973588414,924095655000000,18,0.0,-1414084710759311830,-0.19280433654785156,27.922536901314743,-7.51528184379162,9.788825604369233,51,32,0.0,16399,381592336829811,14,26.8,482.9501037597656,1.1154999732971191,16,0.0,0.0,1176450050,,,,0,0.0,5,-44.14,22.3,-1501.9998779296875,63.486610412597656,,,Q,771630515261500,0
Raw,1730973588414,924095655000000,18,0.0,-1414084710759311830,-0.19280433654785156,27.922536901314743,-7.51528184379162,9.788825604369233,51,40,0.0,16399,381592291127653,11,28.8,-34.75214767456055,0.9458355903625488,16,0.0,0.0,1176450050,,,,0,0.0,5,-44.14,24.3,-1501.9998779296875,63.486610412597656,,,Q,771630515261500,0
Raw,1730973588414,924095655000000,18,0.0,-1414084710759311830,-0.19280433654785156,27.922536901314743,-7.51528184379162,9.788825604369233,51,19,0.0,16399,381592328748346,16,28.8,-487.5704345703125,1.118499994277954,16,0.0,0.0,1575420030,,,,0,0.0,5,-57.28,21.8,-1550.232421875,59.24028778076172,,,P,771630515261500,0
Raw,1730973588414,924095655000000,18,0.0,-1414084710759311830,-0.19280433654785156,27.922536901314743,-7.51528184379162,9.788825604369233,51,20,0.0,16399,381592339254769,8,34.8,-77.80918884277344,0.07505223155021667,16,0.0,0.0,1575420030,,,,0,0.0,5,-57.28,27.799999999999997,-1550.232421875,59.24028778076172,,,P,771630515261500,0
Raw,1730973588414,924095655000000,18,0.0,-1414084710759311830,-0.19280433654785156,27.922536901314743,-7.51528184379162,9.788825604369233,51,27,0.0,16399,381592334477108,3,44.0,-372.847412109375,0.059997573494911194,16,0.0,0.0,1575420030,,,,0,0.0,5,-57.28,37.0,-1550.232421875,59.24028778076172,,,P,771630515261500,0
Raw,1730973588414,924095655000000,18,0.0,-1414084710759311830,-0.19280433654785156,27.922536901314743,-7.51528184379162,9.788825604369233,51,28,0.0,16399,381592332903791,3,43.5,-96.5174331665039,0.057891953736543655,16,0.0,0.0,1575420030,,,,0,0.0,5,-57.28,36.5,-1550.232421875,59.24028778076172,,,P,771630515261500,0
Raw,1730973588414,924095655000000,18,0.0,-1414084710759311830,-0.19280433654785156,27.922536901314743,-7.51528184379162,9.788825604369233,51,32,0.0,16399,381592336829881,2,47.4,483.2040710449219,0.06080919876694679,16,0.0,0.0,1575420030,,,,0,0.0,5,-57.28,40.4,-1550.232421875,59.24028778076172,,,P,771630515261500,0
Raw,1730973588414,924095655000000,18,0.0,-1414084710759311830,-0.19280433654785156,27.922536901314743,-7.51528184379162,9.788825604369233,51,39,0.0,16399,381592286851130,6,37.8,-139.3961944580078,0.08389182388782501,16,0.0,0.0,1575420030,,,,0,0.0,5,-57.28,30.799999999999997,-1550.232421875,59.24028778076172,,,P,771630515261500,0
Raw,1730973588414,924095655000000,18,0.0,-1414084710759311830,-0.19280433654785156,27.922536901314743,-7.51528184379162,9.788825604369233,51,40,0.0,16399,381592291127726,2,47.2,-34.801937103271484,0.05330919474363327,16,0.0,0.0,1575420030,,,,0,0.0,5,-57.28,40.2,-1550.232421875,59.24028778076172,,,P,771630515261500,0
Agc,1730973588414,924095655000000,18,0.0,-1414084710759311830,-0.19280433654785156,27.922536901314743,-7.51528184379162,9.788825604369233,51,-53.45,1575420000,1
Agc,1730973588414,924095655000000,18,0.0,-1414084710759311830,-0.19280433654785156,27.922536901314743,-7.51528184379162,9.788825604369233,51,-53.45,1575420000,4
Agc,1730973588414,924095655000000,18,0.0,-1414084710759311830,-0.19280433654785156,27.922536901314743,-7.51528184379162,9.788825604369233,51,-55.57,1602000000,3
Agc,1730973588414,924095655000000,18,0.0,-1414084710759311830,-0.19280433654785156,27.922536901314743,-7.51528184379162,9.788825604369233,51,-60.91,1561098000,5
Agc,1730973588414,924095655000000,18,0.0,-1414084710759311830,-0.19280433654785156,27.922536901314743,-7.51528184379162,9.788825604369233,51,-57.28,1575420000,6
Agc,1730973588414,924095655000000,18,0.0,-1414084710759311830,-0.19280433654785156,27.922536901314743,-7.51528184379162,9.788825604369233,51,-44.14,1176450000,1
Agc,1730973588414,924095655000000,18,0.0,-1414084710759311830,-0.19280433654785156,27.922536901314743,-7.51528184379162,9.788825604369233,51,-44.14,1176450000,4
Agc,1730973588414,924095655000000,18,0.0,-1414084710759311830,-0.19280433654785156,27.922536901314743,-7.51528184379162,9.788825604369233,51,-44.14,1176450000,6
Agc,1730973588414,924095655000000,18,0.0,-1414084710759311830,-0.19280433654785156,27.922536901314743,-7.51528184379162,9.788825604369233,51,-44.14,1176450000,5
Agc,1730973588414,924095655000000,18,0.0,-1414084710759311830,-0.19280433654785156,27.922536901314743,-7.51528184379162,9.788825604369233,51,-57.28,1575420000,5
Status,,50,0,1,3,1575420030,22.80,187.83937,24.631954,1,1,1,17.8
Status,,50,1,1,4,1575420030,35.50,94.661446,73.7094,1,1,1,30.5
Status,,50,2,1,7,1575420030,26.50,331.54156,30.046347,1,1,1,21.5
Status,,50,3,1,8,1575420030,44.60,83.73188,55.75062,1,1,1,39.6
Status,,50,4,1,9,1575420030,29.30,340.49304,65.189255,1,1,1,24.3
Status,,50,5,1,21,1575420030,22.00,140.2599,12.461386,1,1,1,17.0
Status,,50,6,1,30,1575420030,19.20,303.9716,11.020963,1,1,1,14.2
Status,,50,7,2,128,1575420030,44.80,0.0,0.0,0,0,0,39.8
Status,,50,8,3,11,1602000000,18.30,305.23718,32.89691,0,1,1,13.3
Status,,50,9,3,1,1602562560,19.50,332.15686,8.809233,1,1,1,14.5
Status,,50,10,3,21,1604249980,22.80,146.32271,13.753036,1,1,1,17.8
Status,,50,11,3,7,1604812540,39.00,170.76167,56.647655,1,1,1,34.0
Status,,50,12,3,8,1605374980,19.90,315.17087,64.775154,0,1,0,14.9
Status,,50,13,5,60,1561097980,43.10,170.50911,71.969315,0,1,0,38.1
Status,,50,14,5,40,1561097980,41.20,66.55177,55.881954,1,1,1,36.2
Status,,50,15,5,39,1561097980,32.60,68.19496,33.626934,1,1,1,27.6
Status,,50,16,5,32,1561097980,41.40,174.52054,45.56794,1,1,1,36.4
Status,,50,17,5,28,1561097980,39.00,92.71279,26.226011,1,1,1,34.0
Status,,50,18,5,27,1561097980,39.80,144.49747,31.304914,1,1,1,34.8
Status,,50,19,5,20,1561097980,22.50,283.8917,59.674904,1,1,1,17.5
Status,,50,20,5,10,1561097980,34.90,100.51019,74.442085,1,1,1,29.9
Status,,50,21,5,7,1561097980,35.80,73.00482,65.284706,1,1,1,30.8
Status,,50,22,5,5,1561097980,31.60,236.43134,63.2429,1,1,1,26.6
Status,,50,23,5,3,1561097980,35.30,111.38528,48.533936,1,1,1,30.3
Status,,50,24,5,2,1561097980,41.10,155.14665,71.94476,1,1,1,36.1
Status,,50,25,6,7,1575420030,38.90,50.313774,76.67442,1,1,1,33.9
Status,,50,26,6,8,1575420030,34.20,130.20158,33.46629,1,1,1,29.2
Status,,50,27,6,21,1575420030,25.70,245.61931,31.929209,1,1,1,20.7
Status,,50,28,6,27,1575420030,25.60,320.78958,63.696617,1,1,1,20.6
Status,,50,29,6,29,1575420030,29.60,329.6237,32.033646,0,1,0,24.6
Status,,50,30,1,4,1176450050,17.70,94.661446,73.7094,1,1,1,12.7
Status,,50,31,1,8,1176450050,31.70,83.73188,55.75062,1,1,1,26.7
Status,,50,32,1,9,1176450050,24.40,340.49304,65.189255,1,1,1,19.4
Status,,50,33,6,7,1176450050,26.60,50.313774,76.67442,1,1,1,21.6
Status,,50,34,6,21,1176450050,18.80,245.61931,31.929209,1,1,1,13.8
Status,,50,35,6,27,1176450050,26.40,320.78958,63.696617,1,1,1,21.4
Status,,50,36,6,29,1176450050,27.00,329.6237,32.033646,0,1,0,22.0
Status,,50,37,5,20,1176450050,24.30,283.8917,59.674904,1,1,1,19.3
Status,,50,38,5,27,1176450050,17.10,144.49747,31.304914,0,1,1,12.1
Status,,50,39,5,28,1176450050,26.00,92.71279,26.226011,1,1,1,21.0
Status,,50,40,5,32,1176450050,23.60,174.52054,45.56794,1,1,1,18.6
Status,,50,41,5,39,1176450050,17.90,68.19496,33.626934,0,1,1,12.9
Status,,50,42,5,40,1176450050,23.10,66.55177,55.881954,1,1,1,18.1
Status,,50,43,5,19,1575420030,22.00,318.06583,17.233057,1,1,1,17.0
Status,,50,44,5,20,1575420030,28.40,283.8917,59.674904,1,1,1,23.4
Status,,50,45,5,27,1575420030,37.00,144.49747,31.304914,1,1,1,32.0
Status,,50,46,5,28,1575420030,36.40,92.71279,26.226011,1,1,1,31.4
Status,,50,47,5,32,1575420030,40.30,174.52054,45.56794,1,1,1,35.3
Status,,50,48,5,39,1575420030,31.80,68.19496,33.626934,1,1,1,26.8
Status,,50,49,5,40,1575420030,39.60,66.55177,55.881954,1,1,1,34.6
Raw,1730973589414,924096655000000,18,0.0,-1414084710759311830,-0.4908275604248047,24.701992515474558,-6.665273175169731,9.686331666254715,51,4,0.0,16399,381607347069383,14,40.5,45.44673538208008,0.04249565303325653,16,0.0,0.0,1575420030,,,,0,0.0,1,-53.37,35.5,0.0,0.0,,,C,771631520021551,0
Raw,1730973589414,924096655000000,18,0.0,-1414084710759311830,-0.4908275604248047,24.701992515474558,-6.665273175169731,9.686331666254715,51,8,0.0,16399,381607345399946,6,49.6,62.8345832824707,0.03929208219051361,16,0.0,0.0,1575420030,,,,0,0.0,1,-53.37,44.6,0.0,0.0,,,C,771631520021551,0
Raw,1730973589414,924096655000000,18,0.0,-1414084710759311830,-0.4908275604248047,24.701992515474558,-6.665273175169731,9.686331666254715,51,9,0.0,16399,381607346164525,27,34.3,-302.8619079589844,0.5945000052452087,16,0.0,0.0,1575420030,,,,0,0.0,1,-53.37,29.299999999999997,0.0,0.0,,,C,771631520021551,0
Raw,1730973589414,924096655000000,18,0.0,-1414084710759311830,-0.4908275604248047,24.701992515474558,-6.665273175169731,9.686331666254715,51,11,0.0,49359,46789342624060,122,22.3,106.8361587524414,4.674500465393066,16,0.0,0.0,1602000000,,,,0,0.0,3,-55.54,18.3,3793.54833984375,10.783843994140625,,,C,771631520021551,0
Raw,1730973589414,924096655000000,18,0.0,-1414084710759311830,-0.4908275604248047,24.701992515474558,-6.665273175169731,9.686331666254715,51,1,0.0,49359,46789335220446,106,23.5,-755.6346435546875,2.819000244140625,16,0.0,0.0,1602562560,,,,0,0.0,3,-55.54,19.5,3793.54833984375,10.783843994140625,,,C,771631520021551,0
Raw,1730973589414,924096655000000,18,0.0,-1414084710759311830,-0.4908275604248047,24.701992515474558,-6.665273175169731,9.686331666254715,51,21,0.0,49359,46789336682404,70,26.8,-493.3003845214844,1.0794999599456787,16,0.0,0.0,1604249980,,,,0,0.0,3,-55.54,22.8,3793.54833984375,10.783843994140625,,,C,771631520021551,0
Raw,1730973589414,924096655000000,18,0.0,-1414084710759311830,-0.4908275604248047,24.701992515474558,-6.665273175169731,9.686331666254715,51,7,0.0,49359,46789348027327,10,43.0,477.3199768066406,0.037291061133146286,16,0.0,0.0,1604812540,,,,0,0.0,3,-55.54,39.0,3793.54833984375,10.783843994140625,,,C,771631520021551,0
Raw,1730973589414,924096655000000,18,0.0,-1414084710759311830,-0.4908275604248047,24.701992515474558,-6.665273175169731,9.686331666254715,51,8,0.0,49359,46789348929320,106,23.9,-266.7716369628906,2.058500051498413,16,0.0,0.0,1605374980,,,,0,0.0,3,-55.54,19.9,3793.54833984375,10.783843994140625,,,C,771631520021551,0
Raw,1730973589414,924096655000000,18,0.0,-1414084710759311830,-0.4908275604248047,24.701992515474558,-6.665273175169731,9.686331666254715,51,60,0.0,16399,381593294105807,6,47.4,2.2655787467956543,0.032439276576042175,16,0.0,0.0,1561097980,,,,0,0.0,5,-60.93,43.1,-1538.5699462890625,8.252039909362793,,,I,771631520021551,0
Raw,1730973589414,924096655000000,18,0.0,-1414084710759311830,-0.4908275604248047,24.701992515474558,-6.665273175169731,9.686331666254715,51,40,0.0,16399,381593291127834,8,45.5,-34.044456481933594,0.031743377447128296,16,0.0,0.0,1561097980,,,,0,0.0,5,-60.93,41.2,-1538.5699462890625,8.252039909362793,,,I,771631520021551,0
Raw,1730973589414,924096655000000,18,0.0,-1414084710759311830,-0.4908275604248047,24.701992515474558,-6.665273175169731,9.686331666254715,51,39,0.0,16399,381593286851584,19,36.9,-138.69361877441406,0.06044454127550125,16,0.0,0.0,1561097980,,,,0,0.0,5,-60.93,32.6,-1538.5699462890625,8.252039909362793,,,I,771631520021551,0
Raw,1730973589414,924096655000000,18,0.0,-1414084710759311830,-0.4908275604248047,24.701992515474558,-6.665273175169731,9.686331666254715,51,32,0.0,16399,381593336828265,8,45.7,483.9776306152344,0.024243375286459923,16,0.0,0.0,1561097980,,,,0,0.0,5,-60.93,41.400000000000006,-1538.5699462890625,8.252039909362793,,,I,771631520021551,0
Raw,1730973589414,924096655000000,18,0.0,-1414084710759311830,-0.4908275604248047,24.701992515474558,-6.665273175169731,9.686331666254715,51,28,0.0,16399,381593332904102,10,43.3,-95.73072814941406,0.03145322576165199,16,0.0,0.0,1561097980,,,,0,0.0,5,-60.93,39.0,-1538.5699462890625,8.252039909362793,,,I,771631520021551,0
Raw,1730973589414,924096655000000,18,0.0,-1414084710759311830,-0.4908275604248047,24.701992515474558,-6.665273175169731,9.686331666254715,51,27,0.0,16399,381593334478333,10,44.1,-372.11865234375,0.028453225269913673,16,0.0,0.0,1561097980,,,,0,0.0,5,-60.93,39.800000000000004,-1538.5699462890625,8.252039909362793,,,I,771631520021551,0
Raw,1730973589414,924096655000000,18,0.0,-1414084710759311830,-0.4908275604248047,24.701992515474558,-6.665273175169731,9.686331666254715,51,20,0.0,16399,381593339254949,70,26.8,-76.5565414428711,1.0749999284744263,16,0.0,0.0,1561097980,,,,0,0.0,5,-60.93,22.5,-1538.5699462890625,8.252039909362793,,,I,771631520021551,0
Raw,1730973589414,924096655000000,18,0.0,-1414084710759311830,-0.4908275604248047,24.701992515474558,-6.665273175169731,9.686331666254715,51,10,0.0,16399,381593292754047,16,39.2,-46.28819274902344,0.04003738984465599,16,0.0,0.0,1561097980,,,,0,0.0,5,-60.93,34.900000000000006,-1538.5699462890625,8.252039909362793,,,I,771631520021551,0
Raw,1730973589414,924096655000000,18,0.0,-1414084710759311830,-0.4908275604248047,24.701992515474558,-6.665273175169731,9.686331666254715,51,7,0.0,16399,381593292510511,14,40.1,-20.56044578552246,0.03508277237415314,16,0.0,0.0,1561097980,,,,0,0.0,5,-60.93,35.800000000000004,-1538.5699462890625,8.252039909362793,,,I,771631520021551,0
Raw,1730973589414,924096655000000,18,0.0,-1414084710759311830,-0.4908275604248047,24.701992515474558,-6.665273175169731,9.686331666254715,51,3,0.0,16399,381593291118522,14,39.6,-1.7475594282150269,1.4866000413894653,16,0.0,0.0,1561097980,,,,0,0.0,5,-60.93,35.300000000000004,-1538.5699462890625,8.252039909362793,,,I,771631520021551,0
Raw,1730973589414,924096655000000,18,0.0,-1414084710759311830,-0.4908275604248047,24.701992515474558,-6.665273175169731,9.686331666254715,51,2,0.0,16399,381593294851696,8,45.4,2.780587673187256,0.06099554896354675,16,0.0,0.0,1561097980,,,,0,0.0,5,-60.93,41.1,-1538.5699462890625,8.252039909362793,,,I,771631520021551,0
Raw,1730973589414,924096655000000,18,0.0,-1414084710759311830,-0.4908275604248047,24.701992515474558,-6.665273175169731,9.686331666254715,51,7,0.0,23567,381607336239186,11,43.2,-81.69700622558594,0.03219833970069885,16,0.0,0.0,1575420030,,,,0,0.0,6,-57.21,38.900000000000006,-1462.80126953125,8.442499160766602,,,C,771631520021551,0
Raw,1730973589414,924096655000000,18,0.0,-1414084710759311830,-0.4908275604248047,24.701992515474558,-6.665273175169731,9.686331666254715,51,8,0.0,23567,381607328539395,16,38.5,347.3922424316406,0.06630868464708328,16,0.0,0.0,1575420030,,,,0,0.0,6,-57.21,34.2,-1462.80126953125,8.442499160766602,,,C,771631520021551,0
Raw,1730973589414,924096655000000,18,0.0,-1414084710759311830,-0.4908275604248047,24.701992515474558,-6.665273175169731,9.686331666254715,51,21,0.0,23567,381607327888895,46,30.0,-238.73074340820312,0.09824328124523163,16,0.0,0.0,1575420030,,,,0,0.0,6,-57.21,25.7,-1462.80126953125,8.442499160766602,,,C,771631520021551,0
Raw,1730973589414,924096655000000,18,0.0,-1414084710759311830,-0.4908275604248047,24.701992515474558,-6.665273175169731,9.686331666254715,51,27,0.0,23567,381607334607891,46,29.9,158.4078826904297,0.07274328172206879,16,0.0,0.0,1575420030,,,,0,0.0,6,-57.21,25.599999999999998,-1462.80126953125,8.442499160766602,,,C,771631520021551,0
Raw,1730973589414,924096655000000,18,0.0,-1414084710759311830,-0.4908275604248047,24.701992515474558,-6.665273175169731,9.686331666254715,51,29,0.0,23567,381607328505512,27,33.9,-457.9638366699219,0.06714597344398499,16,0.0,0.0,1575420030,,,,0,0.0,6,-57.21,29.599999999999998,-1462.80126953125,8.442499160766602,,,C,771631520021551,0
Raw,1730973589414,924096655000000,18,0.0,-1414084710759311830,-0.4908275604248047,24.701992515474558,-6.665273175169731,9.686331666254715,51,4,0.0,81935,381607347069321,27,22.7,44.87521743774414,3.692000150680542,16,0.0,0.0,1176450050,,,,0,0.0,1,-44.14,17.7,22.16719627380371,5.277338981628418,,,Q,771631520021551,0
Raw,1730973589414,924096655000000,18,0.0,-1414084710759311830,-0.4908275604248047,24.701992515474558,-6.665273175169731,9.686331666254715,51,8,0.0,81935,381607345399890,6,36.7,62.776004791259766,0.06458473205566406,16,0.0,0.0,1176450050,,,,0,0.0,1,-44.14,31.700000000000003,22.16719627380371,5.277338981628418,,,Q,771631520021551,0
Raw,1730973589414,924096655000000,18,0.0,-1414084710759311830,-0.4908275604248047,24.701992515474558,-6.665273175169731,9.686331666254715,51,9,0.0,81935,381607346164371,11,29.4,-302.63995361328125,0.17385150492191315,16,0.0,0.0,1176450050,,,,0,0.0,1,-44.14,24.4,22.16719627380371,5.277338981628418,,,Q,771631520021551,0
Raw,1730973589414,924096655000000,18,0.0,-1414084710759311830,-0.4908275604248047,24.701992515474558,-6.665273175169731,9.686331666254715,51,7,0.0,81935,381607336239133,9,31.9,-81.71923065185547,0.054372020065784454,16,0.0,0.0,1176450050,,,,0,0.0,6,-44.14,26.599999999999998,-1448.888427734375,57.50469207763672,,,Q,771631520021551,0
Raw,1730973589414,924096655000000,18,0.0,-1414084710759311830,-0.4908275604248047,24.701992515474558,-6.665273175169731,9.686331666254715,51,27,0.0,81935,381607334607817,9,31.7,158.430908203125,0.051372017711400986,16,0.0,0.0,1176450050,,,,0,0.0,6,-44.14,26.4,-1448.888427734375,57.50469207763672,,,Q,771631520021551,0
Raw,1730973589414,924096655000000,18,0.0,-1414084710759311830,-0.4908275604248047,24.701992515474558,-6.665273175169731,9.686331666254715,51,29,0.0,81935,381607328505424,8,32.3,-457.94775390625,0.06365689635276794,16,0.0,0.0,1176450050,,,,0,0.0,6,-44.14,26.999999999999996,-1448.888427734375,57.50469207763672,,,Q,771631520021551,0
Raw,1730973589414,924096655000000,18,0.0,-1414084710759311830,-0.4908275604248047,24.701992515474558,-6.665273175169731,9.686331666254715,51,20,0.0,16399,381593339254948,11,28.8,-77.09597778320312,0.19335150718688965,16,0.0,0.0,1176450050,,,,0,0.0,5,-44.14,24.3,-1501.9686279296875,57.24388885498047,,,Q,771631520021551,0
Raw,1730973589414,924096655000000,18,0.0,-1414084710759311830,-0.4908275604248047,24.701992515474558,-6.665273175169731,9.686331666254715,51,28,0.0,16399,381593332904017,9,30.5,-95.78450012207031,0.07837201654911041,16,0.0,0.0,1176450050,,,,0,0.0,5,-44.14,26.0,-1501.9686279296875,57.24388885498047,,,Q,771631520021551,0
Raw,1730973589414,924096655000000,18,0.0,-1414084710759311830,-0.4908275604248047,24.701992515474558,-6.665273175169731,9.686331666254715,51,32,0.0,16399,381593336828190,12,28.1,484.0458679199219,0.9555000066757202,16,0.0,0.0,1176450050,,,,0,0.0,5,-44.14,23.6,-1501.9686279296875,57.24388885498047,,,Q,771631520021551,0
Raw,1730973589414,924096655000000,18,0.0,-1414084710759311830,-0.4908275604248047,24.701992515474558,-6.665273175169731,9.686331666254715,51,40,0.0,16399,381593291127775,12,27.6,-33.943092346191406,1.027999997138977,16,0.0,0.0,1176450050,,,,0,0.0,5,-44.14,23.1,-1501.9686279296875,57.24388885498047,,,Q,771631520021551,0
Raw,1730973589414,924096655000000,18,0.0,-1414084710759311830,-0.4908275604248047,24.701992515474558,-6.665273175169731,9.686331666254715,51,19,0.0,16399,381593328749944,14,29.0,-486.733154296875,1.118499994277954,16,0.0,0.0,1575420030,,,,0,0.0,5,-57.21,22.0,-1550.198486328125,52.98818588256836,,,P,771631520021551,0
Raw,1730973589414,924096655000000,18,0.0,-1414084710759311830,-0.4908275604248047,24.701992515474558,-6.665273175169731,9.686331666254715,51,20,0.0,16399,381593339255034,8,35.4,-77.07784271240234,0.07320638000965118,16,0.0,0.0,1575420030,,,,0,0.0,5,-57.21,28.4,-1550.198486328125,52.98818588256836,,,P,771631520021551,0
Raw,1730973589414,924096655000000,18,0.0,-1414084710759311830,-0.4908275604248047,24.701992515474558,-6.665273175169731,9.686331666254715,51,27,0.0,16399,381593334478349,3,44.0,-372.16314697265625,0.059997573494911194,16,0.0,0.0,1575420030,,,,0,0.0,5,-57.21,37.0,-1550.198486328125,52.98818588256836,,,P,771631520021551,0
Raw,1730973589414,924096655000000,18,0.0,-1414084710759311830,-0.4908275604248047,24.701992515474558,-6.665273175169731,9.686331666254715,51,28,0.0,16399,381593332904120,3,43.4,-95.79115295410156,0.057891953736543655,16,0.0,0.0,1575420030,,,,0,0.0,5,-57.21,36.4,-1550.198486328125,52.98818588256836,,,P,771631520021551,0
Raw,1730973589414,924096655000000,18,0.0,-1414084710759311830,-0.4908275604248047,24.701992515474558,-6.665273175169731,9.686331666254715,51,32,0.0,16399,381593336828267,2,47.3,483.9239196777344,0.06080919876694679,16,0.0,0.0,1575420030,,,,0,0.0,5,-57.21,40.3,-1550.198486328125,52.98818588256836,,,P,771631520021551,0
Raw,1730973589414,924096655000000,18,0.0,-1414084710759311830,-0.4908275604248047,24.701992515474558,-6.665273175169731,9.686331666254715,51,39,0.0,16399,381593286851596,6,38.8,-138.75462341308594,0.07460548728704453,16,0.0,0.0,1575420030,,,,0,0.0,5,-57.21,31.799999999999997,-1550.198486328125,52.98818588256836,,,P,771631520021551,0
Raw,1730973589414,924096655000000,18,0.0,-1414084710759311830,-0.4908275604248047,24.701992515474558,-6.665273175169731,9.686331666254715,51,40,0.0,16399,381593291127837,2,46.6,-34.094390869140625,0.05389910563826561,16,0.0,0.0,1575420030,,,,0,0.0,5,-57.21,39.6,-1550.198486328125,52.98818588256836,,,P,771631520021551,0
Agc,1730973589414,924096655000000,18,0.0,-1414084710759311830,-0.4908275604248047,24.701992515474558,-6.665273175169731,9.686331666254715,51,-53.37,1575420000,1
Agc,1730973589414,924096655000000,18,0.0,-1414084710759311830,-0.4908275604248047,24.701992515474558,-6.665273175169731,9.686331666254715,51,-53.37,1575420000,4
Agc,1730973589414,924096655000000,18,0.0,-1414084710759311830,-0.4908275604248047,24.701992515474558,-6.665273175169731,9.686331666254715,51,-55.54,1602000000,3
Agc,1730973589414,924096655000000,18,0.0,-1414084710759311830,-0.4908275604248047,24.701992515474558,-6.665273175169731,9.686331666254715,51,-60.93,1561098000,5
Agc,1730973589414,924096655000000,18,0.0,-1414084710759311830,-0.4908275604248047,24.701992515474558,-6.665273175169731,9.686331666254715,51,-57.21,1575420000,6
Agc,1730973589414,924096655000000,18,0.0,-1414084710759311830,-0.4908275604248047,24.701992515474558,-6.665273175169731,9.686331666254715,51,-44.14,1176450000,1
Agc,1730973589414,924096655000000,18,0.0,-1414084710759311830,-0.4908275604248047,24.701992515474558,-6.665273175169731,9.686331666254715,51,-44.14,1176450000,4
Agc,1730973589414,924096655000000,18,0.0,-1414084710759311830,-0.4908275604248047,24.701992515474558,-6.665273175169731,9.686331666254715,51,-44.14,1176450000,6
Agc,1730973589414,924096655000000,18,0.0,-1414084710759311830,-0.4908275604248047,24.701992515474558,-6.665273175169731,9.686331666254715,51,-44.14,1176450000,5
Agc,1730973589414,924096655000000,18,0.0,-1414084710759311830,-0.4908275604248047,24.701992515474558,-6.665273175169731,9.686331666254715,51,-57.21,1575420000,5
Status,,50,0,1,3,1575420030,22.80,187.83937,24.631954,1,1,1,17.8
Status,,50,1,1,4,1575420030,36.40,94.661446,73.7094,1,1,1,31.4
Status,,50,2,1,8,1575420030,45.30,83.73188,55.75062,1,1,1,40.3
Status,,50,3,1,9,1575420030,33.50,340.49304,65.189255,1,1,1,28.5
Status,,50,4,1,21,1575420030,22.00,140.2599,12.461386,1,1,1,17.0
Status,,50,5,1,30,1575420030,19.20,303.9716,11.020963,1,1,1,14.2
Status,,50,6,2,128,1575420030,44.60,0.0,0.0,0,0,0,39.6
Status,,50,7,3,11,1602000000,18.30,305.23718,32.89691,1,1,1,13.3
Status,,50,8,3,1,1602562560,19.50,332.15686,8.809233,1,1,1,14.5
Status,,50,9,3,21,1604249980,22.80,146.32271,13.753036,1,1,1,17.8
Status,,50,10,3,7,1604812540,38.50,170.76167,56.647655,1,1,1,33.5
Status,,50,11,3,8,1605374980,19.90,315.17087,64.775154,0,1,0,14.9
Status,,50,12,5,60,1561097980,42.70,170.50911,71.969315,0,1,0,37.7
Status,,50,13,5,40,1561097980,42.20,66.55177,55.881954,1,1,1,37.2
Status,,50,14,5,39,1561097980,32.50,68.19496,33.626934,1,1,1,27.5
Status,,50,15,5,32,1561097980,40.20,174.52054,45.56794,1,1,1,35.2
Status,,50,16,5,28,1561097980,39.60,92.71279,26.226011,1,1,1,34.6
Status,,50,17,5,27,1561097980,38.80,144.49747,31.304914,1,1,1,33.8
Status,,50,18,5,20,1561097980,22.80,283.8917,59.674904,1,1,1,17.8
Status,,50,19,5,10,1561097980,36.10,100.51019,74.442085,1,1,1,31.1
Status,,50,20,5,7,1561097980,36.50,73.00482,65.284706,1,1,1,31.5
Status,,50,21,5,5,1561097980,30.60,236.43134,63.2429,1,1,1,25.6
Status,,50,22,5,3,1561097980,36.10,111.38528,48.533936,1,1,1,31.1
Status,,50,23,5,2,1561097980,40.90,155.14665,71.94476,1,1,1,35.9
Status,,50,24,6,7,1575420030,38.60,50.313774,76.67442,1,1,1,33.6
Status,,50,25,6,8,1575420030,33.10,130.20158,33.46629,1,1,1,28.1
Status,,50,26,6,21,1575420030,25.80,245.61931,31.929209,1,1,1,20.8
Status,,50,27,6,27,1575420030,25.50,320.78958,63.696617,1,1,1,20.5
Status,,50,28,6,29,1575420030,29.10,329.6237,32.033646,0,1,0,24.1
Status,,50,29,1,4,1176450050,17.70,94.661446,73.7094,1,1,1,12.7
Status,,50,30,1,8,1176450050,30.60,83.73188,55.75062,1,1,1,25.6
Status,,50,31,1,9,1176450050,22.90,340.49304,65.189255,1,1,1,17.9
Status,,50,32,1,14,1176450050,15.00,243.54083,20.610409,0,1,1,10.0
Status,,50,33,6,7,1176450050,24.80,50.313774,76.67442,1,1,1,19.8
Status,,50,34,6,21,1176450050,18.80,245.61931,31.929209,1,1,1,13.8
Status,,50,35,6,27,1176450050,26.50,320.78958,63.696617,1,1,1,21.5
Status,,50,36,6,29,1176450050,26.10,329.6237,32.033646,0,1,0,21.1
Status,,50,37,5,20,1176450050,24.00,283.8917,59.674904,1,1,1,19.0
Status,,50,38,5,27,1176450050,18.80,144.49747,31.304914,0,1,1,13.8
Status,,50,39,5,28,1176450050,24.30,92.71279,26.226011,1,1,1,19.3
Status,,50,40,5,32,1176450050,22.50,174.52054,45.56794,1,1,1,17.5
Status,,50,41,5,39,1176450050,17.60,68.19496,33.626934,0,1,1,12.6
Status,,50,42,5,40,1176450050,24.50,66.55177,55.881954,1,1,1,19.5
Status,,50,43,5,19,1575420030,23.00,318.06583,17.233057,1,1,1,18.0
Status,,50,44,5,20,1575420030,27.50,283.8917,59.674904,1,1,1,22.5
Status,,50,45,5,27,1575420030,36.70,144.49747,31.304914,1,1,1,31.7
Status,,50,46,5,28,1575420030,37.00,92.71279,26.226011,1,1,1,32.0
Status,,50,47,5,32,1575420030,39.60,174.52054,45.56794,1,1,1,34.6
Status,,50,48,5,39,1575420030,30.60,68.19496,33.626934,1,1,1,25.6
Status,,50,49,5,40,1575420030,40.60,66.55177,55.881954,1,1,1,35.6
Raw,1730973590414,924097655000000,18,0.0,-1414084710759311833,-0.20283889770507812,23.631608200958,-4.670634874311144,9.756793365822883,51,4,0.0,16399,381608347069222,13,41.4,46.052703857421875,0.041391950100660324,16,0.0,0.0,1575420030,,,,0,0.0,1,-53.5,36.4,0.0,0.0,,,C,771632515789467,0
Raw,1730973590414,924097655000000,18,0.0,-1414084710759311833,-0.20283889770507812,23.631608200958,-4.670634874311144,9.756793365822883,51,8,0.0,16399,381608345399740,5,50.3,63.46138381958008,0.03900664299726486,16,0.0,0.0,1575420030,,,,0,0.0,1,-53.5,45.3,0.0,0.0,,,C,771632515789467,0
Raw,1730973590414,924097655000000,18,0.0,-1414084710759311833,-0.20283889770507812,23.631608200958,-4.670634874311144,9.756793365822883,51,9,0.0,16399,381608346165428,17,38.5,-301.91998291015625,0.05029437690973282,16,0.0,0.0,1575420030,,,,0,0.0,1,-53.5,33.5,0.0,0.0,,,C,771632515789467,0
Raw,1730973590414,924097655000000,18,0.0,-1414084710759311833,-0.20283889770507812,23.631608200958,-4.670634874311144,9.756793365822883,51,21,0.0,16399,381608335147418,70,27.0,-247.61013793945312,1.7090001106262207,16,0.0,0.0,1575420030,,,,0,0.0,1,-53.5,22.0,0.0,0.0,,,C,771632515789467,0
Raw,1730973590414,924097655000000,18,0.0,-1414084710759311833,-0.20283889770507812,23.631608200958,-4.670634874311144,9.756793365822883,51,7,0.0,49359,46790348025740,11,42.5,477.9555969238281,0.038075655698776245,16,0.0,0.0,1604812540,,,,0,0.0,3,-55.63,38.5,3794.171875,10.548528671264648,,,C,771632515789467,0
Raw,1730973590414,924097655000000,18,0.0,-1414084710759311833,-0.20283889770507812,23.631608200958,-4.670634874311144,9.756793365822883,51,60,0.0,16399,381594294105802,7,47.0,2.7797815799713135,0.042444534599781036,16,0.0,0.0,1561097980,,,,0,0.0,5,-60.97,42.7,-1538.5477294921875,8.149100303649902,,,I,771632515789467,0
Raw,1730973590414,924097655000000,18,0.0,-1414084710759311833,-0.20283889770507812,23.631608200958,-4.670634874311144,9.756793365822883,51,40,0.0,16399,381594291127942,7,46.5,-33.50621795654297,0.031244073063135147,16,0.0,0.0,1561097980,,,,0,0.0,5,-60.97,42.2,-1538.5477294921875,8.149100303649902,,,I,771632515789467,0
Raw,1730973590414,924097655000000,18,0.0,-1414084710759311833,-0.20283889770507812,23.631608200958,-4.670634874311144,9.756793365822883,51,39,0.0,16399,381594286852031,19,36.8,-138.18995666503906,0.06044454127550125,16,0.0,0.0,1561097980,,,,0,0.0,5,-60.97,32.5,-1538.5477294921875,8.149100303649902,,,I,771632515789467,0
Raw,1730973590414,924097655000000,18,0.0,-1414084710759311833,-0.20283889770507812,23.631608200958,-4.670634874311144,9.756793365822883,51,32,0.0,16399,381594336826643,9,44.5,484.53765869140625,0.02485790103673935,16,0.0,0.0,1561097980,,,,0,0.0,5,-60.97,40.2,-1538.5477294921875,8.149100303649902,,,I,771632515789467,0
Raw,1730973590414,924097655000000,18,0.0,-1414084710759311833,-0.20283889770507812,23.631608200958,-4.670634874311144,9.756793365822883,51,28,0.0,16399,381594332904413,10,43.9,-95.15430450439453,0.03145322576165199,16,0.0,0.0,1561097980,,,,0,0.0,5,-60.97,39.6,-1538.5477294921875,8.149100303649902,,,I,771632515789467,0
Raw,1730973590414,924097655000000,18,0.0,-1414084710759311833,-0.20283889770507812,23.631608200958,-4.670634874311144,9.756793365822883,51,27,0.0,16399,381594334479575,11,43.1,-371.5891418457031,0.02925978973507881,16,0.0,0.0,1561097980,,,,0,0.0,5,-60.97,38.800000000000004,-1538.5477294921875,8.149100303649902,,,I,771632515789467,0
Raw,1730973590414,924097655000000,18,0.0,-1414084710759311833,-0.20283889770507812,23.631608200958,-4.670634874311144,9.756793365822883,51,20,0.0,16399,381594339255252,70,27.1,-76.49893188476562,0.9950000047683716,16,0.0,0.0,1561097980,,,,0,0.0,5,-60.97,22.8,-1538.5477294921875,8.149100303649902,,,I,771632515789467,0
Raw,1730973590414,924097655000000,18,0.0,-1414084710759311833,-0.20283889770507812,23.631608200958,-4.670634874311144,9.756793365822883,51,10,0.0,16399,381594292754212,13,40.4,-45.76236343383789,0.03396894410252571,16,0.0,0.0,1561097980,,,,0,0.0,5,-60.97,36.1,-1538.5477294921875,8.149100303649902,,,I,771632515789467,0
Raw,1730973590414,924097655000000,18,0.0,-1414084710759311833,-0.20283889770507812,23.631608200958,-4.670634874311144,9.756793365822883,51,7,0.0,16399,381594292510590,13,40.8,-19.998727798461914,0.03396894410252571,16,0.0,0.0,1561097980,,,,0,0.0,5,-60.97,36.5,-1538.5477294921875,8.149100303649902,,,I,771632515789467,0
Raw,1730973590414,924097655000000,18,0.0,-1414084710759311833,-0.20283889770507812,23.631608200958,-4.670634874311144,9.756793365822883,51,5,0.0,16399,381594292876687,24,34.9,1.3538784980773926,3.2957000732421875,16,0.0,0.0,1561097980,,,,0,0.0,5,-60.97,30.599999999999998,-1538.5477294921875,8.149100303649902,,,I,771632515789467,0
Raw,1730973590414,924097655000000,18,0.0,-1414084710759311833,-0.20283889770507812,23.631608200958,-4.670634874311144,9.756793365822883,51,3,0.0,16399,381594291118532,13,40.4,-3.33188533782959,1.360700011253357,16,0.0,0.0,1561097980,,,,0,0.0,5,-60.97,36.1,-1538.5477294921875,8.149100303649902,,,I,771632515789467,0
Raw,1730973590414,924097655000000,18,0.0,-1414084710759311833,-0.20283889770507812,23.631608200958,-4.670634874311144,9.756793365822883,51,2,0.0,16399,381594294851687,9,45.2,3.256007671356201,0.09320056438446045,16,0.0,0.0,1561097980,,,,0,0.0,5,-60.97,40.900000000000006,-1538.5477294921875,8.149100303649902,,,I,771632515789467,0
Raw,1730973590414,924097655000000,18,0.0,-1414084710759311833,-0.20283889770507812,23.631608200958,-4.670634874311144,9.756793365822883,51,7,0.0,23567,381608336239453,11,42.9,-81.07363891601562,0.03219833970069885,16,0.0,0.0,1575420030,,,,0,0.0,6,-57.35,38.6,-1462.73876953125,8.339229583740234,,,C,771632515789467,0
Raw,1730973590414,924097655000000,18,0.0,-1414084710759311833,-0.20283889770507812,23.631608200958,-4.670634874311144,9.756793365822883,51,8,0.0,23567,381608328538237,17,37.4,348.0239562988281,0.06790715456008911,16,0.0,0.0,1575420030,,,,0,0.0,6,-57.35,33.1,-1462.73876953125,8.339229583740234,,,C,771632515789467,0
Raw,1730973590414,924097655000000,18,0.0,-1414084710759311833,-0.20283889770507812,23.631608200958,-4.670634874311144,9.756793365822883,51,21,0.0,23567,381608327889715,46,30.1,-238.10293579101562,0.09824328124523163,16,0.0,0.0,1575420030,,,,0,0.0,6,-57.35,25.8,-1462.73876953125,8.339229583740234,,,C,771632515789467,0
Raw,1730973590414,924097655000000,18,0.0,-1414084710759311833,-0.20283889770507812,23.631608200958,-4.670634874311144,9.756793365822883,51,27,0.0,23567,381608334607307,46,29.8,159.03904724121094,0.07274328172206879,16,0.0,0.0,1575420030,,,,0,0.0,6,-57.35,25.5,-1462.73876953125,8.339229583740234,,,C,771632515789467,0
Raw,1730973590414,924097655000000,18,0.0,-1414084710759311833,-0.20283889770507812,23.631608200958,-4.670634874311144,9.756793365822883,51,29,0.0,23567,381608328507064,27,33.4,-457.35498046875,0.06714597344398499,16,0.0,0.0,1575420030,,,,0,0.0,6,-57.35,29.099999999999998,-1462.73876953125,8.339229583740234,,,C,771632515789467,0
Raw,1730973590414,924097655000000,18,0.0,-1414084710759311833,-0.20283889770507812,23.631608200958,-4.670634874311144,9.756793365822883,51,8,0.0,81935,381608345399680,6,35.6,63.461883544921875,0.07702034711837769,16,0.0,0.0,1176450050,,,,0,0.0,1,-44.52,30.6,22.16719627380371,5.27748966217041,,,Q,771632515789467,0
Raw,1730973590414,924097655000000,18,0.0,-1414084710759311833,-0.20283889770507812,23.631608200958,-4.670634874311144,9.756793365822883,51,9,0.0,81935,381608346165391,14,27.9,-302.3025207519531,1.0205000638961792,16,0.0,0.0,1176450050,,,,0,0.0,1,-44.52,22.9,22.16719627380371,5.27748966217041,,,Q,771632515789467,0
Raw,1730973590414,924097655000000,18,0.0,-1414084710759311833,-0.20283889770507812,23.631608200958,-4.670634874311144,9.756793365822883,51,14,0.0,81935,381608335646717,34,20.0,-380.63665771484375,5.814000129699707,16,0.0,0.0,1176450050,,,,0,0.0,1,-44.52,15.0,22.16719627380371,5.27748966217041,,,Q,771632515789467,0
Raw,1730973590414,924097655000000,18,0.0,-1414084710759311833,-0.20283889770507812,23.631608200958,-4.670634874311144,9.756793365822883,51,7,0.0,81935,381608336239404,11,30.1,-81.09507751464844,0.1588515043258667,16,0.0,0.0,1176450050,,,,0,0.0,6,-44.52,24.8,-1448.857177734375,55.429019927978516,,,Q,771632515789467,0
Raw,1730973590414,924097655000000,18,0.0,-1414084710759311833,-0.20283889770507812,23.631608200958,-4.670634874311144,9.756793365822883,51,27,0.0,81935,381608334607293,9,31.8,159.04737854003906,0.8158560991287231,16,0.0,0.0,1176450050,,,,0,0.0,6,-44.52,26.5,-1448.857177734375,55.429019927978516,,,Q,771632515789467,0
Raw,1730973590414,924097655000000,18,0.0,-1414084710759311833,-0.20283889770507812,23.631608200958,-4.670634874311144,9.756793365822883,51,29,0.0,81935,381608328506955,9,31.4,-457.3602294921875,0.07237201929092407,16,0.0,0.0,1176450050,,,,0,0.0,6,-44.52,26.099999999999998,-1448.857177734375,55.429019927978516,,,Q,771632515789467,0
Raw,1730973590414,924097655000000,18,0.0,-1414084710759311833,-0.20283889770507812,23.631608200958,-4.670634874311144,9.756793365822883,51,20,0.0,16399,381594339255207,11,28.5,-76.36495208740234,0.19335150718688965,16,0.0,0.0,1176450050,,,,0,0.0,5,-44.52,24.0,-1501.9686279296875,55.16519546508789,,,Q,771632515789467,0
Raw,1730973590414,924097655000000,18,0.0,-1414084710759311833,-0.20283889770507812,23.631608200958,-4.670634874311144,9.756793365822883,51,27,0.0,16399,381594334479482,23,23.3,-371.819580078125,2.1725001335144043,16,0.0,0.0,1176450050,,,,0,0.0,5,-44.52,18.8,-1501.9686279296875,55.16519546508789,,,Q,771632515789467,0
Raw,1730973590414,924097655000000,18,0.0,-1414084710759311833,-0.20283889770507812,23.631608200958,-4.670634874311144,9.756793365822883,51,28,0.0,16399,381594332904327,11,28.8,-95.15892791748047,0.18285150825977325,16,0.0,0.0,1176450050,,,,0,0.0,5,-44.52,24.3,-1501.9686279296875,55.16519546508789,,,Q,771632515789467,0
Raw,1730973590414,924097655000000,18,0.0,-1414084710759311833,-0.20283889770507812,23.631608200958,-4.670634874311144,9.756793365822883,51,32,0.0,16399,381594336826591,14,27.0,484.4026184082031,1.0355000495910645,16,0.0,0.0,1176450050,,,,0,0.0,5,-44.52,22.5,-1501.9686279296875,55.16519546508789,,,Q,771632515789467,0
Raw,1730973590414,924097655000000,18,0.0,-1414084710759311833,-0.20283889770507812,23.631608200958,-4.670634874311144,9.756793365822883,51,39,0.0,16399,381594286851973,27,22.1,-138.38436889648438,3.000500202178955,16,0.0,0.0,1176450050,,,,0,0.0,5,-44.52,17.6,-1501.9686279296875,55.16519546508789,,,Q,771632515789467,0
Raw,1730973590414,924097655000000,18,0.0,-1414084710759311833,-0.20283889770507812,23.631608200958,-4.670634874311144,9.756793365822883,51,40,0.0,16399,381594291127873,11,29.0,-33.524471282958984,0.18135151267051697,16,0.0,0.0,1176450050,,,,0,0.0,5,-44.52,24.5,-1501.9686279296875,55.16519546508789,,,Q,771632515789467,0
Raw,1730973590414,924097655000000,18,0.0,-1414084710759311833,-0.20283889770507812,23.631608200958,-4.670634874311144,9.756793365822883,51,19,0.0,16399,381594328751590,12,30.0,-486.28594970703125,1.0385000705718994,16,0.0,0.0,1575420030,,,,0,0.0,5,-57.35,23.0,-1550.2059326171875,50.89910125732422,,,P,771632515789467,0
Raw,1730973590414,924097655000000,18,0.0,-1414084710759311833,-0.20283889770507812,23.631608200958,-4.670634874311144,9.756793365822883,51,20,0.0,16399,381594339255288,8,34.5,-76.38996124267578,0.07505223155021667,16,0.0,0.0,1575420030,,,,0,0.0,5,-57.35,27.5,-1550.2059326171875,50.89910125732422,,,P,771632515789467,0
Raw,1730973590414,924097655000000,18,0.0,-1414084710759311833,-0.20283889770507812,23.631608200958,-4.670634874311144,9.756793365822883,51,27,0.0,16399,381594334479590,3,43.7,-371.5908203125,0.060891952365636826,16,0.0,0.0,1575420030,,,,0,0.0,5,-57.35,36.7,-1550.2059326171875,50.89910125732422,,,P,771632515789467,0
Raw,1730973590414,924097655000000,18,0.0,-1414084710759311833,-0.20283889770507812,23.631608200958,-4.670634874311144,9.756793365822883,51,28,0.0,16399,381594332904426,3,44.0,-95.14970397949219,0.056997574865818024,16,0.0,0.0,1575420030,,,,0,0.0,5,-57.35,37.0,-1550.2059326171875,50.89910125732422,,,P,771632515789467,0
Raw,1730973590414,924097655000000,18,0.0,-1414084710759311833,-0.20283889770507812,23.631608200958,-4.670634874311144,9.756793365822883,51,32,0.0,16399,381594336826649,2,46.6,484.5401306152344,0.06139910966157913,16,0.0,0.0,1575420030,,,,0,0.0,5,-57.35,39.6,-1550.2059326171875,50.89910125732422,,,P,771632515789467,0
Raw,1730973590414,924097655000000,18,0.0,-1414084710759311833,-0.20283889770507812,23.631608200958,-4.670634874311144,9.756793365822883,51,39,0.0,16399,381594286852064,6,37.6,-138.1787872314453,0.08389182388782501,16,0.0,0.0,1575420030,,,,0,0.0,5,-57.35,30.6,-1550.2059326171875,50.89910125732422,,,P,771632515789467,0
Raw,1730973590414,924097655000000,18,0.0,-1414084710759311833,-0.20283889770507812,23.631608200958,-4.670634874311144,9.756793365822883,51,40,0.0,16399,381594291127951,2,47.6,-33.50918960571289,0.05330919474363327,16,0.0,0.0,1575420030,,,,0,0.0,5,-57.35,40.6,-1550.2059326171875,50.89910125732422,,,P,771632515789467,0
Agc,1730973590414,924097655000000,18,0.0,-1414084710759311833,-0.20283889770507812,23.631608200958,-4.670634874311144,9.756793365822883,51,-53.5,1575420000,1
Agc,1730973590414,924097655000000,18,0.0,-1414084710759311833,-0.20283889770507812,23.631608200958,-4.670634874311144,9.756793365822883,51,-53.5,1575420000,4
Agc,1730973590414,924097655000000,18,0.0,-1414084710759311833,-0.20283889770507812,23.631608200958,-4.670634874311144,9.756793365822883,51,-55.63,1602000000,3
Agc,1730973590414,924097655000000,18,0.0,-1414084710759311833,-0.20283889770507812,23.631608200958,-4.670634874311144,9.756793365822883,51,-60.97,1561098000,5
Agc,1730973590414,924097655000000,18,0.0,-1414084710759311833,-0.20283889770507812,23.631608200958,-4.670634874311144,9.756793365822883,51,-57.35,1575420000,6
Agc,1730973590414,924097655000000,18,0.0,-1414084710759311833,-0.20283889770507812,23.631608200958,-4.670634874311144,9.756793365822883,51,-44.52,1176450000,1
Agc,1730973590414,924097655000000,18,0.0,-1414084710759311833,-0.20283889770507812,23.631608200958,-4.670634874311144,9.756793365822883,51,-44.52,1176450000,4
Agc,1730973590414,924097655000000,18,0.0,-1414084710759311833,-0.20283889770507812,23.631608200958,-4.670634874311144,9.756793365822883,51,-44.52,1176450000,6
Agc,1730973590414,924097655000000,18,0.0,-1414084710759311833,-0.20283889770507812,23.631608200958,-4.670634874311144,9.756793365822883,51,-44.52,1176450000,5
Agc,1730973590414,924097655000000,18,0.0,-1414084710759311833,-0.20283889770507812,23.631608200958,-4.670634874311144,9.756793365822883,51,-57.35,1575420000,5
Fix,FLP,12.9294366000,77.5198374000,750.3999633789062,1.5180564,24.772,185.93025,1730973589035,1.5,45.0,771631537000000,1.4632326,0,,,
Status,,51,0,1,3,1575420030,20.40,187.83937,24.631954,1,1,1,15.4
Status,,51,1,1,4,1575420030,38.20,94.661446,73.7094,1,1,1,33.2
Status,,51,2,1,8,1575420030,45.10,83.73188,55.75062,1,1,1,40.1
Status,,51,3,1,9,1575420030,34.00,340.49304,65.189255,1,1,1,29.0
Status,,51,4,1,21,1575420030,22.00,140.2599,12.461386,1,1,1,17.0
Status,,51,5,1,30,1575420030,19.20,303.9716,11.020963,1,1,1,14.2
Status,,51,6,2,128,1575420030,44.80,0.0,0.0,0,0,0,39.8
Status,,51,7,3,11,1602000000,22.10,305.23718,32.89691,1,1,1,17.1
Status,,51,8,3,1,1602562560,22.80,332.15686,8.809233,1,1,1,17.8
Status,,51,9,3,21,1604249980,21.10,146.32271,13.753036,1,1,1,16.1
Status,,51,10,3,7,1604812540,37.90,170.76167,56.647655,1,1,1,32.9
Status,,51,11,3,8,1605374980,19.90,315.17087,64.775154,0,1,0,14.9
Status,,51,12,5,60,1561097980,43.30,170.50911,71.969315,0,1,0,38.3
Status,,51,13,5,40,1561097980,42.80,66.55177,55.881954,1,1,1,37.8
Status,,51,14,5,39,1561097980,34.50,68.19496,33.626934,1,1,1,29.5
Status,,51,15,5,32,1561097980,39.50,174.52054,45.56794,1,1,1,34.5
Status,,51,16,5,30,1561097980,21.90,191.50824,10.942409,0,1,1,16.9
Status,,51,17,5,28,1561097980,40.20,92.71279,26.226011,1,1,1,35.2
Status,,51,18,5,27,1561097980,39.40,144.49747,31.304914,1,1,1,34.4
Status,,51,19,5,20,1561097980,24.90,283.8917,59.674904,1,1,1,19.9
Status,,51,20,5,10,1561097980,36.50,100.51019,74.442085,1,1,1,31.5
Status,,51,21,5,7,1561097980,36.00,73.00482,65.284706,1,1,1,31.0
Status,,51,22,5,5,1561097980,30.60,236.43134,63.2429,1,1,1,25.6
Status,,51,23,5,3,1561097980,35.50,111.38528,48.533936,1,1,1,30.5
Status,,51,24,5,2,1561097980,41.30,155.14665,71.94476,1,1,1,36.3
Status,,51,25,6,7,1575420030,38.30,50.313774,76.67442,1,1,1,33.3
Status,,51,26,6,8,1575420030,33.40,130.20158,33.46629,1,1,1,28.4
Status,,51,27,6,21,1575420030,24.40,245.61931,31.929209,1,1,1,19.4
Status,,51,28,6,27,1575420030,27.00,320.78958,63.696617,1,1,1,22.0
Status,,51,29,6,29,1575420030,26.40,329.6237,32.033646,0,1,0,21.4
Status,,51,30,1,4,1176450050,20.60,94.661446,73.7094,1,1,1,15.6
Status,,51,31,1,8,1176450050,28.90,83.73188,55.75062,1,1,1,23.9
Status,,51,32,1,9,1176450050,22.00,340.49304,65.189255,1,1,1,17.0
Status,,51,33,1,14,1176450050,15.00,243.54083,20.610409,0,1,1,10.0
Status,,51,34,6,7,1176450050,24.10,50.313774,76.67442,1,1,1,19.1
Status,,51,35,6,21,1176450050,18.80,245.61931,31.929209,1,1,1,13.8
Status,,51,36,6,27,1176450050,26.30,320.78958,63.696617,1,1,1,21.3
Status,,51,37,6,29,1176450050,27.00,329.6237,32.033646,0,1,0,22.0
Status,,51,38,5,20,1176450050,26.10,283.8917,59.674904,1,1,1,21.1
Status,,51,39,5,27,1176450050,18.80,144.49747,31.304914,1,1,1,13.8
Status,,51,40,5,28,1176450050,24.80,92.71279,26.226011,1,1,1,19.8
Status,,51,41,5,32,1176450050,22.10,174.52054,45.56794,1,1,1,17.1
Status,,51,42,5,39,1176450050,17.60,68.19496,33.626934,0,1,1,12.6
Status,,51,43,5,40,1176450050,22.50,66.55177,55.881954,1,1,1,17.5
Status,,51,44,5,19,1575420030,23.10,318.06583,17.233057,1,1,1,18.1
