# 
# Header Description:
# 
# Version: v3.1.0.3 Platform: 14 Manufacturer: samsung Model: SM-M346B GNSS Hardware Model Name: S.LSI,K050,SPOTNAV_4.11.0_25_E17P
# 
# Raw,utcTimeMillis,TimeNanos,LeapSecond,TimeUncertaintyNanos,FullBiasNanos,BiasNanos,BiasUncertaintyNanos,DriftNanosPerSecond,DriftUncertaintyNanosPerSecond,HardwareClockDiscontinuityCount,Svid,TimeOffsetNanos,State,ReceivedSvTimeNanos,ReceivedSvTimeUncertaintyNanos,Cn0DbHz,PseudorangeRateMetersPerSecond,PseudorangeRateUncertaintyMetersPerSecond,AccumulatedDeltaRangeState,AccumulatedDeltaRangeMeters,AccumulatedDeltaRangeUncertaintyMeters,CarrierFrequencyHz,CarrierCycles,CarrierPhase,CarrierPhaseUncertainty,MultipathIndicator,SnrInDb,ConstellationType,AgcDb,BasebandCn0DbHz,FullInterSignalBiasNanos,FullInterSignalBiasUncertaintyNanos,SatelliteInterSignalBiasNanos,SatelliteInterSignalBiasUncertaintyNanos,CodeType,ChipsetElapsedRealtimeNanos,IsFullTracking
# 
# UncalAccel,utcTimeMillis,elapsedRealtimeNanos,UncalAccelXMps2,UncalAccelYMps2,UncalAccelZMps2,BiasXMps2,BiasYMps2,BiasZMps2
# 
# Accel,utcTimeMillis,elapsedRealtimeNanos,AccelXMps2,AccelYMps2,AccelZMps2
# 
# UncalGyro,utcTimeMillis,elapsedRealtimeNanos,UncalGyroXRadPerSec,UncalGyroYRadPerSec,UncalGyroZRadPerSec,DriftXRadPerSec,DriftYRadPerSec,DriftZRadPerSec
# 
# Gyro,utcTimeMillis,elapsedRealtimeNanos,GyroXRadPerSec,GyroYRadPerSec,GyroZRadPerSec
# 
# UncalMag,utcTimeMillis,elapsedRealtimeNanos,UncalMagXMicroT,UncalMagYMicroT,UncalMagZMicroT,BiasXMicroT,BiasYMicroT,BiasZMicroT
# 
# Mag,utcTimeMillis,elapsedRealtimeNanos,MagXMicroT,MagYMicroT,MagZMicroT
# 
# Pressure,utcTimeMillis,elapsedRealtimeNanos,PressureHpa
# 
# OrientationDeg,utcTimeMillis,elapsedRealtimeNanos,yawDeg,rollDeg,pitchDeg
# 
# Fix,Provider,LatitudeDegrees,LongitudeDegrees,AltitudeMeters,SpeedMps,AccuracyMeters,BearingDegrees,UnixTimeMillis,SpeedAccuracyMps,BearingAccuracyDegrees,elapsedRealtimeNanos,VerticalAccuracyMeters,MockLocation,NumberOfUsedSignals,VerticalSpeedAccuracyMps,SolutionType
# 
# Nav,Svid,Type,Status,MessageId,Sub-messageId,Data(Bytes)
# 
# Status,UnixTimeMillis,SignalCount,SignalIndex,ConstellationType,Svid,CarrierFrequencyHz,Cn0DbHz,AzimuthDegrees,ElevationDegrees,UsedInFix,HasAlmanacData,HasEphemerisData,BasebandCn0DbHz
# 
# Agc,utcTimeMillis,TimeNanos,LeapSecond,TimeUncertaintyNanos,FullBiasNanos,BiasNanos,BiasUncertaintyNanos,DriftNanosPerSecond,DriftUncertaintyNanosPerSecond,HardwareClockDiscontinuityCount,AgcDb,CarrierFrequencyHz,ConstellationType
# 
Raw,1730973590972,3553816238,18,0.0,-1415008805418830080,0.0,2000041.875,48.75667190551758,0.0,0,7,0.0,19,2317955,13,35.900001525878906,-201.6608123779297,0.10473287850618362,16,0.0,0.07405661791563034,1575420030,,,,0,,1,1.2999999523162842,30.899999618530273,0.0,0.0,0.0,0.0,C,1868496324689963,
Raw,1730973590972,3553816238,18,0.0,-1415008805418830080,0.0,2000041.875,48.75667190551758,0.0,0,9,0.0,19,11854004,16,32.70000076293945,-286.28765869140625,0.13032881915569305,19,-28963.202521854597,0.1873023509979248,1575420030,,,,0,,1,1.2999999523162842,27.700000762939453,0.0,0.0,0.0,0.0,C,1868496324689963,
Raw,1730973590972,3553816238,18,0.0,-1415008805418830080,0.0,2000041.875,48.75667190551758,0.0,0,4,0.0,19,12757120,19,29.899999618530273,61.65427017211914,0.16128772497177124,16,0.0,0.11404655128717422,1575420030,,,,0,,1,1.2999999523162842,24.899999618530273,0.0,0.0,0.0,0.0,C,1868496324689963,
Raw,1730973590972,3553816238,18,0.0,-1415008805418830080,0.0,2000041.875,48.75667190551758,0.0,0,8,0.0,19,11087691,18,31.0,78.85347747802734,0.14792899787425995,16,0.0,0.10460059344768524,1575420030,,,,0,,1,1.2999999523162842,26.0,0.0,0.0,0.0,0.0,C,1868496324689963,
Raw,1730973590972,3553816238,18,0.0,-1415008805418830080,0.0,2000041.875,48.75667190551758,0.0,0,3,0.0,19,2523371,24,26.299999237060547,552.1715698242188,0.22041483223438263,16,0.0,0.15585532784461975,1575420030,,,,0,,1,1.2999999523162842,21.299999237060547,0.0,0.0,0.0,0.0,C,1868496324689963,
Raw,1730973590972,3553816238,18,0.0,-1415008805418830080,0.0,2000041.875,48.75667190551758,0.0,0,20,0.0,51,4941871,14,35.0,-60.6676139831543,0.1111111119389534,16,0.0,0.07856667041778564,1561097980,,,,0,,5,1.2999999523162842,30.0,0.0,0.0,0.0,0.0,C,1868496324689963,
Raw,1730973590972,3553816238,18,0.0,-1415008805418830080,0.0,2000041.875,48.75667190551758,0.0,0,11,0.0,51,8315322,14,34.400001525878906,122.2376937866211,0.11569254100322723,16,0.0,0.08180619776248932,1602000000,,,,0,,3,1.2999999523162842,29.399999618530273,0.0,0.0,0.0,0.0,C,1868496324689963,
Raw,1730973590972,3553816238,18,0.0,-1415008805418830080,0.0,2000041.875,48.75667190551758,0.0,0,28,0.0,51,18591059,17,31.299999237060547,-79.80641174316406,0.14457345008850098,16,0.0,0.10222788900136948,1561097980,,,,0,,5,1.2999999523162842,26.299999237060547,0.0,0.0,0.0,0.0,C,1868496324689963,
Raw,1730973590972,3553816238,18,0.0,-1415008805418830080,0.0,2000041.875,48.75667190551758,0.0,0,10,0.0,51,18440686,18,31.100000381469727,-30.527910232543945,0.14679761230945587,16,0.0,0.10380059480667114,1561097980,,,,0,,5,1.2999999523162842,26.100000381469727,0.0,0.0,0.0,0.0,C,1868496324689963,
Raw,1730973590972,3553816238,18,0.0,-1415008805418830080,0.0,2000041.875,48.75667190551758,0.0,0,7,0.0,51,13716569,16,32.29999923706055,493.1878356933594,0.13417595624923706,16,0.0,0.09487581998109818,1604812540,,,,0,,3,1.2999999523162842,27.299999237060547,0.0,0.0,0.0,0.0,C,1868496324689963,
Raw,1730973590972,3553816238,18,0.0,-1415008805418830080,0.0,2000041.875,48.75667190551758,0.0,0,21,0.0,51,2376713,17,31.299999237060547,-477.39410400390625,0.14457345008850098,16,0.0,0.10222788900136948,1604249980,,,,0,,3,1.2999999523162842,26.299999237060547,0.0,0.0,0.0,0.0,C,1868496324689963,
Raw,1730973590972,3553816238,18,0.0,-1415008805418830080,0.0,2000041.875,48.75667190551758,0.0,0,32,0.0,51,2512146,18,30.899999618530273,500.1857604980469,0.1490735113620758,16,0.0,0.1054098829627037,1561097980,,,,0,,5,1.2999999523162842,25.899999618530273,0.0,0.0,0.0,0.0,C,1868496324689963,
Raw,1730973590972,3553816238,18,0.0,-1415008805418830080,0.0,2000041.875,48.75667190551758,0.0,0,19,0.0,51,14438936,23,27.0,-471.0289611816406,0.20661157369613647,16,0.0,0.14609503746032715,1561097980,,,,0,,5,1.2999999523162842,22.0,0.0,0.0,0.0,0.0,C,1868496324689963,
Raw,1730973590972,3553816238,18,0.0,-1415008805418830080,0.0,2000041.875,48.75667190551758,0.0,0,7,0.0,51,18197055,23,27.399999618530273,-4.6208086013793945,0.19929847121238708,16,0.0,0.14092394709587097,1561097980,,,,0,,5,1.2999999523162842,22.399999618530273,0.0,0.0,0.0,0.0,C,1868496324689963,
Raw,1730973592026,4581229030,18,0.0,-1415008805445230848,0.0,2000041.875,50.654090881347656,0.0,0,9,0.0,19,19267774,14,35.0,-286.38873291015625,0.1111111119389534,19,-29257.40462251396,0.17371350526809692,1575420030,,,,0,,1,1.2999999523162842,30.0,0.0,0.0,0.0,0.0,C,1868497352103598,
Raw,1730973592026,4581229030,18,0.0,-1415008805445230848,0.0,2000041.875,50.654090881347656,0.0,0,7,0.0,19,9731423,13,35.70000076293945,-201.0408477783203,0.10610191524028778,16,0.0,0.07502466440200806,1575420030,,,,0,,1,1.2999999523162842,30.700000762939453,0.0,0.0,0.0,0.0,C,1868497352103598,
Raw,1730973592026,4581229030,18,0.0,-1415008805445230848,0.0,2000041.875,50.654090881347656,0.0,0,8,0.0,19,18500154,16,32.70000076293945,78.99534606933594,0.13032881915569305,16,0.0,0.09215550869703293,1575420030,,,,0,,1,1.2999999523162842,27.700000762939453,0.0,0.0,0.0,0.0,C,1868497352103598,
Raw,1730973592026,4581229030,18,0.0,-1415008805445230848,0.0,2000041.875,50.654090881347656,0.0,0,4,0.0,19,169692,17,31.399999618530273,61.844635009765625,0.14348027110099792,16,0.0,0.10145489871501923,1575420030,,,,0,,1,1.2999999523162842,26.399999618530273,0.0,0.0,0.0,0.0,C,1868497352103598,
Raw,1730973592026,4581229030,18,0.0,-1415008805445230848,0.0,2000041.875,50.654090881347656,0.0,0,3,0.0,19,9934137,24,26.299999237060547,552.60986328125,0.22041483223438263,16,0.0,0.15585532784461975,1575420030,,,,0,,1,1.2999999523162842,21.299999237060547,0.0,0.0,0.0,0.0,C,1868497352103598,
Raw,1730973592026,4581229030,18,0.0,-1415008805445230848,0.0,2000041.875,50.654090881347656,0.0,0,2,0.0,19,6953026,29,24.299999237060547,-212.49127197265625,0.2684636116027832,16,0.0,0.18983061611652374,1575420030,,,,0,,1,1.2999999523162842,19.299999237060547,0.0,0.0,0.0,0.0,C,1868497352103598,
Raw,1730973592026,4581229030,18,0.0,-1415008805445230848,0.0,2000041.875,50.654090881347656,0.0,0,20,0.0,51,12354863,13,36.099998474121094,-60.69396209716797,0.1033901646733284,19,-32278.035759437364,0.16912692785263062,1561097980,,,,0,,5,1.2999999523162842,31.100000381469727,0.0,0.0,0.0,0.0,C,1868497352103598,
Raw,1730973592026,4581229030,18,0.0,-1415008805445230848,0.0,2000041.875,50.654090881347656,0.0,0,7,0.0,51,1127684,14,35.29999923706055,493.90228271484375,0.10892178863286972,16,0.0,0.07701859623193741,1604812540,,,,0,,3,1.2999999523162842,30.299999237060547,0.0,0.0,0.0,0.0,C,1868497352103598,
Raw,1730973592026,4581229030,18,0.0,-1415008805445230848,0.0,2000041.875,50.654090881347656,0.0,0,32,0.0,51,9923238,15,33.29999923706055,500.23699951171875,0.12486109882593155,19,-53335.98755228604,0.18430903553962708,1561097980,,,,0,,5,1.2999999523162842,28.299999237060547,0.0,0.0,0.0,0.0,C,1868497352103598,
Raw,1730973592026,4581229030,18,0.0,-1415008805445230848,0.0,2000041.875,50.654090881347656,0.0,0,11,0.0,51,15727674,15,34.29999923706055,122.37730407714844,0.11648360639810562,16,0.0,0.08236555755138397,1602000000,,,,0,,3,1.2999999523162842,29.299999237060547,0.0,0.0,0.0,0.0,C,1868497352103598,
Raw,1730973592026,4581229030,18,0.0,-1415008805445230848,0.0,2000041.875,50.654090881347656,0.0,0,7,0.0,1040,1339153,21,28.200000762939453,-63.768375396728516,0.18579070270061493,16,0.0,0.1313726007938385,1575420030,,,,0,,6,1.2999999523162842,23.200000762939453,0.0,0.0,0.0,0.0,C,1868497352103598,
Raw,1730973592026,4581229030,18,0.0,-1415008805445230848,0.0,2000041.875,50.654090881347656,0.0,0,21,0.0,51,9791159,17,31.299999237060547,-477.2229919433594,0.14457345008850098,16,0.0,0.10222788900136948,1604249980,,,,0,,3,1.2999999523162842,26.299999237060547,0.0,0.0,0.0,0.0,C,1868497352103598,
Raw,1730973592026,4581229030,18,0.0,-1415008805445230848,0.0,2000041.875,50.654090881347656,0.0,0,28,0.0,51,6004095,17,31.200000762939453,-79.3145980834961,0.14567914605140686,16,0.0,0.10300972312688828,1561097980,,,,0,,5,1.2999999523162842,26.200000762939453,0.0,0.0,0.0,0.0,C,1868497352103598,
Raw,1730973592026,4581229030,18,0.0,-1415008805445230848,0.0,2000041.875,50.654090881347656,0.0,0,10,0.0,51,5853627,18,31.0,-30.3054256439209,0.14792899787425995,16,0.0,0.10460059344768524,1561097980,,,,0,,5,1.2999999523162842,26.0,0.0,0.0,0.0,0.0,C,1868497352103598,
Raw,1730973592026,4581229030,18,0.0,-1415008805445230848,0.0,2000041.875,50.654090881347656,0.0,0,8,0.0,51,2036135,19,29.5,-249.19424438476562,0.16659724712371826,16,0.0,0.11780091375112534,1605374980,,,,0,,3,1.2999999523162842,24.5,0.0,0.0,0.0,0.0,C,1868497352103598,
Raw,1730973592026,4581229030,18,0.0,-1415008805445230848,0.0,2000041.875,50.654090881347656,0.0,0,39,0.0,51,19951899,21,28.299999237060547,-122.2114028930664,0.18419939279556274,16,0.0,0.13024738430976868,1561097980,,,,0,,5,1.2999999523162842,23.299999237060547,0.0,0.0,0.0,0.0,C,1868497352103598,
Raw,1730973592026,4581229030,18,0.0,-1415008805445230848,0.0,2000041.875,50.654090881347656,0.0,0,19,0.0,51,1853331,21,28.5,-470.512451171875,0.18107740581035614,16,0.0,0.12803983688354492,1561097980,,,,0,,5,1.2999999523162842,23.5,0.0,0.0,0.0,0.0,C,1868497352103598,
Raw,1730973592026,4581229030,18,0.0,-1415008805445230848,0.0,2000041.875,50.654090881347656,0.0,0,29,0.0,1040,1608703,26,25.5,-441.6356506347656,0.23795360326766968,16,0.0,0.1682569980621338,1575420030,,,,0,,6,1.2999999523162842,20.5,0.0,0.0,0.0,0.0,C,1868497352103598,
Raw,1730973592026,4581229030,18,0.0,-1415008805445230848,0.0,2000041.875,50.654090881347656,0.0,0,7,0.0,51,5609842,23,27.399999618530273,-5.413866996765137,0.19929847121238708,16,0.0,0.14092394709587097,1561097980,,,,0,,5,1.2999999523162842,22.399999618530273,0.0,0.0,0.0,0.0,C,1868497352103598,
Raw,1730973592026,4581229030,18,0.0,-1415008805445230848,0.0,2000041.875,50.654090881347656,0.0,0,27,0.0,51,7580739,27,25.0,-355.5995178222656,0.25,16,0.0,0.1767749935388565,1561097980,,,,0,,5,1.2999999523162842,20.0,0.0,0.0,0.0,0.0,C,1868497352103598,
Raw,1730973592026,4581229030,18,0.0,-1415008805445230848,0.0,2000041.875,50.654090881347656,0.0,0,10,0.0,51,13456432,27,25.200000762939453,402.08172607421875,0.24507398903369904,16,0.0,0.17329181730747223,1598062460,,,,0,,3,1.2999999523162842,20.200000762939453,0.0,0.0,0.0,0.0,C,1868497352103598,
Raw,1730973592993,5554770664,18,0.0,-1415008805438988800,0.0,2000041.875,48.4908332824707,0.0,0,9,0.0,19,12810311,13,35.79999923706055,-286.4034118652344,0.10541407018899918,16,0.0,0.07453829050064087,1575420030,,,,0,,1,1.2999999523162842,30.799999237060547,0.0,0.0,0.0,0.0,C,1868498325647192,
Raw,1730973592993,5554770664,18,0.0,-1415008805438988800,0.0,2000041.875,48.4908332824707,0.0,0,7,0.0,19,3273711,13,35.599998474121094,-201.82090759277344,0.10679652541875839,19,-52882.086536133196,0.17066265642642975,1575420030,,,,0,,1,1.2999999523162842,30.600000381469727,0.0,0.0,0.0,0.0,C,1868498325647192,
Raw,1730973592993,5554770664,18,0.0,-1415008805438988800,0.0,2000041.875,48.4908332824707,0.0,0,4,0.0,19,13711125,16,32.400001525878906,61.1928596496582,0.13319836556911469,19,-28144.72565013838,0.18933139741420746,1575420030,,,,0,,1,1.2999999523162842,27.399999618530273,0.0,0.0,0.0,0.0,C,1868498325647192,
Raw,1730973592993,5554770664,18,0.0,-1415008805438988800,0.0,2000041.875,48.4908332824707,0.0,0,8,0.0,19,12041492,16,32.70000076293945,78.86961364746094,0.13032881915569305,19,-48524.02763229829,0.1873023509979248,1575420030,,,,0,,1,1.2999999523162842,27.700000762939453,0.0,0.0,0.0,0.0,C,1868498325647192,
Raw,1730973592993,5554770664,18,0.0,-1415008805438988800,0.0,2000041.875,48.4908332824707,0.0,0,3,0.0,19,3473950,24,26.600000381469727,551.9767456054688,0.21433469653129578,16,0.0,0.15155605971813202,1575420030,,,,0,,1,1.2999999523162842,21.600000381469727,0.0,0.0,0.0,0.0,C,1868498325647192,
Raw,1730973592993,5554770664,18,0.0,-1415008805438988800,0.0,2000041.875,48.4908332824707,0.0,0,2,0.0,19,495318,26,25.399999618530273,-212.40951538085938,0.24029220640659332,16,0.0,0.16991062462329865,1575420030,,,,0,,1,1.2999999523162842,20.399999618530273,0.0,0.0,0.0,0.0,C,1868498325647192,
Raw,1730973592993,5554770664,18,0.0,-1415008805438988800,0.0,2000041.875,48.4908332824707,0.0,0,30,0.0,19,17978105,28,24.799999237060547,-263.31610107421875,0.25507602095603943,16,0.0,0.18036425113677979,1575420030,,,,0,,1,1.2999999523162842,19.799999237060547,0.0,0.0,0.0,0.0,C,1868498325647192,
Raw,1730973592993,5554770664,18,0.0,-1415008805438988800,0.0,2000041.875,48.4908332824707,0.0,0,20,0.0,51,5896693,13,36.599998474121094,-60.79084014892578,0.10014420747756958,19,-32337.182549112593,0.16683171689510345,1561097980,,,,0,,5,1.2999999523162842,31.600000381469727,0.0,0.0,0.0,0.0,C,1868498325647192,
Raw,1730973592993,5554770664,18,0.0,-1415008805438988800,0.0,2000041.875,48.4908332824707,0.0,0,7,0.0,51,14667693,14,35.29999923706055,493.06378173828125,0.10892178863286972,16,0.0,0.07701859623193741,1604812540,,,,0,,3,1.2999999523162842,30.299999237060547,0.0,0.0,0.0,0.0,C,1868498325647192,
Raw,1730973592993,5554770664,18,0.0,-1415008805438988800,0.0,2000041.875,48.4908332824707,0.0,0,32,0.0,51,3463230,15,33.79999923706055,499.4749450683594,0.12056328356266022,19,-52849.152205975275,0.181270033121109,1561097980,,,,0,,5,1.2999999523162842,28.799999237060547,0.0,0.0,0.0,0.0,C,1868498325647192,
Raw,1730973592993,5554770664,18,0.0,-1415008805438988800,0.0,2000041.875,48.4908332824707,0.0,0,11,0.0,51,9268868,15,34.099998474121094,122.20631408691406,0.11809024214744568,16,0.0,0.08350160717964172,1602000000,,,,0,,3,1.2999999523162842,29.100000381469727,0.0,0.0,0.0,0.0,C,1868498325647192,
Raw,1730973592993,5554770664,18,0.0,-1415008805438988800,0.0,2000041.875,48.4908332824707,0.0,0,10,0.0,51,19395330,18,30.899999618530273,-30.647842407226562,0.1490735113620758,16,0.0,0.1054098829627037,1561097980,,,,0,,5,1.2999999523162842,25.899999618530273,0.0,0.0,0.0,0.0,C,1868498325647192,
Raw,1730973592993,5554770664,18,0.0,-1415008805438988800,0.0,2000041.875,48.4908332824707,0.0,0,21,0.0,51,3334317,17,31.200000762939453,-477.7358703613281,0.14567914605140686,16,0.0,0.10300972312688828,1604249980,,,,0,,3,1.2999999523162842,26.200000762939453,0.0,0.0,0.0,0.0,C,1868498325647192,
Raw,1730973592993,5554770664,18,0.0,-1415008805438988800,0.0,2000041.875,48.4908332824707,0.0,0,28,0.0,51,19545998,18,31.100000381469727,-80.15294647216797,0.14679761230945587,16,0.0,0.10380059480667114,1561097980,,,,0,,5,1.2999999523162842,26.100000381469727,0.0,0.0,0.0,0.0,C,1868498325647192,
Raw,1730973592993,5554770664,18,0.0,-1415008805438988800,0.0,2000041.875,48.4908332824707,0.0,0,19,0.0,51,15396488,21,28.5,-470.49505615234375,0.18107740581035614,16,0.0,0.12803983688354492,1561097980,,,,0,,5,1.2999999523162842,23.5,0.0,0.0,0.0,0.0,C,1868498325647192,
Raw,1730973592993,5554770664,18,0.0,-1415008805438988800,0.0,2000041.875,48.4908332824707,0.0,0,8,0.0,51,15578550,20,29.399999618530273,-249.2339324951172,0.1679656058549881,16,0.0,0.11876848340034485,1605374980,,,,0,,3,1.2999999523162842,24.399999618530273,0.0,0.0,0.0,0.0,C,1868498325647192,
Raw,1730973592993,5554770664,18,0.0,-1415008805438988800,0.0,2000041.875,48.4908332824707,0.0,0,7,0.0,51,19151502,23,27.399999618530273,-4.101190090179443,0.19929847121238708,16,0.0,0.14092394709587097,1561097980,,,,0,,5,1.2999999523162842,22.399999618530273,0.0,0.0,0.0,0.0,C,1868498325647192,
Raw,1730973592993,5554770664,18,0.0,-1415008805438988800,0.0,2000041.875,48.4908332824707,0.0,0,39,0.0,51,13493948,21,28.299999237060547,-122.92121124267578,0.18419939279556274,16,0.0,0.13024738430976868,1561097980,,,,0,,5,1.2999999523162842,23.299999237060547,0.0,0.0,0.0,0.0,C,1868498325647192,
Raw,1730973592993,5554770664,18,0.0,-1415008805438988800,0.0,2000041.875,48.4908332824707,0.0,0,7,0.0,1040,2880944,21,28.100000381469727,-64.9134750366211,0.18740276992321014,16,0.0,0.13251249492168427,1575420030,,,,0,,6,1.2999999523162842,23.100000381469727,0.0,0.0,0.0,0.0,C,1868498325647192,
Raw,1730973592993,5554770664,18,0.0,-1415008805438988800,0.0,2000041.875,48.4908332824707,0.0,0,40,0.0,51,17768951,25,25.899999618530273,-18.316415786743164,0.2289324849843979,16,0.0,0.16187815368175507,1561097980,,,,0,,5,1.2999999523162842,20.899999618530273,0.0,0.0,0.0,0.0,C,1868498325647192,
Raw,1730973592993,5554770664,18,0.0,-1415008805438988800,0.0,2000041.875,48.4908332824707,0.0,0,27,0.0,51,1123513,24,26.5,-355.9969177246094,0.21633315086364746,16,0.0,0.15296916663646698,1561097980,,,,0,,5,1.2999999523162842,21.5,0.0,0.0,0.0,0.0,C,1868498325647192,
Raw,1730973592993,5554770664,18,0.0,-1415008805438988800,0.0,2000041.875,48.4908332824707,0.0,0,21,0.0,1040,2532624,28,24.799999237060547,-225.59390258789062,0.25507602095603943,16,0.0,0.18036425113677979,1575420030,,,,0,,6,1.2999999523162842,19.799999237060547,0.0,0.0,0.0,0.0,C,1868498325647192,
Raw,1730973592993,5554770664,18,0.0,-1415008805438988800,0.0,2000041.875,48.4908332824707,0.0,0,29,0.0,1040,2151852,26,25.5,-442.1651611328125,0.23795360326766968,16,0.0,0.1682569980621338,1575420030,,,,0,,6,1.2999999523162842,20.5,0.0,0.0,0.0,0.0,C,1868498325647192,
Raw,1730973592993,5554770664,18,0.0,-1415008805438988800,0.0,2000041.875,48.4908332824707,0.0,0,10,0.0,51,6996867,26,25.700000762939453,402.5191955566406,0.23337766528129578,16,0.0,0.16502134501934052,1598062460,,,,0,,3,1.2999999523162842,20.700000762939453,0.0,0.0,0.0,0.0,C,1868498325647192,
Raw,1730973594007,6561071843,18,0.0,-1415008805446149376,0.0,2000041.875,46.72826385498047,0.0,0,9,0.0,19,19112485,13,35.79999923706055,-286.09674072265625,0.10541407018899918,16,0.0,0.07453829050064087,1575420030,,,,0,,1,1.2999999523162842,30.799999237060547,0.0,0.0,0.0,0.0,C,1868499331948965,
Raw,1730973594007,6561071843,18,0.0,-1415008805446149376,0.0,2000041.875,46.72826385498047,0.0,0,7,0.0,19,9575622,14,35.400001525878906,-201.2330322265625,0.1082063764333725,19,-53084.61939138491,0.17165955901145935,1575420030,,,,0,,1,1.2999999523162842,30.399999618530273,0.0,0.0,0.0,0.0,C,1868499331948965,
Raw,1730973594007,6561071843,18,0.0,-1415008805446149376,0.0,2000041.875,46.72826385498047,0.0,0,8,0.0,19,18342394,16,33.0,79.29603576660156,0.12755101919174194,19,-48444.36898348876,0.18533816933631897,1575420030,,,,0,,1,1.2999999523162842,28.0,0.0,0.0,0.0,0.0,C,1868499331948965,
Raw,1730973594007,6561071843,18,0.0,-1415008805446149376,0.0,2000041.875,46.72826385498047,0.0,0,4,0.0,19,12061,16,32.79999923706055,62.71696472167969,0.12939289212226868,16,0.0,0.09149371087551117,1575420030,,,,0,,1,1.2999999523162842,27.799999237060547,0.0,0.0,0.0,0.0,C,1868499331948965,
Raw,1730973594007,6561071843,18,0.0,-1415008805446149376,0.0,2000041.875,46.72826385498047,0.0,0,3,0.0,19,9773268,23,27.399999618530273,550.8544921875,0.19929847121238708,16,0.0,0.14092394709587097,1575420030,,,,0,,1,1.2999999523162842,22.399999618530273,0.0,0.0,0.0,0.0,C,1868499331948965,
Raw,1730973594007,6561071843,18,0.0,-1415008805446149376,0.0,2000041.875,46.72826385498047,0.0,0,30,0.0,19,4280129,27,25.100000381469727,-263.1202087402344,0.2475186139345169,16,0.0,0.17502041161060333,1575420030,,,,0,,1,1.2999999523162842,20.100000381469727,0.0,0.0,0.0,0.0,C,1868499331948965,
Raw,1730973594007,6561071843,18,0.0,-1415008805446149376,0.0,2000041.875,46.72826385498047,0.0,0,2,0.0,19,6797204,26,25.399999618530273,-213.1432342529297,0.24029220640659332,16,0.0,0.16991062462329865,1575420030,,,,0,,1,1.2999999523162842,20.399999618530273,0.0,0.0,0.0,0.0,C,1868499331948965,
Raw,1730973594007,6561071843,18,0.0,-1415008805446149376,0.0,2000041.875,46.72826385498047,0.0,0,20,0.0,51,12198061,13,36.599998474121094,-60.62297058105469,0.10014420747756958,19,-32398.232978102955,0.16683171689510345,1561097980,,,,0,,5,1.2999999523162842,31.600000381469727,0.0,0.0,0.0,0.0,C,1868499331948965,
Raw,1730973594007,6561071843,18,0.0,-1415008805446149376,0.0,2000041.875,46.72826385498047,0.0,0,7,0.0,51,967241,14,35.20000076293945,493.8912658691406,0.10964430868625641,16,0.0,0.07752948999404907,1604812540,,,,0,,3,1.2999999523162842,30.200000762939453,0.0,0.0,0.0,0.0,C,1868499331948965,
Raw,1730973594007,6561071843,18,0.0,-1415008805446149376,0.0,2000041.875,46.72826385498047,0.0,0,32,0.0,51,9762745,14,34.70000076293945,499.8785705566406,0.11336711049079895,19,-52346.0750420078,0.1761816293001175,1561097980,,,,0,,5,1.2999999523162842,29.700000762939453,0.0,0.0,0.0,0.0,C,1868499331948965,
Raw,1730973594007,6561071843,18,0.0,-1415008805446149376,0.0,2000041.875,46.72826385498047,0.0,0,11,0.0,51,15569618,15,34.0,121.78150177001953,0.11890606582164764,16,0.0,0.08407847583293915,1602000000,,,,0,,3,1.2999999523162842,29.0,0.0,0.0,0.0,0.0,C,1868499331948965,
Raw,1730973594007,6561071843,18,0.0,-1415008805446149376,0.0,2000041.875,46.72826385498047,0.0,0,10,0.0,51,5696593,17,31.299999237060547,-30.190706253051758,0.14457345008850098,16,0.0,0.10222788900136948,1561097980,,,,0,,5,1.2999999523162842,26.299999237060547,0.0,0.0,0.0,0.0,C,1868499331948965,
Raw,1730973594007,6561071843,18,0.0,-1415008805446149376,0.0,2000041.875,46.72826385498047,0.0,0,21,0.0,51,9637131,17,31.200000762939453,-478.06304931640625,0.14567914605140686,16,0.0,0.10300972312688828,1604249980,,,,0,,3,1.2999999523162842,26.200000762939453,0.0,0.0,0.0,0.0,C,1868499331948965,
Raw,1730973594007,6561071843,18,0.0,-1415008805446149376,0.0,2000041.875,46.72826385498047,0.0,0,28,0.0,51,5847445,18,31.0,-79.8152847290039,0.14792899787425995,16,0.0,0.10460059344768524,1561097980,,,,0,,5,1.2999999523162842,26.0,0.0,0.0,0.0,0.0,C,1868499331948965,
Raw,1730973594007,6561071843,18,0.0,-1415008805446149376,0.0,2000041.875,46.72826385498047,0.0,0,8,0.0,51,1880527,20,29.299999237060547,-248.4749755859375,0.16935087740421295,16,0.0,0.11974800378084183,1605374980,,,,0,,3,1.2999999523162842,24.299999237060547,0.0,0.0,0.0,0.0,C,1868499331948965,
Raw,1730973594007,6561071843,18,0.0,-1415008805446149376,0.0,2000041.875,46.72826385498047,0.0,0,19,0.0,51,1699305,21,28.399999618530273,-471.6818542480469,0.18262839317321777,16,0.0,0.12913653254508972,1561097980,,,,0,,5,1.2999999523162842,23.399999618530273,0.0,0.0,0.0,0.0,C,1868499331948965,
Raw,1730973594007,6561071843,18,0.0,-1415008805446149376,0.0,2000041.875,46.72826385498047,0.0,0,27,0.0,51,7425903,23,27.299999237060547,-355.98687744140625,0.20108991861343384,16,0.0,0.14219067990779877,1561097980,,,,0,,5,1.2999999523162842,22.299999237060547,0.0,0.0,0.0,0.0,C,1868499331948965,
Raw,1730973594007,6561071843,18,0.0,-1415008805446149376,0.0,2000041.875,46.72826385498047,0.0,0,21,0.0,1040,1834503,23,26.899999618530273,-223.33425903320312,0.20850275456905365,16,0.0,0.14743229746818542,1575420030,,,,0,,6,1.2999999523162842,21.899999618530273,0.0,0.0,0.0,0.0,C,1868499331948965,
Raw,1730973594007,6561071843,18,0.0,-1415008805446149376,0.0,2000041.875,46.72826385498047,0.0,0,7,0.0,1040,1182363,21,28.100000381469727,-66.17868041992188,0.18740276992321014,16,0.0,0.13251249492168427,1575420030,,,,0,,6,1.2999999523162842,23.100000381469727,0.0,0.0,0.0,0.0,C,1868499331948965,
Raw,1730973594007,6561071843,18,0.0,-1415008805446149376,0.0,2000041.875,46.72826385498047,0.0,0,40,0.0,51,4070197,23,27.200000762939453,-17.259340286254883,0.2029055953025818,16,0.0,0.1434745490550995,1561097980,,,,0,,5,1.2999999523162842,22.200000762939453,0.0,0.0,0.0,0.0,C,1868499331948965,
Raw,1730973594007,6561071843,18,0.0,-1415008805446149376,0.0,2000041.875,46.72826385498047,0.0,0,39,0.0,51,19795600,21,28.200000762939453,-122.89129638671875,0.18579070270061493,16,0.0,0.1313726007938385,1561097980,,,,0,,5,1.2999999523162842,23.200000762939453,0.0,0.0,0.0,0.0,C,1868499331948965,
Raw,1730973594007,6561071843,18,0.0,-1415008805446149376,0.0,2000041.875,46.72826385498047,0.0,0,7,0.0,51,5452723,23,27.299999237060547,-3.70626163482666,0.20108991861343384,16,0.0,0.14219067990779877,1561097980,,,,0,,5,1.2999999523162842,22.299999237060547,0.0,0.0,0.0,0.0,C,1868499331948965,
Raw,1730973594007,6561071843,18,0.0,-1415008805446149376,0.0,2000041.875,46.72826385498047,0.0,0,29,0.0,1040,1454502,25,26.200000762939453,-441.2031555175781,0.2224990874528885,16,0.0,0.15732909739017487,1575420030,,,,0,,6,1.2999999523162842,21.200000762939453,0.0,0.0,0.0,0.0,C,1868499331948965,
Raw,1730973594007,6561071843,18,0.0,-1415008805446149376,0.0,2000041.875,46.72826385498047,0.0,0,10,0.0,51,13296604,24,26.299999237060547,401.7215576171875,0.22041483223438263,16,0.0,0.15585532784461975,1598062460,,,,0,,3,1.2999999523162842,21.299999237060547,0.0,0.0,0.0,0.0,C,1868499331948965,
Raw,1730973595012,7553850938,18,0.0,-1415008805458412800,0.0,2000041.875,48.8595085144043,0.0,0,9,0.0,19,11892561,13,35.70000076293945,-286.6849670410156,0.10610191524028778,19,-30108.583151571365,0.17017149925231934,1575420030,,,,0,,1,1.2999999523162842,30.700000762939453,0.0,0.0,0.0,0.0,C,1868500324729643,
Raw,1730973595012,7553850938,18,0.0,-1415008805458412800,0.0,2000041.875,48.8595085144043,0.0,0,7,0.0,19,2355353,14,35.29999923706055,-202.06874084472656,0.10892178863286972,19,-53284.81204676298,0.1721654236316681,1575420030,,,,0,,1,1.2999999523162842,30.299999237060547,0.0,0.0,0.0,0.0,C,1868500324729643,
Raw,1730973595012,7553850938,18,0.0,-1415008805458412800,0.0,2000041.875,48.8595085144043,0.0,0,8,0.0,19,11121208,16,33.0,79.23184967041016,0.12755101919174194,16,0.0,0.0901913270354271,1575420030,,,,0,,1,1.2999999523162842,28.0,0.0,0.0,0.0,0.0,C,1868500324729643,
Raw,1730973595012,7553850938,18,0.0,-1415008805458412800,0.0,2000041.875,48.8595085144043,0.0,0,4,0.0,19,12790931,16,32.70000076293945,61.366455078125,0.13032881915569305,16,0.0,0.09215550869703293,1575420030,,,,0,,1,1.2999999523162842,27.700000762939453,0.0,0.0,0.0,0.0,C,1868500324729643,
Raw,1730973595012,7553850938,18,0.0,-1415008805458412800,0.0,2000041.875,48.8595085144043,0.0,0,3,0.0,19,2550547,23,27.399999618530273,551.2197265625,0.19929847121238708,16,0.0,0.14092394709587097,1575420030,,,,0,,1,1.2999999523162842,22.399999618530273,0.0,0.0,0.0,0.0,C,1868500324729643,
Raw,1730973595012,7553850938,18,0.0,-1415008805458412800,0.0,2000041.875,48.8595085144043,0.0,0,30,0.0,19,17060107,27,25.100000381469727,-263.0664367675781,0.2475186139345169,16,0.0,0.17502041161060333,1575420030,,,,0,,1,1.2999999523162842,20.100000381469727,0.0,0.0,0.0,0.0,C,1868500324729643,
Raw,1730973595012,7553850938,18,0.0,-1415008805458412800,0.0,2000041.875,48.8595085144043,0.0,0,2,0.0,19,19577014,26,25.299999237060547,-212.59063720703125,0.24266545474529266,16,0.0,0.1715887486934662,1575420030,,,,0,,1,1.2999999523162842,20.299999237060547,0.0,0.0,0.0,0.0,C,1868500324729643,
Raw,1730973595012,7553850938,18,0.0,-1415008805458412800,0.0,2000041.875,48.8595085144043,0.0,0,20,0.0,51,4977366,13,36.70000076293945,-60.95413589477539,0.09951337426900864,19,-32458.61007981602,0.16638565063476562,1561097980,,,,0,,5,1.2999999523162842,31.700000762939453,0.0,0.0,0.0,0.0,C,1868500324729643,
Raw,1730973595012,7553850938,18,0.0,-1415008805458412800,0.0,2000041.875,48.8595085144043,0.0,0,32,0.0,51,2540161,14,34.70000076293945,499.60906982421875,0.11336711049079895,19,-51849.90276139461,0.1761816293001175,1561097980,,,,0,,5,1.2999999523162842,29.700000762939453,0.0,0.0,0.0,0.0,C,1868500324729643,
Raw,1730973595012,7553850938,18,0.0,-1415008805458412800,0.0,2000041.875,48.8595085144043,0.0,0,7,0.0,51,13744739,14,35.20000076293945,493.2173767089844,0.10964430868625641,16,0.0,0.07752948999404907,1604812540,,,,0,,3,1.2999999523162842,30.200000762939453,0.0,0.0,0.0,0.0,C,1868500324729643,
Raw,1730973595012,7553850938,18,0.0,-1415008805458412800,0.0,2000041.875,48.8595085144043,0.0,0,11,0.0,51,8348378,15,33.79999923706055,122.88975524902344,0.12056328356266022,16,0.0,0.08525029569864273,1602000000,,,,0,,3,1.2999999523162842,28.799999237060547,0.0,0.0,0.0,0.0,C,1868500324729643,
Raw,1730973595012,7553850938,18,0.0,-1415008805458412800,0.0,2000041.875,48.8595085144043,0.0,0,10,0.0,51,18475821,17,31.299999237060547,-30.467348098754883,0.14457345008850098,16,0.0,0.10222788900136948,1561097980,,,,0,,5,1.2999999523162842,26.299999237060547,0.0,0.0,0.0,0.0,C,1868500324729643,
Raw,1730973595012,7553850938,18,0.0,-1415008805458412800,0.0,2000041.875,48.8595085144043,0.0,0,21,0.0,51,2417831,18,31.100000381469727,-477.7875061035156,0.14679761230945587,16,0.0,0.10380059480667114,1604249980,,,,0,,3,1.2999999523162842,26.100000381469727,0.0,0.0,0.0,0.0,C,1868500324729643,
Raw,1730973595012,7553850938,18,0.0,-1415008805458412800,0.0,2000041.875,48.8595085144043,0.0,0,28,0.0,51,18626772,18,30.899999618530273,-79.94491577148438,0.1490735113620758,16,0.0,0.1054098829627037,1561097980,,,,0,,5,1.2999999523162842,25.899999618530273,0.0,0.0,0.0,0.0,C,1868500324729643,
Raw,1730973595012,7553850938,18,0.0,-1415008805458412800,0.0,2000041.875,48.8595085144043,0.0,0,8,0.0,51,14660458,20,29.299999237060547,-248.89613342285156,0.16935087740421295,16,0.0,0.11974800378084183,1605374980,,,,0,,3,1.2999999523162842,24.299999237060547,0.0,0.0,0.0,0.0,C,1868500324729643,
Raw,1730973595012,7553850938,18,0.0,-1415008805458412800,0.0,2000041.875,48.8595085144043,0.0,0,27,0.0,1040,1325921,20,29.299999237060547,175.42025756835938,0.16935087740421295,16,0.0,0.11974800378084183,1575420030,,,,0,,6,1.2999999523162842,24.299999237060547,0.0,0.0,0.0,0.0,C,1868500324729643,
Raw,1730973595012,7553850938,18,0.0,-1415008805458412800,0.0,2000041.875,48.8595085144043,0.0,0,19,0.0,51,14479918,21,28.399999618530273,-471.5179138183594,0.18262839317321777,16,0.0,0.12913653254508972,1561097980,,,,0,,5,1.2999999523162842,23.399999618530273,0.0,0.0,0.0,0.0,C,1868500324729643,
Raw,1730973595012,7553850938,18,0.0,-1415008805458412800,0.0,2000041.875,48.8595085144043,0.0,0,7,0.0,51,18231787,22,27.600000381469727,-4.8732075691223145,0.19578666985034943,16,0.0,0.13844075798988342,1561097980,,,,0,,5,1.2999999523162842,22.600000381469727,0.0,0.0,0.0,0.0,C,1868500324729643,
Raw,1730973595012,7553850938,18,0.0,-1415008805458412800,0.0,2000041.875,48.8595085144043,0.0,0,40,0.0,51,16849368,22,27.600000381469727,-17.919292449951172,0.19578666985034943,16,0.0,0.13844075798988342,1561097980,,,,0,,5,1.2999999523162842,22.600000381469727,0.0,0.0,0.0,0.0,C,1868500324729643,
Raw,1730973595012,7553850938,18,0.0,-1415008805458412800,0.0,2000041.875,48.8595085144043,0.0,0,27,0.0,51,206195,23,27.399999618530273,-356.3145446777344,0.19929847121238708,16,0.0,0.14092394709587097,1561097980,,,,0,,5,1.2999999523162842,22.399999618530273,0.0,0.0,0.0,0.0,C,1868500324729643,
Raw,1730973595012,7553850938,18,0.0,-1415008805458412800,0.0,2000041.875,48.8595085144043,0.0,0,39,0.0,51,12575112,21,28.100000381469727,-122.35530090332031,0.18740276992321014,16,0.0,0.13251249492168427,1561097980,,,,0,,5,1.2999999523162842,23.100000381469727,0.0,0.0,0.0,0.0,C,1868500324729643,
Raw,1730973595012,7553850938,18,0.0,-1415008805458412800,0.0,2000041.875,48.8595085144043,0.0,0,21,0.0,1040,1614395,23,27.200000762939453,-222.06895446777344,0.2029055953025818,16,0.0,0.1434745490550995,1575420030,,,,0,,6,1.2999999523162842,22.200000762939453,0.0,0.0,0.0,0.0,C,1868500324729643,
Raw,1730973595012,7553850938,18,0.0,-1415008805458412800,0.0,2000041.875,48.8595085144043,0.0,0,29,0.0,1040,1235066,24,26.700000762939453,-440.8702087402344,0.21236379444599152,16,0.0,0.1501624435186386,1575420030,,,,0,,6,1.2999999523162842,21.700000762939453,0.0,0.0,0.0,0.0,C,1868500324729643,
Raw,1730973595012,7553850938,18,0.0,-1415008805458412800,0.0,2000041.875,48.8595085144043,0.0,0,7,0.0,1040,1961764,22,28.0,-66.36515045166016,0.18903592228889465,16,0.0,0.13366730511188507,1575420030,,,,0,,6,1.2999999523162842,23.0,0.0,0.0,0.0,0.0,C,1868500324729643,
Raw,1730973595012,7553850938,18,0.0,-1415008805458412800,0.0,2000041.875,48.8595085144043,0.0,0,10,0.0,51,6074344,24,26.299999237060547,401.1996154785156,0.22041483223438263,16,0.0,0.15585532784461975,1598062460,,,,0,,3,1.2999999523162842,21.299999237060547,0.0,0.0,0.0,0.0,C,1868500324729643,
Raw,1730973595295,7849552202,18,0.0,-1415008805446183424,0.0,358.5405578613281,51.0,0.0,0,9,0.0,15,381613227594090,13,35.70000076293945,-286.621337890625,0.10610191524028778,19,-30193.33372293497,0.17017149925231934,1575420030,,,,0,,1,1.2999999523162842,30.700000762939453,0.0,0.0,0.0,0.0,C,1868500620442614,
Raw,1730973595295,7849552202,18,0.0,-1415008805446183424,0.0,358.5405578613281,51.0,0.0,0,7,0.0,15,381613218056821,14,35.20000076293945,-202.0279541015625,0.10964430868625641,19,-53344.50942454125,0.17267632484436035,1575420030,,,,0,,1,1.2999999523162842,30.200000762939453,0.0,0.0,0.0,0.0,C,1868500620442614,
Raw,1730973595295,7849552202,18,0.0,-1415008805446183424,0.0,358.5405578613281,51.0,0.0,0,8,0.0,19,6822388,16,32.900001525878906,79.34788513183594,0.12846700847148895,16,0.0,0.09083902090787888,1575420030,,,,0,,1,1.2999999523162842,27.899999618530273,0.0,0.0,0.0,0.0,C,1868500620442614,
Raw,1730973595295,7849552202,18,0.0,-1415008805446183424,0.0,358.5405578613281,51.0,0.0,0,4,0.0,19,8492152,16,32.70000076293945,60.576255798339844,0.13032881915569305,16,0.0,0.09215550869703293,1575420030,,,,0,,1,1.2999999523162842,27.700000762939453,0.0,0.0,0.0,0.0,C,1868500620442614,
Raw,1730973595295,7849552202,18,0.0,-1415008805446183424,0.0,358.5405578613281,51.0,0.0,0,3,0.0,19,18251216,23,27.399999618530273,551.1814575195312,0.19929847121238708,16,0.0,0.14092394709587097,1575420030,,,,0,,1,1.2999999523162842,22.399999618530273,0.0,0.0,0.0,0.0,C,1868500620442614,
Raw,1730973595295,7849552202,18,0.0,-1415008805446183424,0.0,358.5405578613281,51.0,0.0,0,30,0.0,19,12761579,27,25.100000381469727,-263.2996826171875,0.2475186139345169,16,0.0,0.17502041161060333,1575420030,,,,0,,1,1.2999999523162842,20.100000381469727,0.0,0.0,0.0,0.0,C,1868500620442614,
Raw,1730973595295,7849552202,18,0.0,-1415008805446183424,0.0,358.5405578613281,51.0,0.0,0,2,0.0,19,15278432,27,25.200000762939453,-212.58583068847656,0.24507398903369904,16,0.0,0.17329181730747223,1575420030,,,,0,,1,1.2999999523162842,20.200000762939453,0.0,0.0,0.0,0.0,C,1868500620442614,
Raw,1730973595295,7849552202,18,0.0,-1415008805446183424,0.0,358.5405578613281,51.0,0.0,0,20,0.0,51,678694,13,36.79999923706055,-60.94407272338867,0.09888850152492523,19,-32476.623650069974,0.16594380140304565,1561097980,,,,0,,5,1.2999999523162842,31.799999237060547,0.0,0.0,0.0,0.0,C,1868500620442614,
Raw,1730973595295,7849552202,18,0.0,-1415008805446183424,0.0,358.5405578613281,51.0,0.0,0,32,0.0,51,18240943,14,34.70000076293945,499.46124267578125,0.11336711049079895,19,-51702.172134840934,0.1761816293001175,1561097980,,,,0,,5,1.2999999523162842,29.700000762939453,0.0,0.0,0.0,0.0,C,1868500620442614,
Raw,1730973595295,7849552202,18,0.0,-1415008805446183424,0.0,358.5405578613281,51.0,0.0,0,7,0.0,51,9445512,14,35.20000076293945,493.5860900878906,0.10964430868625641,16,0.0,0.07752948999404907,1604812540,,,,0,,3,1.2999999523162842,30.200000762939453,0.0,0.0,0.0,0.0,C,1868500620442614,
Raw,1730973595295,7849552202,18,0.0,-1415008805446183424,0.0,358.5405578613281,51.0,0.0,0,10,0.0,51,14177127,17,31.299999237060547,-30.139842987060547,0.14457345008850098,16,0.0,0.10222788900136948,1561097980,,,,0,,5,1.2999999523162842,26.299999237060547,0.0,0.0,0.0,0.0,C,1868500620442614,
Raw,1730973595295,7849552202,18,0.0,-1415008805446183424,0.0,358.5405578613281,51.0,0.0,0,28,0.0,51,14328123,18,30.700000762939453,-80.36563873291016,0.15140274167060852,16,0.0,0.1070568785071373,1561097980,,,,0,,5,1.2999999523162842,25.700000762939453,0.0,0.0,0.0,0.0,C,1868500620442614,
Raw,1730973595295,7849552202,18,0.0,-1415008805446183424,0.0,358.5405578613281,51.0,0.0,0,21,0.0,51,18119584,18,31.0,-477.9117126464844,0.14792899787425995,16,0.0,0.10460059344768524,1604249980,,,,0,,3,1.2999999523162842,26.0,0.0,0.0,0.0,0.0,C,1868500620442614,
Raw,1730973595295,7849552202,18,0.0,-1415008805446183424,0.0,358.5405578613281,51.0,0.0,0,27,0.0,1040,1027019,18,30.399999618530273,174.81590270996094,0.15500031411647797,16,0.0,0.1096007227897644,1575420030,,,,0,,6,1.2999999523162842,25.399999618530273,0.0,0.0,0.0,0.0,C,1868500620442614,
Raw,1730973595295,7849552202,18,0.0,-1415008805446183424,0.0,358.5405578613281,51.0,0.0,0,8,0.0,51,10362110,20,29.299999237060547,-248.95538330078125,0.16935087740421295,16,0.0,0.11974800378084183,1605374980,,,,0,,3,1.2999999523162842,24.299999237060547,0.0,0.0,0.0,0.0,C,1868500620442614,
Raw,1730973595295,7849552202,18,0.0,-1415008805446183424,0.0,358.5405578613281,51.0,0.0,0,11,0.0,51,4049134,15,33.5,122.79204559326172,0.12311480194330215,16,0.0,0.08705447614192963,1602000000,,,,0,,3,1.2999999523162842,28.5,0.0,0.0,0.0,0.0,C,1868500620442614,
Raw,1730973595295,7849552202,18,0.0,-1415008805446183424,0.0,358.5405578613281,51.0,0.0,0,19,0.0,51,10181643,21,28.5,-471.0321350097656,0.18107740581035614,16,0.0,0.12803983688354492,1561097980,,,,0,,5,1.2999999523162842,23.5,0.0,0.0,0.0,0.0,C,1868500620442614,
Raw,1730973595295,7849552202,18,0.0,-1415008805446183424,0.0,358.5405578613281,51.0,0.0,0,7,0.0,51,13933075,22,27.700000762939453,-4.317453861236572,0.19406546652317047,16,0.0,0.13722369074821472,1561097980,,,,0,,5,1.2999999523162842,22.700000762939453,0.0,0.0,0.0,0.0,C,1868500620442614,
Raw,1730973595295,7849552202,18,0.0,-1415008805446183424,0.0,358.5405578613281,51.0,0.0,0,40,0.0,51,12550661,22,27.600000381469727,-17.720136642456055,0.19578666985034943,16,0.0,0.13844075798988342,1561097980,,,,0,,5,1.2999999523162842,22.600000381469727,0.0,0.0,0.0,0.0,C,1868500620442614,
Raw,1730973595295,7849552202,18,0.0,-1415008805446183424,0.0,358.5405578613281,51.0,0.0,0,27,0.0,51,15907810,23,27.399999618530273,-356.86920166015625,0.19929847121238708,16,0.0,0.14092394709587097,1561097980,,,,0,,5,1.2999999523162842,22.399999618530273,0.0,0.0,0.0,0.0,C,1868500620442614,
Raw,1730973595295,7849552202,18,0.0,-1415008805446183424,0.0,358.5405578613281,51.0,0.0,0,39,0.0,51,8276467,21,28.100000381469727,-122.50524139404297,0.18740276992321014,16,0.0,0.13251249492168427,1561097980,,,,0,,5,1.2999999523162842,23.100000381469727,0.0,0.0,0.0,0.0,C,1868500620442614,
Raw,1730973595295,7849552202,18,0.0,-1415008805446183424,0.0,358.5405578613281,51.0,0.0,0,21,0.0,1040,1315899,23,27.200000762939453,-222.03396606445312,0.2029055953025818,16,0.0,0.1434745490550995,1575420030,,,,0,,6,1.2999999523162842,22.200000762939453,0.0,0.0,0.0,0.0,C,1868500620442614,
Raw,1730973595295,7849552202,18,0.0,-1415008805446183424,0.0,358.5405578613281,51.0,0.0,0,29,0.0,1040,1936761,24,26.700000762939453,-441.3017883300781,0.21236379444599152,16,0.0,0.1501624435186386,1575420030,,,,0,,6,1.2999999523162842,21.700000762939453,0.0,0.0,0.0,0.0,C,1868500620442614,
Raw,1730973595295,7849552202,18,0.0,-1415008805446183424,0.0,358.5405578613281,51.0,0.0,0,7,0.0,1040,1663123,22,27.899999618530273,-66.64045715332031,0.19069050252437592,16,0.0,0.13483725488185883,1575420030,,,,0,,6,1.2999999523162842,22.899999618530273,0.0,0.0,0.0,0.0,C,1868500620442614,
Raw,1730973595295,7849552202,18,0.0,-1415008805446183424,0.0,358.5405578613281,51.0,0.0,0,10,0.0,51,1775177,24,26.299999237060547,401.509033203125,0.22041483223438263,16,0.0,0.15585532784461975,1598062460,,,,0,,3,1.2999999523162842,21.299999237060547,0.0,0.0,0.0,0.0,C,1868500620442614,
Raw,1730973596000,8553834749,18,0.0,-1415008805446183424,0.0,50.034610748291016,47.23375701904297,0.0,0,9,0.0,15,381613931877310,13,35.599998474121094,-286.8209533691406,0.10679652541875839,17,-30395.31753333575,0.17066265642642975,1575420030,,,,0,,1,1.2999999523162842,30.600000381469727,0.0,0.0,0.0,0.0,C,1868500693704280,
Raw,1730973596000,8553834749,18,0.0,-1415008805446183424,0.0,50.034610748291016,47.23375701904297,0.0,0,7,0.0,15,381613922339847,14,35.099998474121094,-202.48609924316406,0.11037405580282211,16,0.0,0.07804549485445023,1575420030,,,,0,,1,1.2999999523162842,30.100000381469727,0.0,0.0,0.0,0.0,C,1868500693704280,
Raw,1730973596000,8553834749,18,0.0,-1415008805446183424,0.0,50.034610748291016,47.23375701904297,0.0,0,8,0.0,15,381613931104775,16,32.900001525878906,78.56303405761719,0.12846700847148895,16,0.0,0.09083902090787888,1575420030,,,,0,,1,1.2999999523162842,27.899999618530273,0.0,0.0,0.0,0.0,C,1868500693704280,
Raw,1730973596000,8553834749,18,0.0,-1415008805446183424,0.0,50.034610748291016,47.23375701904297,0.0,0,3,0.0,15,381613922532437,23,27.399999618530273,551.6104125976562,0.19929847121238708,16,0.0,0.14092394709587097,1575420030,,,,0,,1,1.2999999523162842,22.399999618530273,0.0,0.0,0.0,0.0,C,1868500693704280,
Raw,1730973596000,8553834749,18,0.0,-1415008805446183424,0.0,50.034610748291016,47.23375701904297,0.0,0,4,0.0,14,381613932774635,16,32.599998474121094,60.121734619140625,0.13127493858337402,16,0.0,0.09282451122999191,1575420030,,,,0,,1,1.2999999523162842,27.600000381469727,0.0,0.0,0.0,0.0,C,1868500693704280,
Raw,1730973596000,8553834749,18,0.0,-1415008805446183424,0.0,50.034610748291016,47.23375701904297,0.0,0,30,0.0,15,381613917044710,27,25.100000381469727,-263.6358337402344,0.2475186139345169,16,0.0,0.17502041161060333,1575420030,,,,0,,1,1.2999999523162842,20.100000381469727,0.0,0.0,0.0,0.0,C,1868500693704280,
Raw,1730973596000,8553834749,18,0.0,-1415008805446183424,0.0,50.034610748291016,47.23375701904297,0.0,0,2,0.0,15,381613919561475,27,25.0,-211.8157501220703,0.25,16,0.0,0.1767749935388565,1575420030,,,,0,,1,1.2999999523162842,20.0,0.0,0.0,0.0,0.0,C,1868500693704280,
Raw,1730973596000,8553834749,18,0.0,-1415008805446183424,0.0,50.034610748291016,47.23375701904297,0.0,0,20,0.0,51,4961388,13,36.900001525878906,-61.353912353515625,0.09826947748661041,19,-32519.65308435631,0.16550609469413757,1561097980,,,,0,,5,1.2999999523162842,31.899999618530273,0.0,0.0,0.0,0.0,C,1868500693704280,
Raw,1730973596000,8553834749,18,0.0,-1415008805446183424,0.0,50.034610748291016,47.23375701904297,0.0,0,32,0.0,51,2522309,14,35.20000076293945,499.1569519042969,0.10964430868625641,19,-51350.47130861238,0.17354923486709595,1561097980,,,,0,,5,1.2999999523162842,30.200000762939453,0.0,0.0,0.0,0.0,C,1868500693704280,
Raw,1730973596000,8553834749,18,0.0,-1415008805446183424,0.0,50.034610748291016,47.23375701904297,0.0,0,27,0.0,3072,20309153,16,33.099998474121094,173.5257568359375,0.1266447901725769,19,-145464.3110106328,0.18469735980033875,1575420030,,,,0,,6,1.2999999523162842,28.100000381469727,0.0,0.0,0.0,0.0,C,1868500693704280,
Raw,1730973596000,8553834749,18,0.0,-1415008805446183424,0.0,50.034610748291016,47.23375701904297,0.0,0,7,0.0,239,46795933726865,14,35.099998474121094,492.26300048828125,0.11037405580282211,16,0.0,0.07804549485445023,1604812540,,,,0,,3,1.2999999523162842,30.100000381469727,0.0,0.0,0.0,0.0,C,1868500693704280,
Raw,1730973596000,8553834749,18,0.0,-1415008805446183424,0.0,50.034610748291016,47.23375701904297,0.0,0,10,0.0,51,18459770,17,31.200000762939453,-30.460670471191406,0.14567914605140686,16,0.0,0.10300972312688828,1561097980,,,,0,,5,1.2999999523162842,26.200000762939453,0.0,0.0,0.0,0.0,C,1868500693704280,
Raw,1730973596000,8553834749,18,0.0,-1415008805446183424,0.0,50.034610748291016,47.23375701904297,0.0,0,28,0.0,51,18610853,18,30.700000762939453,-80.03767395019531,0.15140274167060852,16,0.0,0.1070568785071373,1561097980,,,,0,,5,1.2999999523162842,25.700000762939453,0.0,0.0,0.0,0.0,C,1868500693704280,
Raw,1730973596000,8553834749,18,0.0,-1415008805446183424,0.0,50.034610748291016,47.23375701904297,0.0,0,8,0.0,239,46795934645150,20,29.200000762939453,-249.11978149414062,0.1707533597946167,16,0.0,0.12073969841003418,1605374980,,,,0,,3,1.2999999523162842,24.200000762939453,0.0,0.0,0.0,0.0,C,1868500693704280,
Raw,1730973596000,8553834749,18,0.0,-1415008805446183424,0.0,50.034610748291016,47.23375701904297,0.0,0,21,0.0,239,46795922403361,18,30.700000762939453,-478.3632507324219,0.15140274167060852,16,0.0,0.1070568785071373,1604249980,,,,0,,3,1.2999999523162842,25.700000762939453,0.0,0.0,0.0,0.0,C,1868500693704280,
Raw,1730973596000,8553834749,18,0.0,-1415008805446183424,0.0,50.034610748291016,47.23375701904297,0.0,0,19,0.0,51,14465289,21,28.5,-471.14996337890625,0.18107740581035614,16,0.0,0.12803983688354492,1561097980,,,,0,,5,1.2999999523162842,23.5,0.0,0.0,0.0,0.0,C,1868500693704280,
Raw,1730973596000,8553834749,18,0.0,-1415008805446183424,0.0,50.034610748291016,47.23375701904297,0.0,0,8,0.0,3072,14236621,28,24.600000381469727,351.4798278808594,0.2603082060813904,16,0.0,0.18406392633914948,1575420030,,,,0,,6,1.2999999523162842,19.600000381469727,0.0,0.0,0.0,0.0,C,1868500693704280,
Raw,1730973596000,8553834749,18,0.0,-1415008805446183424,0.0,50.034610748291016,47.23375701904297,0.0,0,11,0.0,239,46795928331708,16,33.099998474121094,120.93277740478516,0.1266447901725769,16,0.0,0.08955053240060806,1602000000,,,,0,,3,1.2999999523162842,28.100000381469727,0.0,0.0,0.0,0.0,C,1868500693704280,
Raw,1730973596000,8553834749,18,0.0,-1415008805446183424,0.0,50.034610748291016,47.23375701904297,0.0,0,7,0.0,51,18215668,22,27.700000762939453,-5.1076765060424805,0.19406546652317047,16,0.0,0.13722369074821472,1561097980,,,,0,,5,1.2999999523162842,22.700000762939453,0.0,0.0,0.0,0.0,C,1868500693704280,
Raw,1730973596000,8553834749,18,0.0,-1415008805446183424,0.0,50.034610748291016,47.23375701904297,0.0,0,40,0.0,51,16833245,22,27.600000381469727,-19.764944076538086,0.19578666985034943,16,0.0,0.13844075798988342,1561097980,,,,0,,5,1.2999999523162842,22.600000381469727,0.0,0.0,0.0,0.0,C,1868500693704280,
Raw,1730973596000,8553834749,18,0.0,-1415008805446183424,0.0,50.034610748291016,47.23375701904297,0.0,0,27,0.0,51,191188,23,27.399999618530273,-356.9684753417969,0.19929847121238708,16,0.0,0.14092394709587097,1561097980,,,,0,,5,1.2999999523162842,22.399999618530273,0.0,0.0,0.0,0.0,C,1868500693704280,
Raw,1730973596000,8553834749,18,0.0,-1415008805446183424,0.0,50.034610748291016,47.23375701904297,0.0,0,21,0.0,3072,13598930,23,27.200000762939453,-223.45762634277344,0.2029055953025818,16,0.0,0.1434745490550995,1575420030,,,,0,,6,1.2999999523162842,22.200000762939453,0.0,0.0,0.0,0.0,C,1868500693704280,
Raw,1730973596000,8553834749,18,0.0,-1415008805446183424,0.0,50.034610748291016,47.23375701904297,0.0,0,39,0.0,51,12559267,22,28.0,-123.10051727294922,0.18903592228889465,16,0.0,0.13366730511188507,1561097980,,,,0,,5,1.2999999523162842,23.0,0.0,0.0,0.0,0.0,C,1868500693704280,
Raw,1730973596000,8553834749,18,0.0,-1415008805446183424,0.0,50.034610748291016,47.23375701904297,0.0,0,29,0.0,3072,14220344,24,26.600000381469727,-442.42840576171875,0.21433469653129578,16,0.0,0.15155605971813202,1575420030,,,,0,,6,1.2999999523162842,21.600000381469727,0.0,0.0,0.0,0.0,C,1868500693704280,
Raw,1730973596000,8553834749,18,0.0,-1415008805446183424,0.0,50.034610748291016,47.23375701904297,0.0,0,10,0.0,239,46795926056781,25,26.200000762939453,401.433349609375,0.2224990874528885,16,0.0,0.15732909739017487,1598062460,,,,0,,3,1.2999999523162842,21.200000762939453,0.0,0.0,0.0,0.0,C,1868500693704280,
Raw,1730973596999,9553816727,18,0.0,-1415008805446183168,0.0,50.034610748291016,45.494789123535156,0.0,0,9,0.0,15,381614931860265,14,35.5,-287.1717834472656,0.10749798268079758,17,-30682.43293914126,0.17115865647792816,1575420030,,,,0,,1,1.2999999523162842,30.5,0.0,0.0,0.0,0.0,C,1868501059700295,
Raw,1730973596999,9553816727,18,0.0,-1415008805446183168,0.0,50.034610748291016,45.494789123535156,0.0,0,7,0.0,15,381614922322479,14,35.0,-202.90362548828125,0.1111111119389534,19,-53689.552540209595,0.17371350526809692,1575420030,,,,0,,1,1.2999999523162842,30.0,0.0,0.0,0.0,0.0,C,1868501059700295,
Raw,1730973596999,9553816727,18,0.0,-1415008805446183168,0.0,50.034610748291016,45.494789123535156,0.0,0,4,0.0,15,381614932756365,16,32.20000076293945,60.46228790283203,0.13516435027122498,16,0.0,0.09557471424341202,1575420030,,,,0,,1,1.2999999523162842,27.200000762939453,0.0,0.0,0.0,0.0,C,1868501059700295,
Raw,1730973596999,9553816727,18,0.0,-1415008805446183168,0.0,50.034610748291016,45.494789123535156,0.0,0,3,0.0,15,381614922512612,23,27.299999237060547,551.3381958007812,0.20108991861343384,16,0.0,0.14219067990779877,1575420030,,,,0,,1,1.2999999523162842,22.299999237060547,0.0,0.0,0.0,0.0,C,1868501059700295,
Raw,1730973596999,9553816727,18,0.0,-1415008805446183168,0.0,50.034610748291016,45.494789123535156,0.0,0,30,0.0,15,381614917027643,27,25.0,-264.04364013671875,0.25,16,0.0,0.1767749935388565,1575420030,,,,0,,1,1.2999999523162842,20.0,0.0,0.0,0.0,0.0,C,1868501059700295,
Raw,1730973596999,9553816727,18,0.0,-1415008805446183168,0.0,50.034610748291016,45.494789123535156,0.0,0,8,0.0,15,381614931086529,17,32.0,78.2527847290039,0.13717420399188995,16,0.0,0.09699588268995285,1575420030,,,,0,,1,1.2999999523162842,27.0,0.0,0.0,0.0,0.0,C,1868501059700295,
Raw,1730973596999,9553816727,18,0.0,-1415008805446183168,0.0,50.034610748291016,45.494789123535156,0.0,0,2,0.0,15,381614919544174,27,24.899999618530273,-211.4945526123047,0.252518892288208,16,0.0,0.17855611443519592,1575420030,,,,0,,1,1.2999999523162842,19.899999618530273,0.0,0.0,0.0,0.0,C,1868501059700295,
Raw,1730973596999,9553816727,18,0.0,-1415008805446183168,0.0,50.034610748291016,45.494789123535156,0.0,0,20,0.0,51,4943568,13,36.900001525878906,-61.60512161254883,0.09826947748661041,19,-32581.149637581577,0.16550609469413757,1561097980,,,,0,,5,1.2999999523162842,31.899999618530273,0.0,0.0,0.0,0.0,C,1868501059700295,
Raw,1730973596999,9553816727,18,0.0,-1415008805446183168,0.0,50.034610748291016,45.494789123535156,0.0,0,27,0.0,3072,20290565,14,34.900001525878906,173.55584716796875,0.11185558140277863,25,-145290.75828842964,0.0790930837392807,1575420030,,,,0,,6,1.2999999523162842,29.899999618530273,0.0,0.0,0.0,0.0,C,1868501059700295,
Raw,1730973596999,9553816727,18,0.0,-1415008805446183168,0.0,50.034610748291016,45.494789123535156,0.0,0,32,0.0,51,2502634,14,35.20000076293945,499.0613708496094,0.10964430868625641,19,-50851.40100438573,0.17354923486709595,1561097980,,,,0,,5,1.2999999523162842,30.200000762939453,0.0,0.0,0.0,0.0,C,1868501059700295,
Raw,1730973596999,9553816727,18,0.0,-1415008805446183168,0.0,50.034610748291016,45.494789123535156,0.0,0,21,0.0,3072,13581665,16,32.599998474121094,-223.6005859375,0.13127493858337402,19,-145923.18990798164,0.1879713535308838,1575420030,,,,0,,6,1.2999999523162842,27.600000381469727,0.0,0.0,0.0,0.0,C,1868501059700295,
Raw,1730973596999,9553816727,18,0.0,-1415008805446183168,0.0,50.034610748291016,45.494789123535156,0.0,0,11,0.0,239,46796928313308,16,32.79999923706055,120.97663116455078,0.12939289212226868,16,0.0,0.09149371087551117,1602000000,,,,0,,3,1.2999999523162842,27.799999237060547,0.0,0.0,0.0,0.0,C,1868501059700295,
Raw,1730973596999,9553816727,18,0.0,-1415008805446183168,0.0,50.034610748291016,45.494789123535156,0.0,0,10,0.0,51,18441828,17,31.200000762939453,-31.213659286499023,0.14567914605140686,16,0.0,0.10300972312688828,1561097980,,,,0,,5,1.2999999523162842,26.200000762939453,0.0,0.0,0.0,0.0,C,1868501059700295,
Raw,1730973596999,9553816727,18,0.0,-1415008805446183168,0.0,50.034610748291016,45.494789123535156,0.0,0,8,0.0,239,46796934627946,19,29.600000381469727,-249.27264404296875,0.16524554789066315,16,0.0,0.11684512346982956,1605374980,,,,0,,3,1.2999999523162842,24.600000381469727,0.0,0.0,0.0,0.0,C,1868501059700295,
Raw,1730973596999,9553816727,18,0.0,-1415008805446183168,0.0,50.034610748291016,45.494789123535156,0.0,0,29,0.0,3072,14203777,20,28.799999237060547,-443.1897888183594,0.17654122412204742,16,0.0,0.12483230233192444,1575420030,,,,0,,6,1.2999999523162842,23.799999237060547,0.0,0.0,0.0,0.0,C,1868501059700295,
Raw,1730973596999,9553816727,18,0.0,-1415008805446183168,0.0,50.034610748291016,45.494789123535156,0.0,0,28,0.0,51,18593106,18,30.600000381469727,-79.77923583984375,0.1525878757238388,16,0.0,0.1078948900103569,1561097980,,,,0,,5,1.2999999523162842,25.600000381469727,0.0,0.0,0.0,0.0,C,1868501059700295,
Raw,1730973596999,9553816727,18,0.0,-1415008805446183168,0.0,50.034610748291016,45.494789123535156,0.0,0,19,0.0,51,14448878,21,28.399999618530273,-471.7335510253906,0.18262839317321777,16,0.0,0.12913653254508972,1561097980,,,,0,,5,1.2999999523162842,23.399999618530273,0.0,0.0,0.0,0.0,C,1868501059700295,
Raw,1730973596999,9553816727,18,0.0,-1415008805446183168,0.0,50.034610748291016,45.494789123535156,0.0,0,27,0.0,51,174363,22,27.5,-357.4614562988281,0.1975308656692505,16,0.0,0.1396740823984146,1561097980,,,,0,,5,1.2999999523162842,22.5,0.0,0.0,0.0,0.0,C,1868501059700295,
Raw,1730973596999,9553816727,18,0.0,-1415008805446183168,0.0,50.034610748291016,45.494789123535156,0.0,0,7,0.0,51,18197638,22,27.700000762939453,-5.363094806671143,0.19406546652317047,16,0.0,0.13722369074821472,1561097980,,,,0,,5,1.2999999523162842,22.700000762939453,0.0,0.0,0.0,0.0,C,1868501059700295,
Raw,1730973596999,9553816727,18,0.0,-1415008805446183168,0.0,50.034610748291016,45.494789123535156,0.0,0,40,0.0,51,16815300,22,27.5,-18.762208938598633,0.1975308656692505,16,0.0,0.1396740823984146,1561097980,,,,0,,5,1.2999999523162842,22.5,0.0,0.0,0.0,0.0,C,1868501059700295,
Raw,1730973596999,9553816727,18,0.0,-1415008805446183168,0.0,50.034610748291016,45.494789123535156,0.0,0,39,0.0,51,12541622,22,27.899999618530273,-123.30195617675781,0.19069050252437592,16,0.0,0.13483725488185883,1561097980,,,,0,,5,1.2999999523162842,22.899999618530273,0.0,0.0,0.0,0.0,C,1868501059700295,
Raw,1730973596999,9553816727,18,0.0,-1415008805446183168,0.0,50.034610748291016,45.494789123535156,0.0,0,7,0.0,3072,21927927,25,26.200000762939453,-66.36451721191406,0.2224990874528885,16,0.0,0.15732909739017487,1575420030,,,,0,,6,1.2999999523162842,21.200000762939453,0.0,0.0,0.0,0.0,C,1868501059700295,
Raw,1730973596999,9553816727,18,0.0,-1415008805446183168,0.0,50.034610748291016,45.494789123535156,0.0,0,21,0.0,239,46796922386584,18,30.299999237060547,-479.3319396972656,0.15622803568840027,16,0.0,0.11046884208917618,1604249980,,,,0,,3,1.2999999523162842,25.299999237060547,0.0,0.0,0.0,0.0,C,1868501059700295,
Raw,1730973596999,9553816727,18,0.0,-1415008805446183168,0.0,50.034610748291016,45.494789123535156,0.0,0,10,0.0,239,46796926037349,25,26.0,401.86260986328125,0.22675736248493195,16,0.0,0.16034013032913208,1598062460,,,,0,,3,1.2999999523162842,21.0,0.0,0.0,0.0,0.0,C,1868501059700295,
Raw,1730973596999,9553816727,18,0.0,-1415008805446183168,0.0,50.034610748291016,45.494789123535156,0.0,0,7,0.0,239,46796933707231,15,34.099998474121094,491.4905090332031,0.11809024214744568,16,0.0,0.08350160717964172,1604812540,,,,0,,3,1.2999999523162842,29.100000381469727,0.0,0.0,0.0,0.0,C,1868501059700295,
Raw,1730973596999,9553816727,18,0.0,-1415008805446183168,0.0,50.034610748291016,45.494789123535156,0.0,0,8,0.0,3072,14217476,29,24.399999618530273,351.7413635253906,0.2657030522823334,16,0.0,0.18787862360477448,1575420030,,,,0,,6,1.2999999523162842,19.399999618530273,0.0,0.0,0.0,0.0,C,1868501059700295,
Raw,1730973597999,10553816727,18,0.0,-1415008805446183168,0.0,10.02004623413086,44.62456512451172,0.0,0,9,0.0,15,381615931861214,14,35.5,-287.0108642578125,0.10749798268079758,17,-30969.480371688143,0.17115865647792816,1575420030,,,,0,,1,1.2999999523162842,30.5,0.0,0.0,0.0,0.0,C,1868501726817762,
Raw,1730973597999,10553816727,18,0.0,-1415008805446183168,0.0,10.02004623413086,44.62456512451172,0.0,0,7,0.0,15,381615922323167,14,34.900001525878906,-202.77581787109375,0.11185558140277863,17,-53892.288640185114,0.17423991858959198,1575420030,,,,0,,1,1.2999999523162842,29.899999618530273,0.0,0.0,0.0,0.0,C,1868501726817762,
Raw,1730973597999,10553816727,18,0.0,-1415008805446183168,0.0,10.02004623413086,44.62456512451172,0.0,0,4,0.0,15,381615932756194,17,31.899999618530273,61.54802703857422,0.13819599151611328,16,0.0,0.09771838784217834,1575420030,,,,0,,1,1.2999999523162842,26.899999618530273,0.0,0.0,0.0,0.0,C,1868501726817762,
Raw,1730973597999,10553816727,18,0.0,-1415008805446183168,0.0,10.02004623413086,44.62456512451172,0.0,0,3,0.0,15,381615922510765,23,27.200000762939453,549.5928344726562,0.2029055953025818,16,0.0,0.1434745490550995,1575420030,,,,0,,1,1.2999999523162842,22.200000762939453,0.0,0.0,0.0,0.0,C,1868501726817762,
Raw,1730973597999,10553816727,18,0.0,-1415008805446183168,0.0,10.02004623413086,44.62456512451172,0.0,0,8,0.0,15,381615931086274,17,31.5,78.06936645507812,0.14239943027496338,16,0.0,0.10069064050912857,1575420030,,,,0,,1,1.2999999523162842,26.5,0.0,0.0,0.0,0.0,C,1868501726817762,
Raw,1730973597999,10553816727,18,0.0,-1415008805446183168,0.0,10.02004623413086,44.62456512451172,0.0,0,30,0.0,15,381615917028580,27,24.899999618530273,-265.9527893066406,0.252518892288208,16,0.0,0.17855611443519592,1575420030,,,,0,,1,1.2999999523162842,19.899999618530273,0.0,0.0,0.0,0.0,C,1868501726817762,
Raw,1730973597999,10553816727,18,0.0,-1415008805446183168,0.0,10.02004623413086,44.62456512451172,0.0,0,2,0.0,15,381615919544902,28,24.700000762939453,-212.4398956298828,0.25767216086387634,16,0.0,0.18219998478889465,1575420030,,,,0,,1,1.2999999523162842,19.700000762939453,0.0,0.0,0.0,0.0,C,1868501726817762,
Raw,1730973597999,10553816727,18,0.0,-1415008805446183168,0.0,10.02004623413086,44.62456512451172,0.0,0,14,0.0,15,381615921344736,46,19.5,-363.7141418457031,0.4756242632865906,16,0.0,0.3363139033317566,1575420030,,,,0,,1,1.2999999523162842,14.5,0.0,0.0,0.0,0.0,C,1868501726817762,
Raw,1730973597999,10553816727,18,0.0,-1415008805446183168,0.0,10.02004623413086,44.62456512451172,0.0,0,21,0.0,3072,13582390,13,35.70000076293945,-223.54815673828125,0.10610191524028778,25,-146146.7555380049,0.07502466440200806,1575420030,,,,0,,6,1.2999999523162842,30.700000762939453,0.0,0.0,0.0,0.0,C,1868501726817762,
Raw,1730973597999,10553816727,18,0.0,-1415008805446183168,0.0,10.02004623413086,44.62456512451172,0.0,0,20,0.0,47,381601924943710,13,36.79999923706055,-61.399105072021484,0.09888850152492523,16,0.0,0.06992405652999878,1561097980,,,,0,,5,1.2999999523162842,31.799999237060547,0.0,0.0,0.0,0.0,C,1868501726817762,
