# 
# Header Description:
# 
# Version: v3.1.0.3 Platform: 13 Manufacturer: OPPO Model: CPH2371 GNSS Hardware Model Name: MTK_MNLD_6_0_0_20040301,MNL_VER_22051902ALPS05_6.7o_00
# 
# Raw,utcTimeMillis,TimeNanos,LeapSecond,TimeUncertaintyNanos,FullBiasNanos,BiasNanos,BiasUncertaintyNanos,DriftNanosPerSecond,DriftUncertaintyNanosPerSecond,HardwareClockDiscontinuityCount,Svid,TimeOffsetNanos,State,ReceivedSvTimeNanos,ReceivedSvTimeUncertaintyNanos,Cn0DbHz,PseudorangeRateMetersPerSecond,PseudorangeRateUncertaintyMetersPerSecond,AccumulatedDeltaRangeState,AccumulatedDeltaRangeMeters,AccumulatedDeltaRangeUncertaintyMeters,CarrierFrequencyHz,CarrierCycles,CarrierPhase,CarrierPhaseUncertainty,MultipathIndicator,SnrInDb,ConstellationType,AgcDb,BasebandCn0DbHz,FullInterSignalBiasNanos,FullInterSignalBiasUncertaintyNanos,SatelliteInterSignalBiasNanos,SatelliteInterSignalBiasUncertaintyNanos,CodeType,ChipsetElapsedRealtimeNanos,IsFullTracking
# 
# UncalAccel,utcTimeMillis,elapsedRealtimeNanos,UncalAccelXMps2,UncalAccelYMps2,UncalAccelZMps2,BiasXMps2,BiasYMps2,BiasZMps2
# 
# Accel,utcTimeMillis,elapsedRealtimeNanos,AccelXMps2,AccelYMps2,AccelZMps2
# 
# UncalGyro,utcTimeMillis,elapsedRealtimeNanos,UncalGyroXRadPerSec,UncalGyroYRadPerSec,UncalGyroZRadPerSec,DriftXRadPerSec,DriftYRadPerSec,DriftZRadPerSec
# 
# Gyro,utcTimeMillis,elapsedRealtimeNanos,GyroXRadPerSec,GyroYRadPerSec,GyroZRadPerSec
# 
# UncalMag,utcTimeMillis,elapsedRealtimeNanos,UncalMagXMicroT,UncalMagYMicroT,UncalMagZMicroT,BiasXMicroT,BiasYMicroT,BiasZMicroT
# 
# Mag,utcTimeMillis,elapsedRealtimeNanos,MagXMicroT,MagYMicroT,MagZMicroT
# 
# Pressure,utcTimeMillis,elapsedRealtimeNanos,PressureHpa
# 
# OrientationDeg,utcTimeMillis,elapsedRealtimeNanos,yawDeg,rollDeg,pitchDeg
# 
# Fix,Provider,LatitudeDegrees,LongitudeDegrees,AltitudeMeters,SpeedMps,AccuracyMeters,BearingDegrees,UnixTimeMillis,SpeedAccuracyMps,BearingAccuracyDegrees,elapsedRealtimeNanos,VerticalAccuracyMeters,MockLocation,NumberOfUsedSignals,VerticalSpeedAccuracyMps,SolutionType
# 
# Nav,Svid,Type,Status,MessageId,Sub-messageId,Data(Bytes)
# 
# Status,UnixTimeMillis,SignalCount,SignalIndex,ConstellationType,Svid,CarrierFrequencyHz,Cn0DbHz,AzimuthDegrees,ElevationDegrees,UsedInFix,HasAlmanacData,HasEphemerisData,BasebandCn0DbHz
# 
# Agc,utcTimeMillis,TimeNanos,LeapSecond,TimeUncertaintyNanos,FullBiasNanos,BiasNanos,BiasUncertaintyNanos,DriftNanosPerSecond,DriftUncertaintyNanosPerSecond,HardwareClockDiscontinuityCount,AgcDb,CarrierFrequencyHz,ConstellationType
# 
Raw,1730974189000,1245840000000,18,54.55436806934126,-1415008161160999936,0.0,54.55436806934126,-3590.8158355856726,0.0,0,9,0.0,16431,382206933283875,487,20.834999084472656,-1317.8427792340965,0.14999,16,-440447.90225351823,0.009999999776482582,1575420030,,,,0,0.0,1,6.0,20.834999084472656,0.0,0.0,0.0,66.7128,C,,
Raw,1730974189000,1245840000000,18,54.55436806934126,-1415008161160999936,0.0,54.55436806934126,-3590.8158355856726,0.0,0,4,0.0,16431,382206933484293,396,20.549999237060547,-961.5274473528976,0.14999,16,-411098.9864017273,0.004900000058114529,1575420030,,,,0,0.25178254616040935,1,6.0,20.549999237060547,0.0,0.0,0.0,66.7128,C,,
Raw,1730974189000,1245840000000,18,54.55436806934126,-1415008161160999936,0.0,54.55436806934126,-3590.8158355856726,0.0,0,3,0.0,16431,382206922349104,1797,12.100000381469727,-540.9668158644587,0.14999,16,-414484.0582957634,0.02250000089406967,1575420030,,,,0,0.0,1,6.0,12.100000381469727,0.0,0.0,0.0,66.7128,C,,
Raw,1730974189000,1245840000000,18,54.55436806934126,-1415008161160999936,0.0,54.55436806934126,-3590.8158355856726,0.0,0,29,0.0,16431,382206915980601,487,17.82699966430664,-1521.876528626728,0.14999,24,-462959.0748796802,0.009999999776482582,1575420030,,,,0,0.0,6,6.0,17.82699966430664,0.0,0.0,-23.131281624127872,66.7128,C,,
Raw,1730974189000,1245840000000,18,54.55436806934126,-1415008161160999936,0.0,54.55436806934126,-3590.8158355856726,0.0,0,27,0.0,16905,382192921785599,396,22.200000762939453,-1436.29248046875,0.14999,20,-510561.68637362635,0.004900000058114529,1561097980,,,,0,2.456914942049123,5,6.0,22.200000762939453,0.0,0.0,1.5063913253451062,66.7128,I,,
Raw,1730974189000,1245840000000,18,54.55436806934126,-1415008161160999936,0.0,54.55436806934126,-3590.8158355856726,0.0,0,28,0.0,16905,382192919628207,316,24.600000381469727,-1130.3724365234375,0.14999,16,-435167.51390815363,0.002025000052526593,1561097980,,,,0,5.548657737256251,5,6.0,24.600000381469727,0.0,0.0,1.5063913253451062,66.7128,I,,
Raw,1730974189000,1245840000000,18,54.55436806934126,-1415008161160999936,0.0,54.55436806934126,-3590.8158355856726,0.0,0,7,0.0,16905,382192879108301,797,18.399999618530273,-1080.5223388671875,0.14999,16,-433480.0978964878,0.02250000089406967,1561097980,,,,0,0.0,5,6.0,18.399999618530273,0.0,0.0,1.5063913253451062,66.7128,I,,
Raw,1730974189000,1245840000000,18,54.55436806934126,-1415008161160999936,0.0,54.55436806934126,-3590.8158355856726,0.0,0,10,0.0,16905,382192879404115,797,19.479999542236328,-1106.1446533203125,0.14999,16,-436645.74075801903,0.02250000089406967,1561097980,,,,0,0.0,5,6.0,19.479999542236328,0.0,0.0,1.5063913253451062,66.7128,I,,
Raw,1730974189000,1245840000000,18,54.55436806934126,-1415008161160999936,0.0,54.55436806934126,-3590.8158355856726,0.0,0,40,0.0,16905,382192877747560,797,16.399999618530273,-1090.513916015625,0.14999,16,-433934.3418716341,0.02250000089406967,1561097980,,,,0,0.0,5,6.0,16.399999618530273,0.0,0.0,1.5063913253451062,66.7128,I,,
Raw,1730974189000,1245840000000,18,54.55436806934126,-1415008161160999936,0.0,54.55436806934126,-3590.8158355856726,0.0,0,7,0.0,32995,47388933574389,235,0.0,-522.4472756835373,0.14999,17,-387922.60785709927,0.0008999999845400453,1604812540,,,,0,10.400742273372273,3,6.0,29.0,0.0,0.0,-19.334135408866317,66.7128,C,,
Raw,1730974189000,1245840000000,18,54.55436806934126,-1415008161160999936,0.0,54.55436806934126,-3590.8158355856726,0.0,0,11,0.0,32995,47388928970570,487,22.5,-951.4527279159443,0.14999,16,-422921.3138068638,0.009999999776482582,1602000000,,,,0,0.0,3,6.0,22.5,0.0,0.0,-19.334135408866317,66.7128,C,,
Raw,1730974189000,1245840000000,18,54.55436806934126,-1415008161160999936,0.0,54.55436806934126,-3590.8158355856726,0.0,0,8,0.0,32995,47388935941047,316,0.0,-1243.572161990913,0.14999,16,-434128.13251136726,0.002025000052526593,1605374980,,,,0,2.8747044512469544,3,6.0,24.0,0.0,0.0,-19.334135408866317,66.7128,C,,
Raw,1730974189000,1245840000000,18,54.55436806934126,-1415008161160999936,0.0,54.55436806934126,-3590.8158355856726,0.0,0,14,0.0,16431,382206922942550,487,20.082000732421875,-1417.1747755991892,0.14999,16,-480243.0814935315,0.009999999776482582,1575420030,,,,0,0.0,1,6.0,20.082000732421875,0.0,0.0,0.0,66.7128,C,,
Raw,1730974189000,1245840000000,18,54.55436806934126,-1415008161160999936,0.0,54.55436806934126,-3590.8158355856726,0.0,0,8,0.0,16431,382206931772557,487,21.70400047302246,-937.8901485196352,0.14999,16,-408035.42732023564,0.009999999776482582,1575420030,,,,0,0.10880171036712821,1,6.0,21.70400047302246,0.0,0.0,0.0,66.7128,C,,
Raw,1730974189000,1245840000000,18,54.55436806934126,-1415008161160999936,0.0,54.55436806934126,-3590.8158355856726,0.0,0,7,0.0,16431,382206923654573,1797,18.648000717163086,-1315.7392350649159,0.14999,16,-431772.26089729526,0.02250000089406967,1575420030,,,,0,0.0,1,6.0,18.648000717163086,0.0,0.0,0.0,66.7128,C,,
Raw,1730974189000,1245840000000,18,54.55436806934126,-1415008161160999936,0.0,54.55436806934126,-3590.8158355856726,0.0,0,32,0.0,16905,382192922402260,74,31.53499984741211,-560.6480102539062,0.14999,17,-286657.7280252052,0.0006249999860301614,1561097980,,,,0,12.288208594287832,5,6.0,31.53499984741211,0.0,0.0,1.5063913253451062,66.7128,I,,
Raw,1730974189000,1245840000000,18,54.55436806934126,-1415008161160999936,0.0,54.55436806934126,-3590.8158355856726,0.0,0,20,0.0,16905,382192925919383,74,30.899999618530273,-1090.5333251953125,0.14999,17,-435543.3231314431,0.0006249999860301614,1561097980,,,,0,13.008392271823471,5,6.0,30.899999618530273,0.0,0.0,1.5063913253451062,66.7128,I,,
Raw,1730974189000,1245840000000,18,54.55436806934126,-1415008161160999936,0.0,54.55436806934126,-3590.8158355856726,0.0,0,8,0.0,16431,382206914383533,487,15.899999618530273,-693.4227103306479,0.14999,24,-390237.7504342402,0.009999999776482582,1575420030,,,,0,0.0,6,6.0,15.899999618530273,0.0,0.0,-23.131281624127872,66.7128,C,,
Raw,1730974190000,1246840000000,18,54.854843477666805,-1415008161160999936,0.0,54.854843477666805,-3601.1761373629074,0.0,0,9,0.0,16431,382207933288270,797,20.80900001525879,-1317.9380189873282,0.14999,16,-441765.705013792,0.02250000089406967,1575420030,,,,0,0.0,1,6.0,20.80900001525879,0.0,0.0,0.0,66.7128,C,,
Raw,1730974190000,1246840000000,18,54.854843477666805,-1415008161160999936,0.0,54.854843477666805,-3601.1761373629074,0.0,0,4,0.0,16431,382207933487501,797,20.611000061035156,-963.769251768721,0.14999,16,-412060.8854371692,0.02250000089406967,1575420030,,,,0,0.25178254616040935,1,6.0,20.611000061035156,0.0,0.0,0.0,66.7128,C,,
Raw,1730974190000,1246840000000,18,54.854843477666805,-1415008161160999936,0.0,54.854843477666805,-3601.1761373629074,0.0,0,3,0.0,16431,382207922350906,1837,12.100000381469727,-541.4005980966165,0.14999,16,-415024.5894789279,0.02250000089406967,1575420030,,,,0,0.0,1,6.0,12.100000381469727,0.0,0.0,0.0,66.7128,C,,
Raw,1730974190000,1246840000000,18,54.854843477666805,-1415008161160999936,0.0,54.854843477666805,-3601.1761373629074,0.0,0,29,0.0,16431,382207915985680,487,17.825000762939453,-1522.6173545316215,0.14999,24,-464481.08988838893,0.009999999776482582,1575420030,,,,0,0.0,6,6.0,17.825000762939453,0.0,0.0,-21.557033447866367,66.7128,C,,
Raw,1730974190000,1246840000000,18,54.854843477666805,-1415008161160999936,0.0,54.854843477666805,-3601.1761373629074,0.0,0,27,0.0,16905,382193921790392,487,22.155000686645508,-1439.6483154296875,0.14999,16,-511998.8453890491,0.009999999776482582,1561097980,,,,0,1.0969733601469003,5,6.0,22.155000686645508,0.0,0.0,0.7650203052152733,66.7128,I,,
Raw,1730974190000,1246840000000,18,54.854843477666805,-1415008161160999936,0.0,54.854843477666805,-3601.1761373629074,0.0,0,28,0.0,16905,382193919631982,316,24.59000015258789,-1133.8656005859375,0.14999,17,-436299.2096618646,0.002025000052526593,1561097980,,,,0,5.325357788095385,5,6.0,24.59000015258789,0.0,0.0,0.7650203052152733,66.7128,I,,
Raw,1730974190000,1246840000000,18,54.854843477666805,-1415008161160999936,0.0,54.854843477666805,-3601.1761373629074,0.0,0,7,0.0,16905,382193879111908,797,18.399999618530273,-1084.329833984375,0.14999,16,-434561.55768914457,0.02250000089406967,1561097980,,,,0,0.0,5,6.0,18.399999618530273,0.0,0.0,0.7650203052152733,66.7128,I,,
Raw,1730974190000,1246840000000,18,54.854843477666805,-1415008161160999936,0.0,54.854843477666805,-3601.1761373629074,0.0,0,7,0.0,16431,382207922935820,1837,13.5,-1116.63769697086,0.14999,24,-434172.38559164427,0.02250000089406967,1575420030,,,,0,0.0,6,6.0,13.5,0.0,0.0,-21.557033447866367,66.7128,C,,
Raw,1730974190000,1246840000000,18,54.854843477666805,-1415008161160999936,0.0,54.854843477666805,-3601.1761373629074,0.0,0,10,0.0,16905,382193879407811,487,19.47100067138672,-1110.889892578125,0.14999,16,-437753.78586516244,0.009999999776482582,1561097980,,,,0,0.0,5,6.0,19.47100067138672,0.0,0.0,0.7650203052152733,66.7128,I,,
Raw,1730974190000,1246840000000,18,54.854843477666805,-1415008161160999936,0.0,54.854843477666805,-3601.1761373629074,0.0,0,40,0.0,16905,382193877751191,797,16.399999618530273,-1088.0133056640625,0.14999,16,-435022.89790671895,0.02250000089406967,1561097980,,,,0,0.0,5,6.0,16.399999618530273,0.0,0.0,0.7650203052152733,66.7128,I,,
Raw,1730974190000,1246840000000,18,54.854843477666805,-1415008161160999936,0.0,54.854843477666805,-3601.1761373629074,0.0,0,7,0.0,32995,47389933576136,58,0.0,-525.3945248360004,0.14999,17,-388446.17194610025,0.00039999998989515007,1604812540,,,,0,15.438046022132843,3,6.0,33.0,0.0,0.0,-19.804265787937382,66.7128,C,,
Raw,1730974190000,1246840000000,18,54.854843477666805,-1415008161160999936,0.0,54.854843477666805,-3601.1761373629074,0.0,0,11,0.0,32995,47389928973764,487,32.099998474121094,-954.3605602248423,0.14999,16,-423875.43856975663,0.009999999776482582,1602000000,,,,0,0.0,3,6.0,32.099998474121094,0.0,0.0,-19.804265787937382,66.7128,C,,
Raw,1730974190000,1246840000000,18,54.854843477666805,-1415008161160999936,0.0,54.854843477666805,-3601.1761373629074,0.0,0,8,0.0,32995,47389935945200,74,0.0,-1246.7218079204308,0.14999,17,-435373.09393508045,0.0006249999860301614,1605374980,,,,0,14.307208410483764,3,6.0,32.0,0.0,0.0,-19.804265787937382,66.7128,C,,
Raw,1730974190000,1246840000000,18,54.854843477666805,-1415008161160999936,0.0,54.854843477666805,-3601.1761373629074,0.0,0,14,0.0,16431,382207922947296,487,20.089000701904297,-1420.7417598790018,0.14999,16,-481661.50443752046,0.009999999776482582,1575420030,,,,0,0.0,1,6.0,20.089000701904297,0.0,0.0,0.0,66.7128,C,,
Raw,1730974190000,1246840000000,18,54.854843477666805,-1415008161160999936,0.0,54.854843477666805,-3601.1761373629074,0.0,0,8,0.0,16431,382207931775687,487,20.527000427246094,-939.6528737474954,0.14999,16,-408973.7396529632,0.009999999776482582,1575420030,,,,0,0.0,1,6.0,20.527000427246094,0.0,0.0,0.0,66.7128,C,,
Raw,1730974190000,1246840000000,18,54.854843477666805,-1415008161160999936,0.0,54.854843477666805,-3601.1761373629074,0.0,0,7,0.0,16431,382207923658968,1797,12.5,-1318.9956912907774,0.14999,16,-433089.8047157789,0.02250000089406967,1575420030,,,,0,0.0,1,6.0,12.5,0.0,0.0,0.0,66.7128,C,,
Raw,1730974190000,1246840000000,18,54.854843477666805,-1415008161160999936,0.0,54.854843477666805,-3601.1761373629074,0.0,0,32,0.0,16905,382193922404135,316,25.0,-563.7837524414062,0.14999,21,-287219.64862286445,0.002025000052526593,1561097980,,,,0,6.062258936245472,5,6.0,25.0,0.0,0.0,0.7650203052152733,66.7128,I,,
Raw,1730974190000,1246840000000,18,54.854843477666805,-1415008161160999936,0.0,54.854843477666805,-3601.1761373629074,0.0,0,20,0.0,16905,382193925923018,235,30.790000915527344,-1093.6688232421875,0.14999,21,-436634.849797897,0.0008999999845400453,1561097980,,,,0,10.51584175320799,5,6.0,30.790000915527344,0.0,0.0,0.7650203052152733,66.7128,I,,
Raw,1730974190000,1246840000000,18,54.854843477666805,-1415008161160999936,0.0,54.854843477666805,-3601.1761373629074,0.0,0,8,0.0,16431,382207914385850,797,17.100000381469727,-696.6341948096176,0.14999,24,-390932.2966185715,0.02250000089406967,1575420030,,,,0,0.0,6,6.0,17.100000381469727,0.0,0.0,-21.557033447866367,66.7128,C,,
Raw,1730974191000,1247840000000,18,53.840366784100844,-1415008161160999936,0.0,53.840366784100844,-3605.2943717509806,0.0,0,9,0.0,16431,382208933292667,1797,20.78499984741211,-1320.6195987710005,0.14999,16,-443084.0007310795,0.02250000089406967,1575420030,,,,0,0.0,1,6.0,20.78499984741211,0.0,0.0,0.0,66.7128,C,,
Raw,1730974191000,1247840000000,18,53.840366784100844,-1415008161160999936,0.0,53.840366784100844,-3605.2943717509806,0.0,0,4,0.0,16431,382208933490716,487,20.66900062561035,-964.6554925163532,0.14999,16,-413024.7324810878,0.009999999776482582,1575420030,,,,0,0.25178254616040935,1,6.0,20.66900062561035,0.0,0.0,0.0,66.7128,C,,
Raw,1730974191000,1247840000000,18,53.840366784100844,-1415008161160999936,0.0,53.840366784100844,-3605.2943717509806,0.0,0,3,0.0,16431,382208922352710,1797,12.100000381469727,-541.9559155455811,0.14999,16,-415565.45984755585,0.02250000089406967,1575420030,,,,0,0.0,1,6.0,12.100000381469727,0.0,0.0,0.0,66.7128,C,,
Raw,1730974191000,1247840000000,18,53.840366784100844,-1415008161160999936,0.0,53.840366784100844,-3605.2943717509806,0.0,0,29,0.0,16431,382208915990761,487,17.847999572753906,-1524.3010075350912,0.14999,24,-466003.9955004068,0.009999999776482582,1575420030,,,,0,0.0,6,6.0,17.847999572753906,0.0,0.0,-18.343332586884095,66.7128,C,,
Raw,1730974191000,1247840000000,18,53.840366784100844,-1415008161160999936,0.0,53.840366784100844,-3605.2943717509806,0.0,0,27,0.0,16905,382194921795194,487,22.04199981689453,-1441.5272216796875,0.14999,16,-513438.8281153166,0.009999999776482582,1561097980,,,,0,0.0,5,6.0,22.04199981689453,0.0,0.0,-0.5095798979452297,66.7128,I,,
Raw,1730974191000,1247840000000,18,53.840366784100844,-1415008161160999936,0.0,53.840366784100844,-3605.2943717509806,0.0,0,21,0.0,16431,382208914913280,316,23.700000762939453,-1283.4721925037134,0.14999,24,-433799.32005280483,0.002025000052526593,1575420030,,,,0,4.487918772604726,6,6.0,23.700000762939453,0.0,0.0,-18.343332586884095,66.7128,C,,
Raw,1730974191000,1247840000000,18,53.840366784100844,-1415008161160999936,0.0,53.840366784100844,-3605.2943717509806,0.0,0,28,0.0,16905,382194919635757,235,27.100000381469727,-1134.6529541015625,0.14999,17,-437433.0471658739,0.0008999999845400453,1561097980,,,,0,8.664315380411615,5,6.0,27.100000381469727,0.0,0.0,-0.5095798979452297,66.7128,I,,
Raw,1730974191000,1247840000000,18,53.840366784100844,-1415008161160999936,0.0,53.840366784100844,-3605.2943717509806,0.0,0,7,0.0,16905,382194879115518,797,15.600000381469727,-1084.876953125,0.14999,16,-435644.8559910322,0.02250000089406967,1561097980,,,,0,0.0,5,6.0,15.600000381469727,0.0,0.0,-0.5095798979452297,66.7128,I,,
Raw,1730974191000,1247840000000,18,53.840366784100844,-1415008161160999936,0.0,53.840366784100844,-3605.2943717509806,0.0,0,7,0.0,16431,382208922939546,1837,13.5,-1117.94717389017,0.14999,24,-435289.6334158161,0.02250000089406967,1575420030,,,,0,0.0,6,6.0,13.5,0.0,0.0,-18.343332586884095,66.7128,C,,
Raw,1730974191000,1247840000000,18,53.840366784100844,-1415008161160999936,0.0,53.840366784100844,-3605.2943717509806,0.0,0,10,0.0,16905,382194879411517,487,19.43199920654297,-1109.94677734375,0.14999,16,-438864.58115631226,0.009999999776482582,1561097980,,,,0,0.0,5,6.0,19.43199920654297,0.0,0.0,-0.5095798979452297,66.7128,I,,
Raw,1730974191000,1247840000000,18,53.840366784100844,-1415008161160999936,0.0,53.840366784100844,-3605.2943717509806,0.0,0,40,0.0,16905,382194877754816,797,16.31999969482422,-1089.4736328125,0.14999,16,-436111.8160068033,0.02250000089406967,1561097980,,,,0,0.0,5,6.0,16.31999969482422,0.0,0.0,-0.5095798979452297,66.7128,I,,
Raw,1730974191000,1247840000000,18,53.840366784100844,-1415008161160999936,0.0,53.840366784100844,-3605.2943717509806,0.0,0,7,0.0,32995,47390933577889,58,0.0,-526.563171926507,0.14999,25,-388972.0443270043,0.00039999998989515007,1604812540,,,,0,16.277336053003562,3,6.0,34.0,0.0,0.0,-21.59869250626413,66.7128,C,,
Raw,1730974191000,1247840000000,18,53.840366784100844,-1415008161160999936,0.0,53.840366784100844,-3605.2943717509806,0.0,0,11,0.0,32995,47390928976950,797,31.600000381469727,-955.9224361528186,0.14999,16,-424830.43695485574,0.02250000089406967,1602000000,,,,0,0.0,3,6.0,31.600000381469727,0.0,0.0,-21.59869250626413,66.7128,C,,
Raw,1730974191000,1247840000000,18,53.840366784100844,-1415008161160999936,0.0,53.840366784100844,-3605.2943717509806,0.0,0,8,0.0,32995,47390935949365,74,0.0,-1247.7533620979723,0.14999,25,-436620.1420078844,0.0006249999860301614,1605374980,,,,0,13.712120855560745,3,6.0,32.0,0.0,0.0,-21.59869250626413,66.7128,C,,
Raw,1730974191000,1247840000000,18,53.840366784100844,-1415008161160999936,0.0,53.840366784100844,-3605.2943717509806,0.0,0,14,0.0,16431,382208922952037,487,20.094999313354492,-1421.191756098417,0.14999,16,-483082.7711343834,0.009999999776482582,1575420030,,,,0,0.0,1,6.0,20.094999313354492,0.0,0.0,0.0,66.7128,C,,
Raw,1730974191000,1247840000000,18,53.840366784100844,-1415008161160999936,0.0,53.840366784100844,-3605.2943717509806,0.0,0,8,0.0,16431,382208931778826,487,21.003000259399414,-940.5589986972658,0.14999,16,-409914.0569434747,0.009999999776482582,1575420030,,,,0,0.0,1,6.0,21.003000259399414,0.0,0.0,0.0,66.7128,C,,
Raw,1730974191000,1247840000000,18,53.840366784100844,-1415008161160999936,0.0,53.840366784100844,-3605.2943717509806,0.0,0,7,0.0,16431,382208923663371,1797,12.5,-1321.1331501037916,0.14999,16,-434409.822350383,0.02250000089406967,1575420030,,,,0,0.0,1,6.0,12.5,0.0,0.0,0.0,66.7128,C,,
Raw,1730974191000,1247840000000,18,53.840366784100844,-1415008161160999936,0.0,53.840366784100844,-3605.2943717509806,0.0,0,32,0.0,16905,382194922406016,396,24.96500015258789,-564.3388671875,0.14999,21,-287783.88197961997,0.004900000058114529,1561097980,,,,0,5.14249019929799,5,6.0,24.96500015258789,0.0,0.0,-0.5095798979452297,66.7128,I,,
Raw,1730974191000,1247840000000,18,53.840366784100844,-1415008161160999936,0.0,53.840366784100844,-3605.2943717509806,0.0,0,20,0.0,16905,382194925926663,235,27.100000381469727,-1094.6328125,0.14999,21,-437728.57694645296,0.0008999999845400453,1561097980,,,,0,8.695061924510197,5,6.0,27.100000381469727,0.0,0.0,-0.5095798979452297,66.7128,I,,
Raw,1730974192000,1248840000000,18,53.71832648422576,-1415008161160999936,0.0,53.71832648422576,-3604.8021148185867,0.0,0,4,0.0,16431,382209933493957,797,20.62700080871582,-964.5697302800286,0.14999,16,-413989.74159921444,0.02250000089406967,1575420030,,,,0,0.0,1,6.0,20.62700080871582,0.0,0.0,0.0,66.7128,C,,
Raw,1730974192000,1248840000000,18,53.71832648422576,-1415008161160999936,0.0,53.71832648422576,-3604.8021148185867,0.0,0,29,0.0,16431,382209915995846,487,17.8700008392334,-1524.4797795206694,0.14999,24,-467528.6167676984,0.009999999776482582,1575420030,,,,0,0.0,6,6.0,17.8700008392334,0.0,0.0,-11.726184424137706,66.7128,C,,
Raw,1730974192000,1248840000000,18,53.71832648422576,-1415008161160999936,0.0,53.71832648422576,-3604.8021148185867,0.0,0,27,0.0,16905,382195921799998,396,22.06399917602539,-1440.12158203125,0.14999,16,-514879.44332239527,0.004900000058114529,1561097980,,,,0,2.826583055929386,5,6.0,22.06399917602539,0.0,0.0,-0.5596735840888449,66.7128,I,,
Raw,1730974192000,1248840000000,18,53.71832648422576,-1415008161160999936,0.0,53.71832648422576,-3604.8021148185867,0.0,0,21,0.0,16431,382209914917541,396,23.610000610351562,-1283.553959316244,0.14999,25,-435083.0231219759,0.004900000058114529,1575420030,,,,0,2.0260852221229726,6,6.0,23.610000610351562,0.0,0.0,-11.726184424137706,66.7128,C,,
Raw,1730974192000,1248840000000,18,53.71832648422576,-1415008161160999936,0.0,53.71832648422576,-3604.8021148185867,0.0,0,28,0.0,16905,382195919639542,316,27.040000915527344,-1134.2821044921875,0.14999,21,-438567.6600726621,0.002025000052526593,1561097980,,,,0,7.15430013422647,5,6.0,27.040000915527344,0.0,0.0,-0.5596735840888449,66.7128,I,,
Raw,1730974192000,1248840000000,18,53.71832648422576,-1415008161160999936,0.0,53.71832648422576,-3604.8021148185867,0.0,0,7,0.0,16905,382195879119135,797,15.600000381469727,-1085.795166015625,0.14999,16,-436729.16772316076,0.02250000089406967,1561097980,,,,0,0.0,5,6.0,15.600000381469727,0.0,0.0,-0.5596735840888449,66.7128,I,,
Raw,1730974192000,1248840000000,18,53.71832648422576,-1415008161160999936,0.0,53.71832648422576,-3604.8021148185867,0.0,0,7,0.0,16431,382209922943274,1797,13.5,-1117.4363171455188,0.14999,24,-436407.310618514,0.02250000089406967,1575420030,,,,0,0.0,6,6.0,13.5,0.0,0.0,-11.726184424137706,66.7128,C,,
Raw,1730974192000,1248840000000,18,53.71832648422576,-1415008161160999936,0.0,53.71832648422576,-3604.8021148185867,0.0,0,10,0.0,16905,382195879415221,396,19.475000381469727,-1110.2086181640625,0.14999,16,-439974.6688949051,0.004900000058114529,1561097980,,,,0,0.0,5,6.0,19.475000381469727,0.0,0.0,-0.5596735840888449,66.7128,I,,
Raw,1730974192000,1248840000000,18,53.71832648422576,-1415008161160999936,0.0,53.71832648422576,-3604.8021148185867,0.0,0,40,0.0,16905,382195877758462,797,16.243999481201172,-1093.713623046875,0.14999,16,-437204.72780329135,0.02250000089406967,1561097980,,,,0,0.0,5,6.0,16.243999481201172,0.0,0.0,-0.5596735840888449,66.7128,I,,
Raw,1730974192000,1248840000000,18,53.71832648422576,-1415008161160999936,0.0,53.71832648422576,-3604.8021148185867,0.0,0,7,0.0,32995,47391933579646,58,0.0,-526.5257737601702,0.14999,25,-389498.62058127683,0.00039999998989515007,1604812540,,,,0,15.68623118176924,3,6.0,33.0,0.0,0.0,-22.455168118918024,66.7128,C,,
Raw,1730974192000,1248840000000,18,53.71832648422576,-1415008161160999936,0.0,53.71832648422576,-3604.8021148185867,0.0,0,11,0.0,32995,47391928980130,1797,31.594999313354492,-952.9828052817645,0.14999,16,-425783.7881378566,0.02250000089406967,1602000000,,,,0,0.0,3,6.0,31.594999313354492,0.0,0.0,-22.455168118918024,66.7128,C,,
Raw,1730974192000,1248840000000,18,53.71832648422576,-1415008161160999936,0.0,53.71832648422576,-3604.8021148185867,0.0,0,8,0.0,32995,47391935953526,74,0.0,-1247.6609024554348,0.14999,25,-437867.95779773686,0.0006249999860301614,1605374980,,,,0,13.602862941530702,3,6.0,32.0,0.0,0.0,-22.455168118918024,66.7128,C,,
Raw,1730974192000,1248840000000,18,53.71832648422576,-1415008161160999936,0.0,53.71832648422576,-3604.8021148185867,0.0,0,14,0.0,16431,382209922956781,487,20.086999893188477,-1422.6165428067618,0.14999,16,-484504.72134602,0.009999999776482582,1575420030,,,,0,0.0,1,6.0,20.086999893188477,0.0,0.0,0.0,66.7128,C,,
Raw,1730974192000,1248840000000,18,53.71832648422576,-1415008161160999936,0.0,53.71832648422576,-3604.8021148185867,0.0,0,8,0.0,16431,382209931781974,487,20.91200065612793,-941.4119752188913,0.14999,16,-410855.69819544925,0.009999999776482582,1575420030,,,,0,0.0,1,6.0,20.91200065612793,0.0,0.0,0.0,66.7128,C,,
Raw,1730974192000,1248840000000,18,53.71832648422576,-1415008161160999936,0.0,53.71832648422576,-3604.8021148185867,0.0,0,32,0.0,16905,382195922407895,396,24.865999221801758,-564.7463989257812,0.14999,20,-288347.40027348505,0.004900000058114529,1561097980,,,,0,3.5218251811136247,5,6.0,24.865999221801758,0.0,0.0,-0.5596735840888449,66.7128,I,,
Raw,1730974192000,1248840000000,18,53.71832648422576,-1415008161160999936,0.0,53.71832648422576,-3604.8021148185867,0.0,0,20,0.0,16905,382195925930312,316,26.975000381469727,-1094.2149658203125,0.14999,17,-438823.06951428956,0.002025000052526593,1561097980,,,,0,5.636394742218527,5,6.0,26.975000381469727,0.0,0.0,-0.5596735840888449,66.7128,I,,
Raw,1730974193000,1249840000000,18,53.83414452295614,-1415008161160999936,0.0,53.83414452295614,-3624.1498489633686,0.0,0,4,0.0,16431,382210933497173,797,20.586999893188477,-967.3262939474647,0.14999,16,-414953.7717066567,0.02250000089406967,1575420030,,,,0,0.0,1,6.0,20.586999893188477,0.0,0.0,0.0,66.7128,C,,
Raw,1730974193000,1249840000000,18,53.83414452295614,-1415008161160999936,0.0,53.83414452295614,-3624.1498489633686,0.0,0,29,0.0,16431,382210916000940,797,17.83099937438965,-1531.5477771292758,0.14999,24,-469054.66448720347,0.02250000089406967,1575420030,,,,0,0.0,6,6.0,17.83099937438965,0.0,0.0,-7.181148520945933,66.7128,C,,
Raw,1730974193000,1249840000000,18,53.83414452295614,-1415008161160999936,0.0,53.83414452295614,-3624.1498489633686,0.0,0,27,0.0,16905,382196921804802,487,19.0,-1443.777587890625,0.14999,16,-516320.0011795656,0.009999999776482582,1561097980,,,,0,0.0,5,6.0,19.0,0.0,0.0,0.2780972686019218,66.7128,I,,
Raw,1730974193000,1249840000000,18,53.83414452295614,-1415008161160999936,0.0,53.83414452295614,-3624.1498489633686,0.0,0,21,0.0,16431,382210914921829,487,17.100000381469727,-1288.937560586721,0.14999,28,-436367.5347522322,0.009999999776482582,1575420030,,,,0,0.0,6,6.0,17.100000381469727,0.0,0.0,-7.181148520945933,66.7128,C,,
Raw,1730974193000,1249840000000,18,53.83414452295614,-1415008161160999936,0.0,53.83414452295614,-3624.1498489633686,0.0,0,28,0.0,16905,382196919643328,487,22.0,-1141.022216796875,0.14999,20,-439703.2843327015,0.009999999776482582,1561097980,,,,0,2.201429181320546,5,6.0,22.0,0.0,0.0,0.2780972686019218,66.7128,I,,
Raw,1730974193000,1249840000000,18,53.83414452295614,-1415008161160999936,0.0,53.83414452295614,-3624.1498489633686,0.0,0,7,0.0,16905,382196879122762,1797,13.199999809265137,-1095.8297119140625,0.14999,16,-437818.5507752415,0.02250000089406967,1561097980,,,,0,0.0,5,6.0,13.199999809265137,0.0,0.0,0.2780972686019218,66.7128,I,,
Raw,1730974193000,1249840000000,18,53.83414452295614,-1415008161160999936,0.0,53.83414452295614,-3624.1498489633686,0.0,0,19,0.0,16905,382196916278880,797,16.299999237060547,-1535.3984375,0.14999,16,-440700.1322965201,0.02250000089406967,1561097980,,,,0,0.0,5,6.0,16.299999237060547,0.0,0.0,0.2780972686019218,66.7128,I,,
Raw,1730974193000,1249840000000,18,53.83414452295614,-1415008161160999936,0.0,53.83414452295614,-3624.1498489633686,0.0,0,7,0.0,16431,382210922947004,1797,13.5,-1122.2198615122209,0.14999,24,-437525.53810834687,0.02250000089406967,1575420030,,,,0,0.0,6,6.0,13.5,0.0,0.0,-7.181148520945933,66.7128,C,,
Raw,1730974193000,1249840000000,18,53.83414452295614,-1415008161160999936,0.0,53.83414452295614,-3624.1498489633686,0.0,0,10,0.0,16905,382196879418929,487,19.516000747680664,-1116.6092529296875,0.14999,16,-441086.51460414584,0.009999999776482582,1561097980,,,,0,0.0,5,6.0,19.516000747680664,0.0,0.0,0.2780972686019218,66.7128,I,,
Raw,1730974193000,1249840000000,18,53.83414452295614,-1415008161160999936,0.0,53.83414452295614,-3624.1498489633686,0.0,0,40,0.0,16905,382196877762111,1797,16.17099952697754,-1096.307861328125,0.14999,16,-438298.3195577362,0.02250000089406967,1561097980,,,,0,0.0,5,6.0,16.17099952697754,0.0,0.0,0.2780972686019218,66.7128,I,,
Raw,1730974193000,1249840000000,18,53.83414452295614,-1415008161160999936,0.0,53.83414452295614,-3624.1498489633686,0.0,0,7,0.0,32995,47392933581406,74,0.0,-532.552077797674,0.14999,21,-390026.1312811555,0.0006249999860301614,1604812540,,,,0,14.078104440230618,3,6.0,32.0,0.0,0.0,-21.685970912988196,66.7128,C,,
Raw,1730974193000,1249840000000,18,53.83414452295614,-1415008161160999936,0.0,53.83414452295614,-3624.1498489633686,0.0,0,11,0.0,32995,47392928983351,797,28.100000381469727,-963.7928544120118,0.14999,16,-426741.3032551657,0.02250000089406967,1602000000,,,,0,0.0,3,6.0,28.100000381469727,0.0,0.0,-21.685970912988196,66.7128,C,,
Raw,1730974193000,1249840000000,18,53.83414452295614,-1415008161160999936,0.0,53.83414452295614,-3624.1498489633686,0.0,0,8,0.0,32995,47392935957692,235,0.0,-1253.6436978457841,0.14999,21,-439116.65969788795,0.0008999999845400453,1605374980,,,,0,9.801724637680602,3,6.0,28.0,0.0,0.0,-21.685970912988196,66.7128,C,,
Raw,1730974193000,1249840000000,18,53.83414452295614,-1415008161160999936,0.0,53.83414452295614,-3624.1498489633686,0.0,0,14,0.0,16431,382210922961534,797,20.010000228881836,-1428.1566160230361,0.14999,16,-485927.87128118443,0.02250000089406967,1575420030,,,,0,0.0,1,6.0,20.010000228881836,0.0,0.0,0.0,66.7128,C,,
Raw,1730974193000,1249840000000,18,53.83414452295614,-1415008161160999936,0.0,53.83414452295614,-3624.1498489633686,0.0,0,8,0.0,16431,382210931785116,487,21.049999237060547,-945.919649510135,0.14999,16,-411797.53226027515,0.009999999776482582,1575420030,,,,0,0.0,1,6.0,21.049999237060547,0.0,0.0,0.0,66.7128,C,,
Raw,1730974193000,1249840000000,18,53.83414452295614,-1415008161160999936,0.0,53.83414452295614,-3624.1498489633686,0.0,0,32,0.0,16905,382196922409783,396,24.777000427246094,-571.1193237304688,0.14999,16,-288913.48384756263,0.004900000058114529,1561097980,,,,0,3.687275700433422,5,6.0,24.777000427246094,0.0,0.0,0.2780972686019218,66.7128,I,,
Raw,1730974193000,1249840000000,18,53.83414452295614,-1415008161160999936,0.0,53.83414452295614,-3624.1498489633686,0.0,0,20,0.0,16905,382196925933966,487,21.5,-1099.990966796875,0.14999,20,-439918.47032140027,0.009999999776482582,1561097980,,,,0,1.386529827519358,5,6.0,21.5,0.0,0.0,0.2780972686019218,66.7128,I,,
Raw,1730974193000,1249840000000,18,53.83414452295614,-1415008161160999936,0.0,53.83414452295614,-3624.1498489633686,0.0,0,8,0.0,16431,382210914392834,797,15.600000381469727,-702.5443093110088,0.14999,24,-393026.32907983195,0.02250000089406967,1575420030,,,,0,0.0,6,6.0,15.600000381469727,0.0,0.0,-7.181148520945933,66.7128,C,,
Raw,1730974194000,1250840000000,18,52.85723997989129,-1415008161160999936,0.0,52.85723997989129,-3701.611465672058,0.0,0,4,0.0,16431,382211933500442,797,20.548999786376953,-993.4652855768322,0.14999,16,-415934.2482707054,0.02250000089406967,1575420030,,,,0,0.0,1,6.0,20.548999786376953,0.0,0.0,0.0,66.7128,C,,
Raw,1730974194000,1250840000000,18,52.85723997989129,-1415008161160999936,0.0,52.85723997989129,-3701.611465672058,0.0,0,29,0.0,16431,382211916006087,1797,13.800000190734863,-1555.4155097069427,0.14999,24,-470596.9953852112,0.02250000089406967,1575420030,,,,0,0.0,6,6.0,13.800000190734863,0.0,0.0,14.989650009450564,66.7128,C,,
Raw,1730974194000,1250840000000,18,52.85723997989129,-1415008161160999936,0.0,52.85723997989129,-3701.611465672058,0.0,0,27,0.0,16905,382197921809654,797,19.0,-1469.334228515625,0.14999,16,-517775.1189185768,0.02250000089406967,1561097980,,,,0,0.0,5,6.0,19.0,0.0,0.0,9.614894381837129,66.7128,I,,
Raw,1730974194000,1250840000000,18,52.85723997989129,-1415008161160999936,0.0,52.85723997989129,-3701.611465672058,0.0,0,21,0.0,16431,382211914926164,797,17.030000686645508,-1313.9330247594826,0.14999,24,-437667.5827390469,0.02250000089406967,1575420030,,,,0,0.0,6,6.0,17.030000686645508,0.0,0.0,14.989650009450564,66.7128,C,,
Raw,1730974194000,1250840000000,18,52.85723997989129,-1415008161160999936,0.0,52.85723997989129,-3701.611465672058,0.0,0,28,0.0,16905,382197919647165,797,22.0,-1160.67041015625,0.14999,16,-440853.6763317773,0.02250000089406967,1561097980,,,,0,2.201429181320546,5,6.0,22.0,0.0,0.0,9.614894381837129,66.7128,I,,
Raw,1730974194000,1250840000000,18,52.85723997989129,-1415008161160999936,0.0,52.85723997989129,-3701.611465672058,0.0,0,7,0.0,16905,382197879126449,1797,13.199999809265137,-1119.453125,0.14999,16,-438924.47573099093,0.02250000089406967,1561097980,,,,0,0.0,5,6.0,13.199999809265137,0.0,0.0,9.614894381837129,66.7128,I,,
Raw,1730974194000,1250840000000,18,52.85723997989129,-1415008161160999936,0.0,52.85723997989129,-3701.611465672058,0.0,0,19,0.0,16905,382197916284024,797,16.299999237060547,-1553.2110595703125,0.14999,16,-442242.5691777927,0.02250000089406967,1561097980,,,,0,0.0,5,6.0,16.299999237060547,0.0,0.0,9.614894381837129,66.7128,I,,
Raw,1730974194000,1250840000000,18,52.85723997989129,-1415008161160999936,0.0,52.85723997989129,-3701.611465672058,0.0,0,7,0.0,16431,382211922950818,797,15.5,-1145.1117815158016,0.14999,24,-438657.64046820643,0.02250000089406967,1575420030,,,,0,0.0,6,6.0,15.5,0.0,0.0,14.989650009450564,66.7128,C,,
Raw,1730974194000,1250840000000,18,52.85723997989129,-1415008161160999936,0.0,52.85723997989129,-3701.611465672058,0.0,0,10,0.0,16905,382197879422686,487,19.420000076293945,-1138.63134765625,0.14999,16,-442213.03696142597,0.009999999776482582,1561097980,,,,0,0.0,5,6.0,19.420000076293945,0.0,0.0,9.614894381837129,66.7128,I,,
Raw,1730974194000,1250840000000,18,52.85723997989129,-1415008161160999936,0.0,52.85723997989129,-3701.611465672058,0.0,0,40,0.0,16905,382197877765800,1797,16.101999282836914,-1120.6021728515625,0.14999,16,-439404.534711832,0.02250000089406967,1561097980,,,,0,0.0,5,6.0,16.101999282836914,0.0,0.0,9.614894381837129,66.7128,I,,
Raw,1730974194000,1250840000000,18,52.85723997989129,-1415008161160999936,0.0,52.85723997989129,-3701.611465672058,0.0,0,7,0.0,32995,47393933583216,74,0.0,-556.6678748923111,0.14999,20,-390569.34828748583,0.0006249999860301614,1604812540,,,,0,13.468317997272614,3,6.0,31.0,0.0,0.0,-28.45842195740046,66.7128,C,,
Raw,1730974194000,1250840000000,18,52.85723997989129,-1415008161160999936,0.0,52.85723997989129,-3701.611465672058,0.0,0,11,0.0,32995,47393928986597,797,28.049999237060547,-986.197682706407,0.14999,16,-427714.8823917208,0.02250000089406967,1602000000,,,,0,0.0,3,6.0,28.049999237060547,0.0,0.0,-28.45842195740046,66.7128,C,,
Raw,1730974194000,1250840000000,18,52.85723997989129,-1415008161160999936,0.0,52.85723997989129,-3701.611465672058,0.0,0,8,0.0,32995,47393935961902,235,0.0,-1275.7280573164965,0.14999,20,-440380.4480010923,0.0008999999845400453,1605374980,,,,0,8.656036533426098,3,6.0,28.0,0.0,0.0,-28.45842195740046,66.7128,C,,
Raw,1730974194000,1250840000000,18,52.85723997989129,-1415008161160999936,0.0,52.85723997989129,-3701.611465672058,0.0,0,14,0.0,16431,382211922966331,1797,19.937000274658203,-1453.2816062601926,0.14999,16,-487366.48014705296,0.02250000089406967,1575420030,,,,0,0.0,1,6.0,19.937000274658203,0.0,0.0,0.0,66.7128,C,,
Raw,1730974194000,1250840000000,18,52.85723997989129,-1415008161160999936,0.0,52.85723997989129,-3701.611465672058,0.0,0,8,0.0,16431,382211931788309,396,21.097999572753906,-969.2730874203511,0.14999,16,-412754.5857800915,0.004900000058114529,1575420030,,,,0,0.5992644675488641,1,6.0,21.097999572753906,0.0,0.0,0.0,66.7128,C,,
Raw,1730974194000,1250840000000,18,52.85723997989129,-1415008161160999936,0.0,52.85723997989129,-3701.611465672058,0.0,0,32,0.0,16905,382197922411726,797,24.69300079345703,-593.5960083007812,0.14999,16,-289496.166161215,0.02250000089406967,1561097980,,,,0,3.687275700433422,5,6.0,24.69300079345703,0.0,0.0,9.614894381837129,66.7128,I,,
Raw,1730974194000,1250840000000,18,52.85723997989129,-1415008161160999936,0.0,52.85723997989129,-3701.611465672058,0.0,0,20,0.0,16905,382197925937663,797,21.5,-1121.6531982421875,0.14999,16,-441027.29481675144,0.02250000089406967,1561097980,,,,0,1.386529827519358,5,6.0,21.5,0.0,0.0,9.614894381837129,66.7128,I,,
Raw,1730974194000,1250840000000,18,52.85723997989129,-1415008161160999936,0.0,52.85723997989129,-3701.611465672058,0.0,0,8,0.0,16431,382211914395209,797,15.600000381469727,-725.1418223310633,0.14999,24,-393738.59866059525,0.02250000089406967,1575420030,,,,0,0.0,6,6.0,15.600000381469727,0.0,0.0,14.989650009450564,66.7128,C,,
Fix,FLP,12.9255686000,77.5200986000,757.2000122070312,0.59353745,24.742,67.73266,1730974190955,1.5,45.0,2287742096000000,1.0,0,,,
Raw,1730974195000,1251840000000,18,53.628708109497346,-1415008161160999936,0.0,53.628708109497346,-3757.39475546164,0.0,0,4,0.0,16431,382212933503805,487,18.042999267578125,-1013.1522252797126,0.14999,16,-416937.42504613573,0.009999999776482582,1575420030,,,,0,0.0,1,6.0,18.042999267578125,0.0,0.0,0.0,66.7128,C,,
Raw,1730974195000,1251840000000,18,53.628708109497346,-1415008161160999936,0.0,53.628708109497346,-3757.39475546164,0.0,0,29,0.0,16431,382212916011305,1797,13.800000190734863,-1573.0927512413875,0.14999,24,-472161.71560649393,0.02250000089406967,1575420030,,,,0,0.0,6,6.0,13.800000190734863,0.0,0.0,16.298846538415226,66.7128,C,,
Raw,1730974195000,1251840000000,18,53.628708109497346,-1415008161160999936,0.0,53.628708109497346,-3757.39475546164,0.0,0,27,0.0,16905,382198921814581,797,19.0,-1484.3778076171875,0.14999,16,-519252.7188002978,0.02250000089406967,1561097980,,,,0,0.0,5,6.0,19.0,0.0,0.0,3.930499205051145,66.7128,I,,
Raw,1730974195000,1251840000000,18,53.628708109497346,-1415008161160999936,0.0,53.628708109497346,-3757.39475546164,0.0,0,21,0.0,16431,382212914930568,487,16.96299934387207,-1329.8786682049283,0.14999,24,-438988.33972952445,0.009999999776482582,1575420030,,,,0,0.0,6,6.0,16.96299934387207,0.0,0.0,16.298846538415226,66.7128,C,,
Raw,1730974195000,1251840000000,18,53.628708109497346,-1415008161160999936,0.0,53.628708109497346,-3757.39475546164,0.0,0,28,0.0,16905,382198919651066,487,22.0,-1182.0777587890625,0.14999,16,-442023.6998756658,0.009999999776482582,1561097980,,,,0,2.201429181320546,5,6.0,22.0,0.0,0.0,3.930499205051145,66.7128,I,,
Raw,1730974195000,1251840000000,18,53.628708109497346,-1415008161160999936,0.0,53.628708109497346,-3757.39475546164,0.0,0,7,0.0,16905,382198879130213,1797,13.199999809265137,-1141.3543701171875,0.14999,16,-440053.28432314354,0.02250000089406967,1561097980,,,,0,0.0,5,6.0,13.199999809265137,0.0,0.0,3.930499205051145,66.7128,I,,
Raw,1730974195000,1251840000000,18,53.628708109497346,-1415008161160999936,0.0,53.628708109497346,-3757.39475546164,0.0,0,19,0.0,16905,382198916289217,797,13.300000190734863,-1565.63720703125,0.14999,16,-443801.8538869214,0.02250000089406967,1561097980,,,,0,0.0,5,6.0,13.300000190734863,0.0,0.0,3.930499205051145,66.7128,I,,
Raw,1730974195000,1251840000000,18,53.628708109497346,-1415008161160999936,0.0,53.628708109497346,-3757.39475546164,0.0,0,7,0.0,16431,382212922954664,487,15.5,-1162.8358531337867,0.14999,24,-439811.22811121267,0.009999999776482582,1575420030,,,,0,0.0,6,6.0,15.5,0.0,0.0,16.298846538415226,66.7128,C,,
Raw,1730974195000,1251840000000,18,53.628708109497346,-1415008161160999936,0.0,53.628708109497346,-3757.39475546164,0.0,0,10,0.0,16905,382198879426508,797,19.32900047302246,-1154.9208984375,0.14999,16,-443359.3017955099,0.02250000089406967,1561097980,,,,0,0.0,5,6.0,19.32900047302246,0.0,0.0,3.930499205051145,66.7128,I,,
Raw,1730974195000,1251840000000,18,53.628708109497346,-1415008161160999936,0.0,53.628708109497346,-3757.39475546164,0.0,0,40,0.0,16905,382198877769560,1797,16.035999298095703,-1137.259765625,0.14999,16,-440532.21937950875,0.02250000089406967,1561097980,,,,0,0.0,5,6.0,16.035999298095703,0.0,0.0,3.930499205051145,66.7128,I,,
Raw,1730974195000,1251840000000,18,53.628708109497346,-1415008161160999936,0.0,53.628708109497346,-3757.39475546164,0.0,0,7,0.0,32995,47394933585094,235,0.0,-571.7578981866696,0.14999,17,-391132.3509125813,0.0008999999845400453,1604812540,,,,0,7.660115513194281,3,6.0,27.0,0.0,0.0,-29.085785007798805,66.7128,C,,
Raw,1730974195000,1251840000000,18,53.628708109497346,-1415008161160999936,0.0,53.628708109497346,-3757.39475546164,0.0,0,11,0.0,32995,47394928989913,487,24.399999618530273,-1004.7376150711458,0.14999,16,-428709.90396377776,0.009999999776482582,1602000000,,,,0,0.0,3,6.0,24.399999618530273,0.0,0.0,-29.085785007798805,66.7128,C,,
Raw,1730974195000,1251840000000,18,53.628708109497346,-1415008161160999936,0.0,53.628708109497346,-3757.39475546164,0.0,0,8,0.0,32995,47394935966184,487,0.0,-1294.001511165697,0.14999,17,-441665.2819223685,0.009999999776482582,1605374980,,,,0,5.381890974618574,3,6.0,20.0,0.0,0.0,-29.085785007798805,66.7128,C,,
Raw,1730974195000,1251840000000,18,53.628708109497346,-1415008161160999936,0.0,53.628708109497346,-3757.39475546164,0.0,0,14,0.0,16431,382212922971172,487,19.87299919128418,-1468.4589204183485,0.14999,16,-488828.09021967085,0.009999999776482582,1575420030,,,,0,0.0,1,6.0,19.87299919128418,0.0,0.0,0.0,66.7128,C,,
Raw,1730974195000,1251840000000,18,53.628708109497346,-1415008161160999936,0.0,53.628708109497346,-3757.39475546164,0.0,0,8,0.0,16431,382212931791568,487,21.143999099731445,-986.4823997867235,0.14999,16,-413731.9001105186,0.009999999776482582,1575420030,,,,0,0.5992644675488641,1,6.0,21.143999099731445,0.0,0.0,0.0,66.7128,C,,
Raw,1730974195000,1251840000000,18,53.628708109497346,-1415008161160999936,0.0,53.628708109497346,-3757.39475546164,0.0,0,7,0.0,16431,382212923681152,797,13.699999809265137,-1363.116970415428,0.14999,16,-439741.44725937373,0.02250000089406967,1575420030,,,,0,0.0,1,6.0,13.699999809265137,0.0,0.0,0.0,66.7128,C,,
Raw,1730974195000,1251840000000,18,53.628708109497346,-1415008161160999936,0.0,53.628708109497346,-3757.39475546164,0.0,0,32,0.0,16905,382198922413730,74,24.613000869750977,-611.5940551757812,0.14999,16,-290097.48469977465,0.0006249999860301614,1561097980,,,,0,3.687275700433422,5,6.0,24.613000869750977,0.0,0.0,3.930499205051145,66.7128,I,,
Raw,1730974195000,1251840000000,18,53.628708109497346,-1415008161160999936,0.0,53.628708109497346,-3757.39475546164,0.0,0,20,0.0,16905,382198925941432,235,21.5,-1139.90478515625,0.14999,16,-442157.5581719192,0.0008999999845400453,1561097980,,,,0,1.386529827519358,5,6.0,21.5,0.0,0.0,3.930499205051145,66.7128,I,,
Raw,1730974195000,1251840000000,18,53.628708109497346,-1415008161160999936,0.0,53.628708109497346,-3757.39475546164,0.0,0,8,0.0,16431,382212914397595,1797,12.800000190734863,-742.5693963367928,0.14999,24,-394472.039462708,0.02250000089406967,1575420030,,,,0,0.0,6,6.0,12.800000190734863,0.0,0.0,16.298846538415226,66.7128,C,,
Raw,1730974196000,1252840000000,18,53.74165678240332,-1415008161160999936,0.0,53.74165678240332,-3838.8361100190323,0.0,0,4,0.0,16431,382213933507234,797,18.066999435424805,-1039.7967773942833,0.14999,16,-417967.3015974062,0.02250000089406967,1575420030,,,,0,0.0,1,6.0,18.066999435424805,0.0,0.0,0.0,66.7128,C,,
Raw,1730974196000,1252840000000,18,53.74165678240332,-1415008161160999936,0.0,53.74165678240332,-3838.8361100190323,0.0,0,27,0.0,16905,382199921819610,396,22.299999237060547,-1510.740966796875,0.14999,16,-520754.0191485576,0.004900000058114529,1561097980,,,,0,2.4987747321659985,5,6.0,22.299999237060547,0.0,0.0,-5.350161479345335,66.7128,I,,
Raw,1730974196000,1252840000000,18,53.74165678240332,-1415008161160999936,0.0,53.74165678240332,-3838.8361100190323,0.0,0,21,0.0,16431,382213914935065,487,17.003999710083008,-1353.5535054384889,0.14999,24,-440332.6300440868,0.009999999776482582,1575420030,,,,0,0.0,6,6.0,17.003999710083008,0.0,0.0,15.571810384912446,66.7128,C,,
Raw,1730974196000,1252840000000,18,53.74165678240332,-1415008161160999936,0.0,53.74165678240332,-3838.8361100190323,0.0,0,28,0.0,16905,382199919655084,235,27.5,-1205.583984375,0.14999,17,-443221.08598973014,0.0008999999845400453,1561097980,,,,0,9.165348971843837,5,6.0,27.5,0.0,0.0,-5.350161479345335,66.7128,I,,
Raw,1730974196000,1252840000000,18,53.74165678240332,-1415008161160999936,0.0,53.74165678240332,-3838.8361100190323,0.0,0,19,0.0,16905,382199916294486,1837,13.300000190734863,-1587.4051513671875,0.14999,16,-445381.8430080233,0.02250000089406967,1561097980,,,,0,0.0,5,6.0,13.300000190734863,0.0,0.0,-5.350161479345335,66.7128,I,,
Raw,1730974196000,1252840000000,18,53.74165678240332,-1415008161160999936,0.0,53.74165678240332,-3838.8361100190323,0.0,0,7,0.0,16431,382213922958593,487,15.5,-1187.8153356113717,0.14999,24,-440989.6777454525,0.009999999776482582,1575420030,,,,0,0.0,6,6.0,15.5,0.0,0.0,15.571810384912446,66.7128,C,,
Raw,1730974196000,1252840000000,18,53.74165678240332,-1415008161160999936,0.0,53.74165678240332,-3838.8361100190323,0.0,0,10,0.0,16905,382199879430413,797,19.242000579833984,-1181.773193359375,0.14999,16,-444530.528688566,0.02250000089406967,1561097980,,,,0,0.0,5,6.0,19.242000579833984,0.0,0.0,-5.350161479345335,66.7128,I,,
Raw,1730974196000,1252840000000,18,53.74165678240332,-1415008161160999936,0.0,53.74165678240332,-3838.8361100190323,0.0,0,40,0.0,16905,382199877773415,1797,15.100000381469727,-1165.06201171875,0.14999,16,-441686.3166436946,0.02250000089406967,1561097980,,,,0,0.0,5,6.0,15.100000381469727,0.0,0.0,-5.350161479345335,66.7128,I,,
Raw,1730974196000,1252840000000,18,53.74165678240332,-1415008161160999936,0.0,53.74165678240332,-3838.8361100190323,0.0,0,7,0.0,32995,47395933587053,396,0.0,-596.1149590616994,0.14999,20,-391720.0370392785,0.004900000058114529,1604812540,,,,0,4.30135153285925,3,6.0,23.0,0.0,0.0,-33.14996511136782,66.7128,C,,
Raw,1730974196000,1252840000000,18,53.74165678240332,-1415008161160999936,0.0,53.74165678240332,-3838.8361100190323,0.0,0,11,0.0,32995,47395928993341,487,24.399999618530273,-1024.8667445422652,0.14999,16,-429728.4424477964,0.009999999776482582,1602000000,,,,0,0.0,3,6.0,24.399999618530273,0.0,0.0,-33.14996511136782,66.7128,C,,
Raw,1730974196000,1252840000000,18,53.74165678240332,-1415008161160999936,0.0,53.74165678240332,-3838.8361100190323,0.0,0,8,0.0,32995,47395935970547,797,0.0,-1318.0875215959593,0.14999,17,-442973.6591059432,0.02250000089406967,1605374980,,,,0,5.381890974618574,3,6.0,17.0,0.0,0.0,-33.14996511136782,66.7128,C,,
Raw,1730974196000,1252840000000,18,53.74165678240332,-1415008161160999936,0.0,53.74165678240332,-3838.8361100190323,0.0,0,14,0.0,16431,382213922976120,797,19.812999725341797,-1493.8111852276068,0.14999,16,-490311.8665948984,0.02250000089406967,1575420030,,,,0,0.0,1,6.0,19.812999725341797,0.0,0.0,0.0,66.7128,C,,
Raw,1730974196000,1252840000000,18,53.74165678240332,-1415008161160999936,0.0,53.74165678240332,-3838.8361100190323,0.0,0,8,0.0,16431,382213931794907,487,21.187999725341797,-1010.817225280971,0.14999,16,-414733.3798201685,0.009999999776482582,1575420030,,,,0,0.5992644675488641,1,6.0,21.187999725341797,0.0,0.0,0.0,66.7128,C,,
Raw,1730974196000,1252840000000,18,53.74165678240332,-1415008161160999936,0.0,53.74165678240332,-3838.8361100190323,0.0,0,7,0.0,16431,382213923685747,797,13.699999809265137,-1386.3646689703492,0.14999,16,-441119.40094452206,0.02250000089406967,1575420030,,,,0,0.0,1,6.0,13.699999809265137,0.0,0.0,0.0,66.7128,C,,
Raw,1730974196000,1252840000000,18,53.74165678240332,-1415008161160999936,0.0,53.74165678240332,-3838.8361100190323,0.0,0,32,0.0,16905,382199922415825,487,24.69700050354004,-633.5624389648438,0.14999,16,-290724.46386380674,0.009999999776482582,1561097980,,,,0,7.646698706829231,5,6.0,24.69700050354004,0.0,0.0,-5.350161479345335,66.7128,I,,
Raw,1730974196000,1252840000000,18,53.74165678240332,-1415008161160999936,0.0,53.74165678240332,-3838.8361100190323,0.0,0,20,0.0,16905,382199925945315,396,21.56999969482422,-1165.190185546875,0.14999,16,-443313.811772098,0.004900000058114529,1561097980,,,,0,3.3498217458752744,5,6.0,21.56999969482422,0.0,0.0,-5.350161479345335,66.7128,I,,
Raw,1730974196000,1252840000000,18,53.74165678240332,-1415008161160999936,0.0,53.74165678240332,-3838.8361100190323,0.0,0,8,0.0,16431,382213914400121,487,12.800000190734863,-767.4719901355493,0.14999,24,-395230.1636118294,0.009999999776482582,1575420030,,,,0,0.0,6,6.0,12.800000190734863,0.0,0.0,15.571810384912446,66.7128,C,,
Raw,1730974197000,1253840000000,18,54.751718088204015,-1415008161160999936,0.0,54.751718088204015,-3871.108429765041,0.0,0,9,0.0,16431,382214933319832,487,20.58099937438965,-1400.9607883417113,0.14999,16,-439552.91378225863,0.009999999776482582,1575420030,,,,0,0.0,1,6.0,20.58099937438965,0.0,0.0,0.0,66.7128,C,,
Raw,1730974197000,1253840000000,18,54.751718088204015,-1415008161160999936,0.0,54.751718088204015,-3871.108429765041,0.0,0,4,0.0,16431,382214933510708,396,21.44499969482422,-1043.0417119329245,0.14999,16,-419008.7004155818,0.004900000058114529,1575420030,,,,0,0.0,1,6.0,21.44499969482422,0.0,0.0,0.0,66.7128,C,,
Raw,1730974197000,1253840000000,18,54.751718088204015,-1415008161160999936,0.0,54.751718088204015,-3871.108429765041,0.0,0,27,0.0,16905,382200921824673,235,28.399999618530273,-1519.900390625,0.14999,17,-522271.08023376804,0.0008999999845400453,1561097980,,,,0,10.191236236569004,5,6.0,28.399999618530273,0.0,0.0,-13.541244846482588,66.7128,I,,
Raw,1730974197000,1253840000000,18,54.751718088204015,-1415008161160999936,0.0,54.751718088204015,-3871.108429765041,0.0,0,28,0.0,16905,382200919659125,316,27.399999618530273,-1214.199462890625,0.14999,17,-444432.97950586904,0.002025000052526593,1561097980,,,,0,6.715842038463862,5,6.0,27.399999618530273,0.0,0.0,-13.541244846482588,66.7128,I,,
Raw,1730974197000,1253840000000,18,54.751718088204015,-1415008161160999936,0.0,54.751718088204015,-3871.108429765041,0.0,0,19,0.0,16905,382200916299792,1837,13.300000190734863,-1590.865234375,0.14999,16,-446972.77061957767,0.02250000089406967,1561097980,,,,0,0.0,5,6.0,13.300000190734863,0.0,0.0,-13.541244846482588,66.7128,I,,
Raw,1730974197000,1253840000000,18,54.751718088204015,-1415008161160999936,0.0,54.751718088204015,-3871.108429765041,0.0,0,7,0.0,16431,382214922962575,396,15.5,-1197.532392112303,0.14999,24,-442184.10585948173,0.004900000058114529,1575420030,,,,0,0.0,6,6.0,15.5,0.0,0.0,14.38402462627402,66.7128,C,,
Raw,1730974197000,1253840000000,18,54.751718088204015,-1415008161160999936,0.0,54.751718088204015,-3871.108429765041,0.0,0,10,0.0,16905,382200879434374,487,19.159000396728516,-1190.977294921875,0.14999,16,-445718.04232615157,0.009999999776482582,1561097980,,,,0,0.0,5,6.0,19.159000396728516,0.0,0.0,-13.541244846482588,66.7128,I,,
Raw,1730974197000,1253840000000,18,54.751718088204015,-1415008161160999936,0.0,54.751718088204015,-3871.108429765041,0.0,0,40,0.0,16905,382200877777316,797,15.100000381469727,-1172.636962890625,0.14999,16,-442856.0608909707,0.02250000089406967,1561097980,,,,0,0.0,5,6.0,15.100000381469727,0.0,0.0,-13.541244846482588,66.7128,I,,
Raw,1730974197000,1253840000000,18,54.751718088204015,-1415008161160999936,0.0,54.751718088204015,-3871.108429765041,0.0,0,7,0.0,32995,47396933589057,487,0.0,-604.5655308207096,0.14999,16,-392321.29280170734,0.009999999776482582,1604812540,,,,0,0.0,3,6.0,19.0,0.0,0.0,-34.919473317996065,66.7128,C,,
Raw,1730974197000,1253840000000,18,54.751718088204015,-1415008161160999936,0.0,54.751718088204015,-3871.108429765041,0.0,0,11,0.0,32995,47396928996782,487,24.399999618530273,-1035.98390564782,0.14999,16,-430760.4101951581,0.009999999776482582,1602000000,,,,0,0.0,3,6.0,24.399999618530273,0.0,0.0,-34.919473317996065,66.7128,C,,
Raw,1730974197000,1253840000000,18,54.751718088204015,-1415008161160999936,0.0,54.751718088204015,-3871.108429765041,0.0,0,8,0.0,32995,47396935974961,396,0.0,-1326.2536958231537,0.14999,17,-444297.14351533866,0.004900000058114529,1605374980,,,,0,5.381890974618574,3,6.0,22.0,0.0,0.0,-34.919473317996065,66.7128,C,,
Raw,1730974197000,1253840000000,18,54.751718088204015,-1415008161160999936,0.0,54.751718088204015,-3871.108429765041,0.0,0,14,0.0,16431,382214922981112,487,19.756000518798828,-1499.3366705011908,0.14999,16,-491808.811377767,0.009999999776482582,1575420030,,,,0,0.0,1,6.0,19.756000518798828,0.0,0.0,0.0,66.7128,C,,
Raw,1730974197000,1253840000000,18,54.751718088204015,-1415008161160999936,0.0,54.751718088204015,-3871.108429765041,0.0,0,8,0.0,16431,382214931798333,316,24.361000061035156,-1019.5897821803421,0.14999,16,-415749.8683382555,0.002025000052526593,1575420030,,,,0,4.127521259202979,1,6.0,24.361000061035156,0.0,0.0,0.0,66.7128,C,,
Raw,1730974197000,1253840000000,18,54.751718088204015,-1415008161160999936,0.0,54.751718088204015,-3871.108429765041,0.0,0,7,0.0,16431,382214923690384,797,16.99799919128418,-1395.258761086527,0.14999,16,-442511.86606301455,0.02250000089406967,1575420030,,,,0,0.0,1,6.0,16.99799919128418,0.0,0.0,0.0,66.7128,C,,
Raw,1730974197000,1253840000000,18,54.751718088204015,-1415008161160999936,0.0,54.751718088204015,-3871.108429765041,0.0,0,32,0.0,16905,382200922417957,235,29.100000381469727,-644.6358642578125,0.14999,17,-291365.49333396606,0.0008999999845400453,1561097980,,,,0,11.003355724423526,5,6.0,29.100000381469727,0.0,0.0,-13.541244846482588,66.7128,I,,
Raw,1730974197000,1253840000000,18,54.751718088204015,-1415008161160999936,0.0,54.751718088204015,-3871.108429765041,0.0,0,20,0.0,16905,382200925949217,316,21.69099998474121,-1172.758056640625,0.14999,16,-444484.26289910724,0.002025000052526593,1561097980,,,,0,4.836396610939529,5,6.0,21.69099998474121,0.0,0.0,-13.541244846482588,66.7128,I,,
Raw,1730974197000,1253840000000,18,54.751718088204015,-1415008161160999936,0.0,54.751718088204015,-3871.108429765041,0.0,0,8,0.0,16431,382214914402702,487,12.800000190734863,-777.1528555302526,0.14999,24,-396004.2037744959,0.009999999776482582,1575420030,,,,0,0.0,6,6.0,12.800000190734863,0.0,0.0,14.38402462627402,66.7128,C,,
Raw,1730974198000,1254840000000,18,53.306931954431015,-1415008161160999936,0.0,53.306931954431015,-3890.6683426190816,0.0,0,9,0.0,16431,382215933324471,487,20.22800064086914,-1406.57203585162,0.14999,16,-440957.1522825679,0.009999999776482582,1575420030,,,,0,0.0,1,6.0,20.22800064086914,0.0,0.0,0.0,66.7128,C,,
Raw,1730974198000,1254840000000,18,53.306931954431015,-1415008161160999936,0.0,53.306931954431015,-3890.6683426190816,0.0,0,4,0.0,16431,382215933514207,396,21.56599998474121,-1049.453902538303,0.14999,16,-420056.29722525063,0.004900000058114529,1575420030,,,,0,3.4239549666262126,1,6.0,21.56599998474121,0.0,0.0,0.0,66.7128,C,,
Raw,1730974198000,1254840000000,18,53.306931954431015,-1415008161160999936,0.0,53.306931954431015,-3890.6683426190816,0.0,0,27,0.0,16905,382201921829754,316,28.309999465942383,-1526.1787109375,0.14999,17,-523794.7763164908,0.002025000052526593,1561097980,,,,0,7.993131797734244,5,6.0,28.309999465942383,0.0,0.0,-30.67096115855242,66.7128,I,,
Raw,1730974198000,1254840000000,18,53.306931954431015,-1415008161160999936,0.0,53.306931954431015,-3890.6683426190816,0.0,0,28,0.0,16905,382201919663191,487,27.34000015258789,-1221.429443359375,0.14999,21,-445651.8965730527,0.009999999776482582,1561097980,,,,0,7.571915226097767,5,6.0,27.34000015258789,0.0,0.0,-30.67096115855242,66.7128,I,,
Raw,1730974198000,1254840000000,18,53.306931954431015,-1415008161160999936,0.0,53.306931954431015,-3890.6683426190816,0.0,0,7,0.0,16905,382201879141937,797,14.5,-1184.2645263671875,0.14999,16,-443573.1742793131,0.02250000089406967,1561097980,,,,0,0.0,5,6.0,14.5,0.0,0.0,-30.67096115855242,66.7128,I,,
Raw,1730974198000,1254840000000,18,53.306931954431015,-1415008161160999936,0.0,53.306931954431015,-3890.6683426190816,0.0,0,7,0.0,16431,382215922966691,235,26.5,-1203.19269970973,0.14999,25,-443385.3510553404,0.0008999999845400453,1575420030,,,,0,7.929554726155014,6,6.0,26.5,0.0,0.0,14.059994462462136,66.7128,C,,
Raw,1730974198000,1254840000000,18,53.306931954431015,-1415008161160999936,0.0,53.306931954431015,-3890.6683426190816,0.0,0,10,0.0,16905,382201879438380,396,19.236000061035156,-1194.793701171875,0.14999,16,-446912.38172020245,0.004900000058114529,1561097980,,,,0,0.21237952020587986,5,6.0,19.236000061035156,0.0,0.0,-30.67096115855242,66.7128,I,,
Raw,1730974198000,1254840000000,18,53.306931954431015,-1415008161160999936,0.0,53.306931954431015,-3890.6683426190816,0.0,0,40,0.0,16905,382201877781244,797,16.200000762939453,-1178.85546875,0.14999,16,-444033.0832641016,0.02250000089406967,1561097980,,,,0,0.0,5,6.0,16.200000762939453,0.0,0.0,-30.67096115855242,66.7128,I,,
Raw,1730974198000,1254840000000,18,53.306931954431015,-1415008161160999936,0.0,53.306931954431015,-3890.6683426190816,0.0,0,7,0.0,32995,47397933591091,235,0.0,-611.5743120523942,0.14999,17,-392930.52987473534,0.0008999999845400453,1604812540,,,,0,10.377689966640535,3,6.0,29.0,0.0,0.0,-46.063367125737344,66.7128,C,,
Raw,1730974198000,1254840000000,18,53.306931954431015,-1415008161160999936,0.0,53.306931954431015,-3890.6683426190816,0.0,0,11,0.0,32995,47397929000222,797,21.200000762939453,-1041.1901891994676,0.14999,16,-431799.82508271106,0.02250000089406967,1602000000,,,,0,0.0,3,6.0,21.200000762939453,0.0,0.0,-46.063367125737344,66.7128,C,,
Raw,1730974198000,1254840000000,18,53.306931954431015,-1415008161160999936,0.0,53.306931954431015,-3890.6683426190816,0.0,0,8,0.0,32995,47397935979425,396,0.0,-1331.966680481483,0.14999,20,-445627.0598911366,0.004900000058114529,1605374980,,,,0,1.0374429785672363,3,6.0,22.0,0.0,0.0,-46.063367125737344,66.7128,C,,
Raw,1730974198000,1254840000000,18,53.306931954431015,-1415008161160999936,0.0,53.306931954431015,-3890.6683426190816,0.0,0,14,0.0,16431,382215922986128,797,17.038999557495117,-1507.0623334496738,0.14999,16,-493312.6573641386,0.02250000089406967,1575420030,,,,0,0.0,1,6.0,17.038999557495117,0.0,0.0,0.0,66.7128,C,,
Raw,1730974198000,1254840000000,18,53.306931954431015,-1415008161160999936,0.0,53.306931954431015,-3890.6683426190816,0.0,0,8,0.0,16431,382215931801726,235,28.700000762939453,-1026.0217640710264,0.14999,17,-416773.7675634887,0.0008999999845400453,1575420030,,,,0,9.934872895177737,1,6.0,28.700000762939453,0.0,0.0,0.0,66.7128,C,,
Raw,1730974198000,1254840000000,18,53.306931954431015,-1415008161160999936,0.0,53.306931954431015,-3890.6683426190816,0.0,0,7,0.0,16431,382215923695050,797,16.99799919128418,-1401.5985694794495,0.14999,16,-443911.0344082766,0.02250000089406967,1575420030,,,,0,0.0,1,6.0,16.99799919128418,0.0,0.0,0.0,66.7128,C,,
Raw,1730974198000,1254840000000,18,53.306931954431015,-1415008161160999936,0.0,53.306931954431015,-3890.6683426190816,0.0,0,32,0.0,16905,382201922420131,74,32.0,-650.4313354492188,0.14999,17,-292013.6855087848,0.0006249999860301614,1561097980,,,,0,14.241987201278247,5,6.0,32.0,0.0,0.0,-30.67096115855242,66.7128,I,,
Raw,1730974198000,1254840000000,18,53.306931954431015,-1415008161160999936,0.0,53.306931954431015,-3890.6683426190816,0.0,0,20,0.0,16905,382201925953142,396,21.715999603271484,-1178.86328125,0.14999,16,-445661.1876115308,0.004900000058114529,1561097980,,,,0,2.4880182111156843,5,6.0,21.715999603271484,0.0,0.0,-30.67096115855242,66.7128,I,,
