# 
# Header Description:
# 
# Version: v3.1.0.2 Platform: 14 Manufacturer: samsung Model: SM-S918B GNSS Hardware Model Name: Qualcomm GNSS GEN9
# 
# Raw,utcTimeMillis,TimeNanos,LeapSecond,TimeUncertaintyNanos,FullBiasNanos,BiasNanos,BiasUncertaintyNanos,DriftNanosPerSecond,DriftUncertaintyNanosPerSecond,HardwareClockDiscontinuityCount,Svid,TimeOffsetNanos,State,ReceivedSvTimeNanos,ReceivedSvTimeUncertaintyNanos,Cn0DbHz,PseudorangeRateMetersPerSecond,PseudorangeRateUncertaintyMetersPerSecond,AccumulatedDeltaRangeState,AccumulatedDeltaRangeMeters,AccumulatedDeltaRangeUncertaintyMeters,CarrierFrequencyHz,CarrierCycles,CarrierPhase,CarrierPhaseUncertainty,MultipathIndicator,SnrInDb,ConstellationType,AgcDb,BasebandCn0DbHz,FullInterSignalBiasNanos,FullInterSignalBiasUncertaintyNanos,SatelliteInterSignalBiasNanos,SatelliteInterSignalBiasUncertaintyNanos,CodeType,ChipsetElapsedRealtimeNanos,IsFullTracking
# 
# UncalAccel,utcTimeMillis,elapsedRealtimeNanos,UncalAccelXMps2,UncalAccelYMps2,UncalAccelZMps2,BiasXMps2,BiasYMps2,BiasZMps2
# 
# Accel,utcTimeMillis,elapsedRealtimeNanos,AccelXMps2,AccelYMps2,AccelZMps2
# 
# UncalGyro,utcTimeMillis,elapsedRealtimeNanos,UncalGyroXRadPerSec,UncalGyroYRadPerSec,UncalGyroZRadPerSec,DriftXRadPerSec,DriftYRadPerSec,DriftZRadPerSec
# 
# Gyro,utcTimeMillis,elapsedRealtimeNanos,GyroXRadPerSec,GyroYRadPerSec,GyroZRadPerSec
# 
# UncalMag,utcTimeMillis,elapsedRealtimeNanos,UncalMagXMicroT,UncalMagYMicroT,UncalMagZMicroT,BiasXMicroT,BiasYMicroT,BiasZMicroT
# 
# Mag,utcTimeMillis,elapsedRealtimeNanos,MagXMicroT,MagYMicroT,MagZMicroT
# 
# Pressure,utcTimeMillis,elapsedRealtimeNanos,PressureHpa
# 
# OrientationDeg,utcTimeMillis,elapsedRealtimeNanos,yawDeg,rollDeg,pitchDeg
# 
# Fix,Provider,LatitudeDegrees,LongitudeDegrees,AltitudeMeters,SpeedMps,AccuracyMeters,BearingDegrees,UnixTimeMillis,SpeedAccuracyMps,BearingAccuracyDegrees,elapsedRealtimeNanos,VerticalAccuracyMeters,MockLocation,NumberOfUsedSignals,VerticalSpeedAccuracyMps,SolutionType
# 
# Nav,Svid,Type,Status,MessageId,Sub-messageId,Data(Bytes)
# 
# Status,UnixTimeMillis,SignalCount,SignalIndex,ConstellationType,Svid,CarrierFrequencyHz,Cn0DbHz,AzimuthDegrees,ElevationDegrees,UsedInFix,HasAlmanacData,HasEphemerisData,BasebandCn0DbHz
# 
# Agc,utcTimeMillis,TimeNanos,LeapSecond,TimeUncertaintyNanos,FullBiasNanos,BiasNanos,BiasUncertaintyNanos,DriftNanosPerSecond,DriftUncertaintyNanosPerSecond,HardwareClockDiscontinuityCount,AgcDb,CarrierFrequencyHz,ConstellationType
# 
Status,,7,0,1,4,1575420030,31.50,111.52253,71.65457,1,1,1,26.5
Status,,7,1,1,8,1575420030,32.00,74.8209,54.529476,1,1,1,27.0
Status,,7,2,3,21,1604249980,29.00,142.07607,16.7773,1,1,1,24.0
Status,,7,3,3,7,1604812540,36.70,172.46393,50.668888,1,1,1,31.7
Status,,7,4,5,32,1561097980,38.60,174.24649,41.12264,0,1,1,33.6
Status,,7,5,1,4,1176450050,37.70,111.52253,71.65457,1,1,1,32.7
Status,,7,6,1,8,1176450050,29.50,74.8209,54.529476,1,1,1,24.5
Raw,1730974187135,924659234000000,18,0.0,-1414084745901371332,-0.6752185821533203,140691.44427776337,0.9765624737812494,199.72660450852143,54,4,0.0,16399,382205067966222,21,36.5,113.94784545898438,1.068000078201294,16,0.0,0.0,1575420030,,,,0,0.0,1,-51.86,31.5,0.0,0.0,,,C,772229247848615,0
Raw,1730974187135,924659234000000,18,0.0,-1414084745901371332,-0.6752185821533203,140691.44427776337,0.9765624737812494,199.72660450852143,54,8,0.0,16399,382205066254643,19,37.0,138.63845825195312,1.0295000076293945,16,0.0,0.0,1575420030,,,,0,0.0,1,-51.86,32.0,0.0,0.0,,,C,772229247848615,0
Raw,1730974187135,924659234000000,18,0.0,-1414084745901371332,-0.6752185821533203,140691.44427776337,0.9765624737812494,199.72660450852143,54,21,0.0,49359,47387058734312,27,33.0,-502.4291687011719,0.8115000128746033,16,0.0,0.0,1604249980,,,,0,0.0,3,-54.87,29.0,3793.828369140625,20.427001953125,,,C,772229247848615,0
Raw,1730974187135,924659234000000,18,0.0,-1414084745901371332,-0.6752185821533203,140691.44427776337,0.9765624737812494,199.72660450852143,54,7,0.0,49359,47387068055256,13,40.7,553.1957397460938,0.9214999675750732,16,0.0,0.0,1604812540,,,,0,0.0,3,-54.87,36.7,3793.828369140625,20.427001953125,,,C,772229247848615,0
Raw,1730974187135,924659234000000,18,0.0,-1414084745901371332,-0.6752185821533203,140691.44427776337,0.9765624737812494,199.72660450852143,54,32,0.0,16399,382191056888239,11,42.9,514.62744140625,0.8645000457763672,16,0.0,0.0,1561097980,,,,0,0.0,5,-60.87,38.6,-1540.6678466796875,17.420480728149414,,,I,772229247848615,0
Raw,1730974187135,924659234000000,18,0.0,-1414084745901371332,-0.6752185821533203,140691.44427776337,0.9765624737812494,199.72660450852143,54,4,0.0,81935,382205067966187,3,42.7,114.15022277832031,0.8480000495910645,16,0.0,0.0,1176450050,,,,0,0.0,1,-40.65,37.7,22.176738739013672,5.384913921356201,,,Q,772229247848615,0
Raw,1730974187135,924659234000000,18,0.0,-1414084745901371332,-0.6752185821533203,140691.44427776337,0.9765624737812494,199.72660450852143,54,8,0.0,81935,382205066254601,7,34.5,138.79209899902344,1.1195000410079956,16,0.0,0.0,1176450050,,,,0,0.0,1,-40.65,29.5,22.176738739013672,5.384913921356201,,,Q,772229247848615,0
Agc,1730974187135,924659234000000,18,0.0,-1414084745901371332,-0.6752185821533203,140691.44427776337,0.9765624737812494,199.72660450852143,54,-51.86,1575420000,1
Agc,1730974187135,924659234000000,18,0.0,-1414084745901371332,-0.6752185821533203,140691.44427776337,0.9765624737812494,199.72660450852143,54,-51.86,1575420000,4
Agc,1730974187135,924659234000000,18,0.0,-1414084745901371332,-0.6752185821533203,140691.44427776337,0.9765624737812494,199.72660450852143,54,-54.87,1602000000,3
Agc,1730974187135,924659234000000,18,0.0,-1414084745901371332,-0.6752185821533203,140691.44427776337,0.9765624737812494,199.72660450852143,54,-60.87,1561098000,5
Agc,1730974187135,924659234000000,18,0.0,-1414084745901371332,-0.6752185821533203,140691.44427776337,0.9765624737812494,199.72660450852143,54,-55.64,1575420000,6
Agc,1730974187135,924659234000000,18,0.0,-1414084745901371332,-0.6752185821533203,140691.44427776337,0.9765624737812494,199.72660450852143,54,-40.65,1176450000,1
Agc,1730974187135,924659234000000,18,0.0,-1414084745901371332,-0.6752185821533203,140691.44427776337,0.9765624737812494,199.72660450852143,54,-40.65,1176450000,4
Agc,1730974187135,924659234000000,18,0.0,-1414084745901371332,-0.6752185821533203,140691.44427776337,0.9765624737812494,199.72660450852143,54,-40.65,1176450000,6
Agc,1730974187135,924659234000000,18,0.0,-1414084745901371332,-0.6752185821533203,140691.44427776337,0.9765624737812494,199.72660450852143,54,-40.65,1176450000,5
Agc,1730974187135,924659234000000,18,0.0,-1414084745901371332,-0.6752185821533203,140691.44427776337,0.9765624737812494,199.72660450852143,54,-55.64,1575420000,5
Fix,FLP,12.9255719000,77.5201188000,757.2000122070312,0.20660102,21.111,62.78001,1730974185871,1.5,45.0,772228372000000,0.96325207,0,,,
Status,,45,0,1,3,1575420030,25.00,185.10349,21.199793,0,1,1,20.0
Status,,45,1,1,4,1575420030,33.50,111.65317,71.68455,1,1,1,28.5
Status,,45,2,1,7,1575420030,29.00,335.84863,31.496225,1,1,1,24.0
Status,,45,3,1,8,1575420030,32.50,74.786415,54.55012,1,1,1,27.5
Status,,45,4,1,9,1575420030,30.30,338.96274,70.28971,0,1,1,25.3
Status,,45,5,1,14,1575420030,23.80,247.68947,22.996183,0,1,1,18.8
Status,,45,6,1,27,1575420030,21.90,49.75068,25.696049,1,1,1,16.9
Status,,45,7,4,196,1575420030,22.00,134.67662,15.736556,1,1,1,17.0
Status,,45,8,3,21,1604249980,29.90,142.07239,16.780931,1,1,1,24.9
Status,,45,9,3,7,1604812540,37.20,172.46642,50.664066,1,1,1,32.2
Status,,45,10,3,8,1605374980,28.70,302.53906,68.43442,0,1,0,23.7
Status,,45,11,5,59,1561097980,33.20,98.88454,18.035814,0,1,0,28.2
Status,,45,12,5,40,1561097980,26.60,62.208065,56.092182,1,1,1,21.6
Status,,45,13,5,37,1561097980,28.20,20.453646,33.640118,1,1,1,23.2
Status,,45,14,5,32,1561097980,39.90,174.2471,41.118958,0,1,1,34.9
Status,,45,15,5,28,1561097980,36.00,87.88719,26.746843,1,1,1,31.0
Status,,45,16,5,27,1561097980,30.20,140.55534,33.99683,1,1,1,25.2
Status,,45,17,5,20,1561097980,32.70,274.35583,60.27629,0,1,1,27.7
Status,,45,18,5,10,1561097980,32.20,92.85834,75.731026,1,1,1,27.2
Status,,45,19,5,9,1561097980,24.20,36.7855,42.647594,1,1,1,19.2
Status,,45,20,5,7,1561097980,33.60,67.726364,65.50302,1,1,1,28.6
Status,,45,21,5,2,1561097980,32.50,155.33255,71.825714,1,1,1,27.5
Status,,45,22,6,7,1575420030,29.20,68.69789,78.55669,1,1,1,24.2
Status,,45,23,6,8,1575420030,29.70,133.61072,30.81919,1,1,1,24.7
Status,,45,24,6,21,1575420030,29.60,250.02782,33.54626,1,1,1,24.6
Status,,45,25,6,27,1575420030,24.30,327.801,61.200436,1,1,1,19.3
Status,,45,26,6,30,1575420030,24.90,28.480774,26.086815,1,1,1,19.9
Status,,45,27,1,3,1176450050,24.50,185.10349,21.199793,1,1,1,19.5
Status,,45,28,1,4,1176450050,37.00,111.65317,71.68455,1,1,1,32.0
Status,,45,29,1,8,1176450050,28.00,74.786415,54.55012,1,1,1,23.0
Status,,45,30,1,9,1176450050,23.70,338.96274,70.28971,1,1,1,18.7
Status,,45,31,1,27,1176450050,21.60,49.75068,25.696049,0,1,1,16.6
Status,,45,32,4,195,1176450050,22.50,96.885574,9.182961,0,1,1,17.5
Status,,45,33,6,7,1176450050,31.70,68.69789,78.55669,1,1,1,26.7
Status,,45,34,6,8,1176450050,36.50,133.61072,30.81919,1,1,1,31.5
Status,,45,35,6,21,1176450050,23.00,250.02782,33.54626,0,1,1,18.0
Status,,45,36,5,27,1176450050,31.50,140.55534,33.99683,0,1,1,26.5
Status,,45,37,5,28,1176450050,34.80,87.88719,26.746843,1,1,1,29.8
Status,,45,38,5,32,1176450050,25.80,174.2471,41.118958,1,1,1,20.8
Status,,45,39,5,40,1176450050,23.70,62.208065,56.092182,0,1,1,18.7
Status,,45,40,5,20,1575420030,26.60,274.35583,60.27629,0,1,1,21.6
Status,,45,41,5,27,1575420030,25.90,140.55534,33.99683,0,1,1,20.9
Status,,45,42,5,28,1575420030,32.80,87.88719,26.746843,1,1,1,27.8
Status,,45,43,5,32,1575420030,37.20,174.2471,41.118958,0,1,1,32.2
Status,,45,44,5,40,1575420030,27.20,62.208065,56.092182,0,1,1,22.2
Raw,1730974188415,924660514000000,18,0.0,-1414084745901369507,-0.46178627014160156,210.7410109601915,-2.1317085743244055,14.794085952933198,54,3,0.0,16399,382206336831257,46,30.0,527.094482421875,0.8255000114440918,16,0.0,0.0,1575420030,,,,0,0.0,1,-51.83,25.0,0.0,0.0,,,C,772230527166687,0
Raw,1730974188415,924660514000000,18,0.0,-1414084745901369507,-0.46178627014160156,210.7410109601915,-2.1317085743244055,14.794085952933198,54,4,0.0,16399,382206347965749,17,38.5,114.37947845458984,0.048794373869895935,16,0.0,0.0,1575420030,,,,0,0.0,1,-51.83,33.5,0.0,0.0,,,C,772230527166687,0
Raw,1730974188415,924660514000000,18,0.0,-1414084745901369507,-0.46178627014160156,210.7410109601915,-2.1317085743244055,14.794085952933198,54,7,0.0,16399,382206338135361,27,34.0,-235.1934814453125,0.6184999942779541,16,0.0,0.0,1575420030,,,,0,0.0,1,-51.83,29.0,0.0,0.0,,,C,772230527166687,0
Raw,1730974188415,924660514000000,18,0.0,-1414084745901369507,-0.46178627014160156,210.7410109601915,-2.1317085743244055,14.794085952933198,54,8,0.0,16399,382206346254082,19,37.5,138.82765197753906,0.060208678245544434,16,0.0,0.0,1575420030,,,,0,0.0,1,-51.83,32.5,0.0,0.0,,,C,772230527166687,0
Raw,1730974188415,924660514000000,18,0.0,-1414084745901369507,-0.46178627014160156,210.7410109601915,-2.1317085743244055,14.794085952933198,54,9,0.0,16399,382206347764564,24,35.3,-242.09156799316406,0.11800329387187958,16,0.0,0.0,1575420030,,,,0,0.0,1,-51.83,30.299999999999997,0.0,0.0,,,C,772230527166687,0
Raw,1730974188415,924660514000000,18,0.0,-1414084745901369507,-0.46178627014160156,210.7410109601915,-2.1317085743244055,14.794085952933198,54,14,0.0,16399,382206337423016,61,28.8,-341.65325927734375,0.9569999575614929,16,0.0,0.0,1575420030,,,,0,0.0,1,-51.83,23.8,0.0,0.0,,,C,772230527166687,0
Raw,1730974188415,924660514000000,18,0.0,-1414084745901369507,-0.46178627014160156,210.7410109601915,-2.1317085743244055,14.794085952933198,54,27,0.0,16399,382206339200162,80,26.9,465.1062927246094,1.119999885559082,16,0.0,0.0,1575420030,,,,0,0.0,1,-51.83,21.9,0.0,0.0,,,C,772230527166687,0
Raw,1730974188415,924660514000000,18,0.0,-1414084745901369507,-0.46178627014160156,210.7410109601915,-2.1317085743244055,14.794085952933198,54,196,0.0,16399,382206291638702,70,27.0,75.77494049072266,1.027999997138977,16,0.0,0.0,1575420030,,,,0,0.0,4,-51.83,22.0,0.0,0.0,,,C,772230527166687,0
Raw,1730974188415,924660514000000,18,0.0,-1414084745901369507,-0.46178627014160156,210.7410109601915,-2.1317085743244055,14.794085952933198,54,21,0.0,49359,47388338736330,27,33.9,-502.8963623046875,0.6015000343322754,16,0.0,0.0,1604249980,,,,0,0.0,3,-54.94,29.9,3793.24755859375,10.319438934326172,,,C,772230527166687,0
Raw,1730974188415,924660514000000,18,0.0,-1414084745901369507,-0.46178627014160156,210.7410109601915,-2.1317085743244055,14.794085952933198,54,7,0.0,49359,47388348052885,12,41.2,553.2274780273438,1.7201358079910278,16,0.0,0.0,1604812540,,,,0,0.0,3,-54.94,37.2,3793.24755859375,10.319438934326172,,,C,772230527166687,0
Raw,1730974188415,924660514000000,18,0.0,-1414084745901369507,-0.46178627014160156,210.7410109601915,-2.1317085743244055,14.794085952933198,54,8,0.0,49359,47388350418114,31,32.7,-168.64756774902344,0.6965000033378601,16,0.0,0.0,1605374980,,,,0,0.0,3,-54.94,28.700000000000003,3793.24755859375,10.319438934326172,,,C,772230527166687,0
Raw,1730974188415,924660514000000,18,0.0,-1414084745901369507,-0.46178627014160156,210.7410109601915,-2.1317085743244055,14.794085952933198,54,59,0.0,16399,382192282747484,17,37.5,1.872385025024414,2.186800003051758,16,0.0,0.0,1561097980,,,,0,0.0,5,-60.66,33.2,-1541.7833251953125,9.012140274047852,,,I,772230527166687,0
Raw,1730974188415,924660514000000,18,0.0,-1414084745901369507,-0.46178627014160156,210.7410109601915,-2.1317085743244055,14.794085952933198,54,40,0.0,16399,382192292230278,40,30.9,-12.482566833496094,0.7744999527931213,16,0.0,0.0,1561097980,,,,0,0.0,5,-60.66,26.599999999999998,-1541.7833251953125,9.012140274047852,,,I,772230527166687,0
Raw,1730974188415,924660514000000,18,0.0,-1414084745901369507,-0.46178627014160156,210.7410109601915,-2.1317085743244055,14.794085952933198,54,37,0.0,16399,382192334843773,31,32.5,199.50982666015625,0.6574999690055847,16,0.0,0.0,1561097980,,,,0,0.0,5,-60.66,28.2,-1541.7833251953125,9.012140274047852,,,I,772230527166687,0
Raw,1730974188415,924660514000000,18,0.0,-1414084745901369507,-0.46178627014160156,210.7410109601915,-2.1317085743244055,14.794085952933198,54,32,0.0,16399,382192336886047,10,44.2,514.9368896484375,0.010453224182128906,16,0.0,0.0,1561097980,,,,0,0.0,5,-60.66,39.900000000000006,-1541.7833251953125,9.012140274047852,,,I,772230527166687,0
Raw,1730974188415,924660514000000,18,0.0,-1414084745901369507,-0.46178627014160156,210.7410109601915,-2.1317085743244055,14.794085952933198,54,28,0.0,16399,382192334110882,13,40.3,-54.70342254638672,0.015968941152095795,16,0.0,0.0,1561097980,,,,0,0.0,5,-60.66,36.0,-1541.7833251953125,9.012140274047852,,,I,772230527166687,0
Raw,1730974188415,924660514000000,18,0.0,-1414084745901369507,-0.46178627014160156,210.7410109601915,-2.1317085743244055,14.794085952933198,54,27,0.0,16399,382192336267703,24,34.5,-360.1980285644531,0.08720056712627411,16,0.0,0.0,1561097980,,,,0,0.0,5,-60.66,30.2,-1541.7833251953125,9.012140274047852,,,I,772230527166687,0
Raw,1730974188415,924660514000000,18,0.0,-1414084745901369507,-0.46178627014160156,210.7410109601915,-2.1317085743244055,14.794085952933198,54,20,0.0,16399,382192340402134,19,37.0,-14.612258911132812,9.257340431213379,16,0.0,0.0,1561097980,,,,0,0.0,5,-60.66,32.7,-1541.7833251953125,9.012140274047852,,,I,772230527166687,0
Raw,1730974188415,924660514000000,18,0.0,-1414084745901369507,-0.46178627014160156,210.7410109601915,-2.1317085743244055,14.794085952933198,54,10,0.0,16399,382192293886851,19,36.5,-30.828113555908203,0.03194453567266464,16,0.0,0.0,1561097980,,,,0,0.0,5,-60.66,32.2,-1541.7833251953125,9.012140274047852,,,I,772230527166687,0
Raw,1730974188415,924660514000000,18,0.0,-1414084745901369507,-0.46178627014160156,210.7410109601915,-2.1317085743244055,14.794085952933198,54,9,0.0,16399,382192288961983,53,28.5,-150.74139404296875,0.9014999866485596,16,0.0,0.0,1561097980,,,,0,0.0,5,-60.66,24.2,-1541.7833251953125,9.012140274047852,,,I,772230527166687,0
Raw,1730974188415,924660514000000,18,0.0,-1414084745901369507,-0.46178627014160156,210.7410109601915,-2.1317085743244055,14.794085952933198,54,7,0.0,16399,382192293591077,17,37.9,-4.546233177185059,0.02193927764892578,16,0.0,0.0,1561097980,,,,0,0.0,5,-60.66,33.6,-1541.7833251953125,9.012140274047852,,,I,772230527166687,0
Raw,1730974188415,924660514000000,18,0.0,-1414084745901369507,-0.46178627014160156,210.7410109601915,-2.1317085743244055,14.794085952933198,54,2,0.0,16399,382192295901844,19,36.8,7.5567545890808105,2.027700185775757,16,0.0,0.0,1561097980,,,,0,0.0,5,-60.66,32.5,-1541.7833251953125,9.012140274047852,,,I,772230527166687,0
Raw,1730974188415,924660514000000,18,0.0,-1414084745901369507,-0.46178627014160156,210.7410109601915,-2.1317085743244055,14.794085952933198,54,7,0.0,23567,382206337414823,27,33.5,-38.082820892333984,0.16069144010543823,16,0.0,0.0,1575420030,,,,0,0.0,6,-55.63,29.2,-1466.066650390625,9.348711013793945,,,C,772230527166687,0
Raw,1730974188415,924660514000000,18,0.0,-1414084745901369507,-0.46178627014160156,210.7410109601915,-2.1317085743244055,14.794085952933198,54,8,0.0,23567,382206328866946,27,34.0,381.9363098144531,0.15919142961502075,16,0.0,0.0,1575420030,,,,0,0.0,6,-55.63,29.7,-1466.066650390625,9.348711013793945,,,C,772230527166687,0
Raw,1730974188415,924660514000000,18,0.0,-1414084745901369507,-0.46178627014160156,210.7410109601915,-2.1317085743244055,14.794085952933198,54,21,0.0,23567,382206329386970,27,33.9,-203.87657165527344,0.16069144010543823,16,0.0,0.0,1575420030,,,,0,0.0,6,-55.63,29.599999999999998,-1466.066650390625,9.348711013793945,,,C,772230527166687,0
Raw,1730974188415,924660514000000,18,0.0,-1414084745901369507,-0.46178627014160156,210.7410109601915,-2.1317085743244055,14.794085952933198,54,27,0.0,23567,382206335318703,53,28.6,185.5839080810547,1.0199999809265137,16,0.0,0.0,1575420030,,,,0,0.0,6,-55.63,24.3,-1466.066650390625,9.348711013793945,,,C,772230527166687,0
Raw,1730974188415,924660514000000,18,0.0,-1414084745901369507,-0.46178627014160156,210.7410109601915,-2.1317085743244055,14.794085952933198,54,30,0.0,23567,382206326963347,53,29.2,430.7898864746094,3.276017189025879,16,0.0,0.0,1575420030,,,,0,0.0,6,-55.63,24.9,-1466.066650390625,9.348711013793945,,,C,772230527166687,0
Raw,1730974188415,924660514000000,18,0.0,-1414084745901369507,-0.46178627014160156,210.7410109601915,-2.1317085743244055,14.794085952933198,54,3,0.0,81935,382206336831292,11,29.5,527.4080200195312,2.662303924560547,16,0.0,0.0,1176450050,,,,0,0.0,1,-40.19,24.5,22.17813491821289,5.394981861114502,,,Q,772230527166687,0
Raw,1730974188415,924660514000000,18,0.0,-1414084745901369507,-0.46178627014160156,210.7410109601915,-2.1317085743244055,14.794085952933198,54,4,0.0,81935,382206347965696,3,42.0,114.36811065673828,0.0520402267575264,16,0.0,0.0,1176450050,,,,0,0.0,1,-40.19,37.0,22.17813491821289,5.394981861114502,,,Q,772230527166687,0
Raw,1730974188415,924660514000000,18,0.0,-1414084745901369507,-0.46178627014160156,210.7410109601915,-2.1317085743244055,14.794085952933198,54,8,0.0,81935,382206346253998,8,33.0,138.78814697265625,0.05818506330251694,16,0.0,0.0,1176450050,,,,0,0.0,1,-40.19,28.0,22.17813491821289,5.394981861114502,,,Q,772230527166687,0
Raw,1730974188415,924660514000000,18,0.0,-1414084745901369507,-0.46178627014160156,210.7410109601915,-2.1317085743244055,14.794085952933198,54,9,0.0,81935,382206347764529,12,28.7,-242.13760375976562,1.121999979019165,16,0.0,0.0,1176450050,,,,0,0.0,1,-40.19,23.7,22.17813491821289,5.394981861114502,,,Q,772230527166687,0
Raw,1730974188415,924660514000000,18,0.0,-1414084745901369507,-0.46178627014160156,210.7410109601915,-2.1317085743244055,14.794085952933198,54,27,0.0,81935,382206339200147,16,26.6,464.75537109375,1.149999976158142,16,0.0,0.0,1176450050,,,,0,0.0,1,-40.19,21.6,22.17813491821289,5.394981861114502,,,Q,772230527166687,0
Raw,1730974188415,924660514000000,18,0.0,-1414084745901369507,-0.46178627014160156,210.7410109601915,-2.1317085743244055,14.794085952933198,54,195,0.0,16399,382206281265060,14,27.5,53.84516525268555,1.0429999828338623,16,0.0,0.0,1176450050,,,,0,0.0,4,-40.19,22.5,22.17813491821289,5.394981861114502,,,Q,772230527166687,0
Raw,1730974188415,924660514000000,18,0.0,-1414084745901369507,-0.46178627014160156,210.7410109601915,-2.1317085743244055,14.794085952933198,54,7,0.0,81935,382206337414725,6,37.0,-38.109291076660156,0.8470688462257385,16,0.0,0.0,1176450050,,,,0,0.0,6,-40.19,31.7,-1452.206787109375,428.02557373046875,,,Q,772230527166687,0
Raw,1730974188415,924660514000000,18,0.0,-1414084745901369507,-0.46178627014160156,210.7410109601915,-2.1317085743244055,14.794085952933198,54,8,0.0,81935,382206328866887,3,41.8,381.9325866699219,0.11473792791366577,16,0.0,0.0,1176450050,,,,0,0.0,6,-40.19,36.5,-1452.206787109375,428.02557373046875,,,Q,772230527166687,0
Raw,1730974188415,924660514000000,18,0.0,-1414084745901369507,-0.46178627014160156,210.7410109601915,-2.1317085743244055,14.794085952933198,54,21,0.0,81935,382206329386930,12,28.3,-203.62034606933594,1.125,16,0.0,0.0,1176450050,,,,0,0.0,6,-40.19,23.0,-1452.206787109375,428.02557373046875,,,Q,772230527166687,0
Raw,1730974188415,924660514000000,18,0.0,-1414084745901369507,-0.46178627014160156,210.7410109601915,-2.1317085743244055,14.794085952933198,54,27,0.0,16399,382192336267599,6,36.0,-360.355712890625,12.342830657958984,16,0.0,0.0,1176450050,,,,0,0.0,5,-40.19,31.5,-1505.2786865234375,427.8330383300781,,,Q,772230527166687,0
Raw,1730974188415,924660514000000,18,0.0,-1414084745901369507,-0.46178627014160156,210.7410109601915,-2.1317085743244055,14.794085952933198,54,28,0.0,16399,382192334110804,4,39.3,-54.71039962768555,0.09697423875331879,16,0.0,0.0,1176450050,,,,0,0.0,5,-40.19,34.8,-1505.2786865234375,427.8330383300781,,,Q,772230527166687,0
Raw,1730974188415,924660514000000,18,0.0,-1414084745901369507,-0.46178627014160156,210.7410109601915,-2.1317085743244055,14.794085952933198,54,32,0.0,16399,382192336885963,10,30.3,514.8583984375,0.294747531414032,16,0.0,0.0,1176450050,,,,0,0.0,5,-40.19,25.8,-1505.2786865234375,427.8330383300781,,,Q,772230527166687,0
Raw,1730974188415,924660514000000,18,0.0,-1414084745901369507,-0.46178627014160156,210.7410109601915,-2.1317085743244055,14.794085952933198,54,40,0.0,16399,382192292230233,12,28.2,-13.251057624816895,0.9194999933242798,16,0.0,0.0,1176450050,,,,0,0.0,5,-40.19,23.7,-1505.2786865234375,427.8330383300781,,,Q,772230527166687,0
Raw,1730974188415,924660514000000,18,0.0,-1414084745901369507,-0.46178627014160156,210.7410109601915,-2.1317085743244055,14.794085952933198,54,20,0.0,16399,382192340402151,9,33.6,-15.159914016723633,0.6089412569999695,16,0.0,0.0,1575420030,,,,0,0.0,5,-55.63,26.6,-1553.60107421875,423.4502868652344,,,P,772230527166687,0
Raw,1730974188415,924660514000000,18,0.0,-1414084745901369507,-0.46178627014160156,210.7410109601915,-2.1317085743244055,14.794085952933198,54,27,0.0,16399,382192336267704,10,32.9,-360.2304382324219,0.06974328309297562,16,0.0,0.0,1575420030,,,,0,0.0,5,-55.63,25.9,-1553.60107421875,423.4502868652344,,,P,772230527166687,0
Raw,1730974188415,924660514000000,18,0.0,-1414084745901369507,-0.46178627014160156,210.7410109601915,-2.1317085743244055,14.794085952933198,54,28,0.0,16399,382192334110887,5,39.8,-54.714378356933594,0.03709552437067032,16,0.0,0.0,1575420030,,,,0,0.0,5,-55.63,32.8,-1553.60107421875,423.4502868652344,,,P,772230527166687,0
Raw,1730974188415,924660514000000,18,0.0,-1414084745901369507,-0.46178627014160156,210.7410109601915,-2.1317085743244055,14.794085952933198,54,32,0.0,16399,382192336886064,3,44.2,514.927001953125,0.03299757093191147,16,0.0,0.0,1575420030,,,,0,0.0,5,-55.63,37.2,-1553.60107421875,423.4502868652344,,,P,772230527166687,0
Raw,1730974188415,924660514000000,18,0.0,-1414084745901369507,-0.46178627014160156,210.7410109601915,-2.1317085743244055,14.794085952933198,54,40,0.0,16399,382192292230324,8,34.2,-13.121644020080566,0.034552231431007385,16,0.0,0.0,1575420030,,,,0,0.0,5,-55.63,27.200000000000003,-1553.60107421875,423.4502868652344,,,P,772230527166687,0
Agc,1730974188415,924660514000000,18,0.0,-1414084745901369507,-0.46178627014160156,210.7410109601915,-2.1317085743244055,14.794085952933198,54,-51.83,1575420000,1
Agc,1730974188415,924660514000000,18,0.0,-1414084745901369507,-0.46178627014160156,210.7410109601915,-2.1317085743244055,14.794085952933198,54,-51.83,1575420000,4
Agc,1730974188415,924660514000000,18,0.0,-1414084745901369507,-0.46178627014160156,210.7410109601915,-2.1317085743244055,14.794085952933198,54,-54.94,1602000000,3
Agc,1730974188415,924660514000000,18,0.0,-1414084745901369507,-0.46178627014160156,210.7410109601915,-2.1317085743244055,14.794085952933198,54,-60.66,1561098000,5
Agc,1730974188415,924660514000000,18,0.0,-1414084745901369507,-0.46178627014160156,210.7410109601915,-2.1317085743244055,14.794085952933198,54,-55.63,1575420000,6
Agc,1730974188415,924660514000000,18,0.0,-1414084745901369507,-0.46178627014160156,210.7410109601915,-2.1317085743244055,14.794085952933198,54,-40.19,1176450000,1
Agc,1730974188415,924660514000000,18,0.0,-1414084745901369507,-0.46178627014160156,210.7410109601915,-2.1317085743244055,14.794085952933198,54,-40.19,1176450000,4
Agc,1730974188415,924660514000000,18,0.0,-1414084745901369507,-0.46178627014160156,210.7410109601915,-2.1317085743244055,14.794085952933198,54,-40.19,1176450000,6
Agc,1730974188415,924660514000000,18,0.0,-1414084745901369507,-0.46178627014160156,210.7410109601915,-2.1317085743244055,14.794085952933198,54,-40.19,1176450000,5
Agc,1730974188415,924660514000000,18,0.0,-1414084745901369507,-0.46178627014160156,210.7410109601915,-2.1317085743244055,14.794085952933198,54,-55.63,1575420000,5
Status,,52,0,1,3,1575420030,24.40,185.10349,21.199793,0,1,1,19.4
Status,,52,1,1,4,1575420030,33.10,111.65317,71.68455,1,1,1,28.1
Status,,52,2,1,7,1575420030,30.60,335.84863,31.496225,1,1,1,25.6
Status,,52,3,1,8,1575420030,32.70,74.786415,54.55012,1,1,1,27.7
Status,,52,4,1,9,1575420030,30.80,338.96274,70.28971,1,1,1,25.8
Status,,52,5,1,14,1575420030,22.80,247.68947,22.996183,1,1,1,17.8
Status,,52,6,1,27,1575420030,21.90,49.75068,25.696049,0,1,1,16.9
Status,,52,7,1,30,1575420030,21.50,307.70587,12.655102,0,1,1,16.5
Status,,52,8,4,196,1575420030,22.00,134.67662,15.736556,1,1,1,17.0
Status,,52,9,3,11,1602000000,22.90,311.62985,32.03281,0,1,1,17.9
Status,,52,10,3,21,1604249980,30.40,142.07239,16.780931,1,1,1,25.4
Status,,52,11,3,7,1604812540,36.40,172.46642,50.664066,1,1,1,31.4
Status,,52,12,3,8,1605374980,28.30,302.53906,68.43442,0,1,0,23.3
Status,,52,13,5,60,1561097980,26.80,170.52867,71.91866,0,1,0,21.8
Status,,52,14,5,59,1561097980,34.00,98.88454,18.035814,0,1,0,29.0
Status,,52,15,5,40,1561097980,26.60,62.208065,56.092182,1,1,1,21.6
Status,,52,16,5,37,1561097980,26.50,20.453646,33.640118,1,1,1,21.5
Status,,52,17,5,32,1561097980,39.60,174.2471,41.118958,1,1,1,34.6
Status,,52,18,5,28,1561097980,37.90,87.88719,26.746843,1,1,1,32.9
Status,,52,19,5,27,1561097980,34.80,140.55534,33.99683,1,1,1,29.8
Status,,52,20,5,20,1561097980,33.60,274.35583,60.27629,1,1,1,28.6
Status,,52,21,5,10,1561097980,31.60,92.85834,75.731026,1,1,1,26.6
Status,,52,22,5,9,1561097980,22.60,36.7855,42.647594,1,1,1,17.6
Status,,52,23,5,7,1561097980,34.10,67.726364,65.50302,1,1,1,29.1
Status,,52,24,5,5,1561097980,30.80,236.24715,63.184685,0,1,1,25.8
Status,,52,25,5,2,1561097980,32.90,155.33255,71.825714,1,1,1,27.9
Status,,52,26,6,7,1575420030,25.20,68.69789,78.55669,1,1,1,20.2
Status,,52,27,6,8,1575420030,27.50,133.61072,30.81919,1,1,1,22.5
Status,,52,28,6,21,1575420030,29.60,250.02782,33.54626,1,1,1,24.6
Status,,52,29,6,27,1575420030,26.10,327.801,61.200436,1,1,1,21.1
Status,,52,30,6,30,1575420030,21.30,28.480774,26.086815,1,1,1,16.3
Status,,52,31,1,3,1176450050,24.70,185.10349,21.199793,1,1,1,19.7
Status,,52,32,1,4,1176450050,35.90,111.65317,71.68455,1,1,1,30.9
Status,,52,33,1,8,1176450050,26.90,74.786415,54.55012,1,1,1,21.9
Status,,52,34,1,9,1176450050,22.40,338.96274,70.28971,1,1,1,17.4
Status,,52,35,1,27,1176450050,21.60,49.75068,25.696049,1,1,1,16.6
Status,,52,36,4,195,1176450050,22.50,96.885574,9.182961,1,1,1,17.5
Status,,52,37,4,196,1176450050,19.70,134.67662,15.736556,0,1,1,14.7
Status,,52,38,6,7,1176450050,29.90,68.69789,78.55669,1,1,1,24.9
Status,,52,39,6,8,1176450050,35.40,133.61072,30.81919,1,1,1,30.4
Status,,52,40,6,21,1176450050,24.20,250.02782,33.54626,1,1,1,19.2
Status,,52,41,5,27,1176450050,28.40,140.55534,33.99683,1,1,1,23.4
Status,,52,42,5,28,1176450050,33.40,87.88719,26.746843,1,1,1,28.4
Status,,52,43,5,32,1176450050,25.60,174.2471,41.118958,1,1,1,20.6
Status,,52,44,5,40,1176450050,21.20,62.208065,56.092182,1,1,1,16.2
Status,,52,45,5,20,1575420030,23.50,274.35583,60.27629,1,1,1,18.5
Status,,52,46,5,27,1575420030,27.90,140.55534,33.99683,1,1,1,22.9
Status,,52,47,5,28,1575420030,32.50,87.88719,26.746843,1,1,1,27.5
Status,,52,48,5,32,1575420030,37.70,174.2471,41.118958,1,1,1,32.7
Status,,52,49,5,37,1575420030,21.80,20.453646,33.640118,0,1,1,16.8
Status,,52,50,5,39,1575420030,20.70,70.75659,34.551155,0,1,1,15.7
Status,,52,51,5,40,1575420030,26.60,62.208065,56.092182,1,1,1,21.6
Raw,1730974189415,924661514000000,18,0.0,-1414084745901369543,-0.7908172607421875,58.32182432641275,-2.5447546993175534,10.154023980614143,54,3,0.0,16399,382207336829499,53,29.4,527.703369140625,0.8495000004768372,16,0.0,0.0,1575420030,,,,0,0.0,1,-51.91,24.4,0.0,0.0,,,C,772231527212155,0
Raw,1730974189415,924661514000000,18,0.0,-1414084745901369543,-0.7908172607421875,58.32182432641275,-2.5447546993175534,10.154023980614143,54,4,0.0,16399,382207347965362,17,38.1,114.53800964355469,0.6196753978729248,16,0.0,0.0,1575420030,,,,0,0.0,1,-51.91,33.1,0.0,0.0,,,C,772231527212155,0
Raw,1730974189415,924661514000000,18,0.0,-1414084745901369543,-0.7908172607421875,58.32182432641275,-2.5447546993175534,10.154023980614143,54,7,0.0,16399,382207338136120,24,35.6,-235.23765563964844,1.2342653274536133,16,0.0,0.0,1575420030,,,,0,0.0,1,-51.91,30.6,0.0,0.0,,,C,772231527212155,0
Raw,1730974189415,924661514000000,18,0.0,-1414084745901369543,-0.7908172607421875,58.32182432641275,-2.5447546993175534,10.154023980614143,54,8,0.0,16399,382207346253623,19,37.7,138.99276733398438,0.060208678245544434,16,0.0,0.0,1575420030,,,,0,0.0,1,-51.91,32.7,0.0,0.0,,,C,772231527212155,0
Raw,1730974189415,924661514000000,18,0.0,-1414084745901369543,-0.7908172607421875,58.32182432641275,-2.5447546993175534,10.154023980614143,54,9,0.0,16399,382207347765423,24,35.8,-241.92799377441406,0.10900329053401947,16,0.0,0.0,1575420030,,,,0,0.0,1,-51.91,30.799999999999997,0.0,0.0,,,C,772231527212155,0
Raw,1730974189415,924661514000000,18,0.0,-1414084745901369543,-0.7908172607421875,58.32182432641275,-2.5447546993175534,10.154023980614143,54,14,0.0,16399,382207337424208,70,27.8,-340.9396667480469,0.9980000257492065,16,0.0,0.0,1575420030,,,,0,0.0,1,-51.91,22.8,0.0,0.0,,,C,772231527212155,0
Raw,1730974189415,924661514000000,18,0.0,-1414084745901369543,-0.7908172607421875,58.32182432641275,-2.5447546993175534,10.154023980614143,54,30,0.0,16399,382207332960894,80,26.5,-295.2596435546875,1.8595000505447388,16,0.0,0.0,1575420030,,,,0,0.0,1,-51.91,21.5,0.0,0.0,,,C,772231527212155,0
Raw,1730974189415,924661514000000,18,0.0,-1414084745901369543,-0.7908172607421875,58.32182432641275,-2.5447546993175534,10.154023980614143,54,11,0.0,49359,47389343447785,70,26.9,123.51935577392578,1.8459999561309814,16,0.0,0.0,1602000000,,,,0,0.0,3,-54.95,22.9,3793.245849609375,10.323423385620117,,,C,772231527212155,0
Raw,1730974189415,924661514000000,18,0.0,-1414084745901369543,-0.7908172607421875,58.32182432641275,-2.5447546993175534,10.154023980614143,54,21,0.0,49359,47389338738038,24,34.4,-502.7247314453125,1.7730025053024292,16,0.0,0.0,1604249980,,,,0,0.0,3,-54.95,30.4,3793.245849609375,10.323423385620117,,,C,772231527212155,0
Raw,1730974189415,924661514000000,18,0.0,-1414084745901369543,-0.7908172607421875,58.32182432641275,-2.5447546993175534,10.154023980614143,54,7,0.0,49359,47389348051050,13,40.4,553.3674926757812,0.0397382527589798,16,0.0,0.0,1604812540,,,,0,0.0,3,-54.95,36.4,3793.245849609375,10.323423385620117,,,C,772231527212155,0
Raw,1730974189415,924661514000000,18,0.0,-1414084745901369543,-0.7908172607421875,58.32182432641275,-2.5447546993175534,10.154023980614143,54,8,0.0,49359,47389350418585,31,32.3,-168.19003295898438,0.6784999966621399,16,0.0,0.0,1605374980,,,,0,0.0,3,-54.95,28.299999999999997,3793.245849609375,10.323423385620117,,,C,772231527212155,0
Raw,1730974189415,924661514000000,18,0.0,-1414084745901369543,-0.7908172607421875,58.32182432641275,-2.5447546993175534,10.154023980614143,54,60,0.0,16399,382193295157003,40,31.1,7.01904296875,5.6930999755859375,16,0.0,0.0,1561097980,,,,0,0.0,5,-60.86,26.8,-1542.188720703125,8.887128829956055,,,I,772231527212155,0
Raw,1730974189415,924661514000000,18,0.0,-1414084745901369543,-0.7908172607421875,58.32182432641275,-2.5447546993175534,10.154023980614143,54,59,0.0,16399,382193282747492,16,38.3,6.414119243621826,1.9859000444412231,16,0.0,0.0,1561097980,,,,0,0.0,5,-60.86,34.0,-1542.188720703125,8.887128829956055,,,I,772231527212155,0
Raw,1730974189415,924661514000000,18,0.0,-1414084745901369543,-0.7908172607421875,58.32182432641275,-2.5447546993175534,10.154023980614143,54,37,0.0,16399,382193334843119,40,30.8,199.48101806640625,0.7924999594688416,16,0.0,0.0,1561097980,,,,0,0.0,5,-60.86,26.5,-1542.188720703125,8.887128829956055,,,I,772231527212155,0
Raw,1730974189415,924661514000000,18,0.0,-1414084745901369543,-0.7908172607421875,58.32182432641275,-2.5447546993175534,10.154023980614143,54,32,0.0,16399,382193336884323,10,43.9,514.9429931640625,1.753808617591858,16,0.0,0.0,1561097980,,,,0,0.0,5,-60.86,39.6,-1542.188720703125,8.887128829956055,,,I,772231527212155,0
Raw,1730974189415,924661514000000,18,0.0,-1414084745901369543,-0.7908172607421875,58.32182432641275,-2.5447546993175534,10.154023980614143,54,28,0.0,16399,382193334111064,12,42.2,-54.51691436767578,5.215132713317871,16,0.0,0.0,1561097980,,,,0,0.0,5,-60.86,37.900000000000006,-1542.188720703125,8.887128829956055,,,I,772231527212155,0
Raw,1730974189415,924661514000000,18,0.0,-1414084745901369543,-0.7908172607421875,58.32182432641275,-2.5447546993175534,10.154023980614143,54,27,0.0,16399,382193336268879,16,39.1,-359.7699890136719,15.013117790222168,16,0.0,0.0,1561097980,,,,0,0.0,5,-60.86,34.800000000000004,-1542.188720703125,8.887128829956055,,,I,772231527212155,0
Raw,1730974189415,924661514000000,18,0.0,-1414084745901369543,-0.7908172607421875,58.32182432641275,-2.5447546993175534,10.154023980614143,54,20,0.0,16399,382193340402186,17,37.9,-14.564592361450195,0.6355577707290649,16,0.0,0.0,1561097980,,,,0,0.0,5,-60.86,33.6,-1542.188720703125,8.887128829956055,,,I,772231527212155,0
Raw,1730974189415,924661514000000,18,0.0,-1414084745901369543,-0.7908172607421875,58.32182432641275,-2.5447546993175534,10.154023980614143,54,10,0.0,16399,382193293886950,21,35.9,-30.65853500366211,8.710272789001465,16,0.0,0.0,1561097980,,,,0,0.0,5,-60.86,31.599999999999998,-1542.188720703125,8.887128829956055,,,I,772231527212155,0
Raw,1730974189415,924661514000000,18,0.0,-1414084745901369543,-0.7908172607421875,58.32182432641275,-2.5447546993175534,10.154023980614143,54,9,0.0,16399,382193288962457,70,26.9,-150.5589599609375,1.091499924659729,16,0.0,0.0,1561097980,,,,0,0.0,5,-60.86,22.599999999999998,-1542.188720703125,8.887128829956055,,,I,772231527212155,0
Raw,1730974189415,924661514000000,18,0.0,-1414084745901369543,-0.7908172607421875,58.32182432641275,-2.5447546993175534,10.154023980614143,54,7,0.0,16399,382193293591091,16,38.4,-4.446606159210205,2.9191296100616455,16,0.0,0.0,1561097980,,,,0,0.0,5,-60.86,34.1,-1542.188720703125,8.887128829956055,,,I,772231527212155,0
Raw,1730974189415,924661514000000,18,0.0,-1414084745901369543,-0.7908172607421875,58.32182432641275,-2.5447546993175534,10.154023980614143,54,5,0.0,16399,382193293929542,24,35.1,7.969638824462891,2.947199821472168,16,0.0,0.0,1561097980,,,,0,0.0,5,-60.86,30.8,-1542.188720703125,8.887128829956055,,,I,772231527212155,0
Raw,1730974189415,924661514000000,18,0.0,-1414084745901369543,-0.7908172607421875,58.32182432641275,-2.5447546993175534,10.154023980614143,54,2,0.0,16399,382193295901821,19,37.2,-1.1906448602676392,1.858299970626831,16,0.0,0.0,1561097980,,,,0,0.0,5,-60.86,32.900000000000006,-1542.188720703125,8.887128829956055,,,I,772231527212155,0
Raw,1730974189415,924661514000000,18,0.0,-1414084745901369543,-0.7908172607421875,58.32182432641275,-2.5447546993175534,10.154023980614143,54,7,0.0,23567,382207337414947,46,29.5,-37.971439361572266,2.394695520401001,16,0.0,0.0,1575420030,,,,0,0.0,6,-55.71,25.2,-1466.6700439453125,9.259224891662598,,,C,772231527212155,0
Raw,1730974189415,924661514000000,18,0.0,-1414084745901369543,-0.7908172607421875,58.32182432641275,-2.5447546993175534,10.154023980614143,54,8,0.0,23567,382207328865690,35,31.8,382.0811462402344,0.7654999494552612,16,0.0,0.0,1575420030,,,,0,0.0,6,-55.71,27.5,-1466.6700439453125,9.259224891662598,,,C,772231527212155,0
Raw,1730974189415,924661514000000,18,0.0,-1414084745901369543,-0.7908172607421875,58.32182432641275,-2.5447546993175534,10.154023980614143,54,21,0.0,23567,382207329387653,27,33.9,-203.73529052734375,0.10069143027067184,16,0.0,0.0,1575420030,,,,0,0.0,6,-55.71,29.599999999999998,-1466.6700439453125,9.259224891662598,,,C,772231527212155,0
Raw,1730974189415,924661514000000,18,0.0,-1414084745901369543,-0.7908172607421875,58.32182432641275,-2.5447546993175534,10.154023980614143,54,27,0.0,23567,382207335318118,40,30.4,185.48875427246094,0.8299999833106995,16,0.0,0.0,1575420030,,,,0,0.0,6,-55.71,26.099999999999998,-1466.6700439453125,9.259224891662598,,,C,772231527212155,0
Raw,1730974189415,924661514000000,18,0.0,-1414084745901369543,-0.7908172607421875,58.32182432641275,-2.5447546993175534,10.154023980614143,54,30,0.0,23567,382207326961893,80,25.6,430.97711181640625,1.2085000276565552,16,0.0,0.0,1575420030,,,,0,0.0,6,-55.71,21.3,-1466.6700439453125,9.259224891662598,,,C,772231527212155,0
Raw,1730974189415,924661514000000,18,0.0,-1414084745901369543,-0.7908172607421875,58.32182432641275,-2.5447546993175534,10.154023980614143,54,3,0.0,81935,382207336829532,11,29.7,528.9707641601562,5.540240287780762,16,0.0,0.0,1176450050,,,,0,0.0,1,-40.74,24.7,22.17856788635254,5.39540433883667,,,Q,772231527212155,0
Raw,1730974189415,924661514000000,18,0.0,-1414084745901369543,-0.7908172607421875,58.32182432641275,-2.5447546993175534,10.154023980614143,54,4,0.0,81935,382207347965316,4,40.9,114.54520416259766,0.3919999897480011,16,0.0,0.0,1176450050,,,,0,0.0,1,-40.74,35.9,22.17856788635254,5.39540433883667,,,Q,772231527212155,0
Raw,1730974189415,924661514000000,18,0.0,-1414084745901369543,-0.7908172607421875,58.32182432641275,-2.5447546993175534,10.154023980614143,54,8,0.0,81935,382207346253544,9,31.9,137.34654235839844,6.949728965759277,16,0.0,0.0,1176450050,,,,0,0.0,1,-40.74,26.9,22.17856788635254,5.39540433883667,,,Q,772231527212155,0
Raw,1730974189415,924661514000000,18,0.0,-1414084745901369543,-0.7908172607421875,58.32182432641275,-2.5447546993175534,10.154023980614143,54,9,0.0,81935,382207347765329,14,27.4,-241.8955078125,1.0220000743865967,16,0.0,0.0,1176450050,,,,0,0.0,1,-40.74,22.4,22.17856788635254,5.39540433883667,,,Q,772231527212155,0
Raw,1730974189415,924661514000000,18,0.0,-1414084745901369543,-0.7908172607421875,58.32182432641275,-2.5447546993175534,10.154023980614143,54,196,0.0,16399,382207291638352,20,24.7,75.36539459228516,2.0380001068115234,16,0.0,0.0,1176450050,,,,0,0.0,4,-40.74,19.7,22.17856788635254,5.39540433883667,,,Q,772231527212155,0
Raw,1730974189415,924661514000000,18,0.0,-1414084745901369543,-0.7908172607421875,58.32182432641275,-2.5447546993175534,10.154023980614143,54,7,0.0,81935,382207337414853,7,35.2,-37.956634521484375,0.5669999718666077,16,0.0,0.0,1176450050,,,,0,0.0,6,-40.74,29.900000000000002,-1452.79736328125,123.7938232421875,,,Q,772231527212155,0
Raw,1730974189415,924661514000000,18,0.0,-1414084745901369543,-0.7908172607421875,58.32182432641275,-2.5447546993175534,10.154023980614143,54,8,0.0,81935,382207328865612,4,40.7,382.0382080078125,0.3935000002384186,16,0.0,0.0,1176450050,,,,0,0.0,6,-40.74,35.400000000000006,-1452.79736328125,123.7938232421875,,,Q,772231527212155,0
Raw,1730974189415,924661514000000,18,0.0,-1414084745901369543,-0.7908172607421875,58.32182432641275,-2.5447546993175534,10.154023980614143,54,21,0.0,81935,382207329387612,11,29.5,-203.7069854736328,0.1783515065908432,16,0.0,0.0,1176450050,,,,0,0.0,6,-40.74,24.2,-1452.79736328125,123.7938232421875,,,Q,772231527212155,0
Raw,1730974189415,924661514000000,18,0.0,-1414084745901369543,-0.7908172607421875,58.32182432641275,-2.5447546993175534,10.154023980614143,54,27,0.0,16399,382193336268802,8,32.9,-360.2121887207031,0.7055000066757202,16,0.0,0.0,1176450050,,,,0,0.0,5,-40.74,28.4,-1505.69091796875,123.55217742919922,,,Q,772231527212155,0
Raw,1730974189415,924661514000000,18,0.0,-1414084745901369543,-0.7908172607421875,58.32182432641275,-2.5447546993175534,10.154023980614143,54,28,0.0,16399,382193334110986,5,37.9,-53.8036994934082,20.710186004638672,16,0.0,0.0,1176450050,,,,0,0.0,5,-40.74,33.4,-1505.69091796875,123.55217742919922,,,Q,772231527212155,0
Raw,1730974189415,924661514000000,18,0.0,-1414084745901369543,-0.7908172607421875,58.32182432641275,-2.5447546993175534,10.154023980614143,54,32,0.0,16399,382193336884241,10,30.1,516.759033203125,3.202683925628662,16,0.0,0.0,1176450050,,,,0,0.0,5,-40.74,25.6,-1505.69091796875,123.55217742919922,,,Q,772231527212155,0
Raw,1730974189415,924661514000000,18,0.0,-1414084745901369543,-0.7908172607421875,58.32182432641275,-2.5447546993175534,10.154023980614143,54,40,0.0,16399,382193292230277,16,25.7,-13.582334518432617,1.1994999647140503,16,0.0,0.0,1176450050,,,,0,0.0,5,-40.74,21.2,-1505.69091796875,123.55217742919922,,,Q,772231527212155,0
Raw,1730974189415,924661514000000,18,0.0,-1414084745901369543,-0.7908172607421875,58.32182432641275,-2.5447546993175534,10.154023980614143,54,20,0.0,16399,382193340402210,12,30.5,-14.319598197937012,1.0264999866485596,16,0.0,0.0,1575420030,,,,0,0.0,5,-55.71,23.5,-1554.00732421875,119.1725082397461,,,P,772231527212155,0
Raw,1730974189415,924661514000000,18,0.0,-1414084745901369543,-0.7908172607421875,58.32182432641275,-2.5447546993175534,10.154023980614143,54,27,0.0,16399,382193336268903,8,34.9,-360.16845703125,0.07055222988128662,16,0.0,0.0,1575420030,,,,0,0.0,5,-55.71,27.9,-1554.00732421875,119.1725082397461,,,P,772231527212155,0
Raw,1730974189415,924661514000000,18,0.0,-1414084745901369543,-0.7908172607421875,58.32182432641275,-2.5447546993175534,10.154023980614143,54,28,0.0,16399,382193334111069,5,39.5,-54.592437744140625,0.06709552556276321,16,0.0,0.0,1575420030,,,,0,0.0,5,-55.71,32.5,-1554.00732421875,119.1725082397461,,,P,772231527212155,0
Raw,1730974189415,924661514000000,18,0.0,-1414084745901369543,-0.7908172607421875,58.32182432641275,-2.5447546993175534,10.154023980614143,54,32,0.0,16399,382193336884339,3,44.7,515.0233154296875,0.06299757212400436,16,0.0,0.0,1575420030,,,,0,0.0,5,-55.71,37.7,-1554.00732421875,119.1725082397461,,,P,772231527212155,0
Raw,1730974189415,924661514000000,18,0.0,-1414084745901369543,-0.7908172607421875,58.32182432641275,-2.5447546993175534,10.154023980614143,54,37,0.0,16399,382193334843103,16,28.8,199.2374725341797,1.8624999523162842,16,0.0,0.0,1575420030,,,,0,0.0,5,-55.71,21.8,-1554.00732421875,119.1725082397461,,,P,772231527212155,0
Raw,1730974189415,924661514000000,18,0.0,-1414084745901369543,-0.7908172607421875,58.32182432641275,-2.5447546993175534,10.154023980614143,54,39,0.0,16399,382193288184738,18,27.7,-138.83827209472656,1.9585000276565552,16,0.0,0.0,1575420030,,,,0,0.0,5,-55.71,20.7,-1554.00732421875,119.1725082397461,,,P,772231527212155,0
Raw,1730974189415,924661514000000,18,0.0,-1414084745901369543,-0.7908172607421875,58.32182432641275,-2.5447546993175534,10.154023980614143,54,40,0.0,16399,382193292230364,9,33.6,-13.052236557006836,0.07106027752161026,16,0.0,0.0,1575420030,,,,0,0.0,5,-55.71,26.6,-1554.00732421875,119.1725082397461,,,P,772231527212155,0
Agc,1730974189415,924661514000000,18,0.0,-1414084745901369543,-0.7908172607421875,58.32182432641275,-2.5447546993175534,10.154023980614143,54,-51.91,1575420000,1
Agc,1730974189415,924661514000000,18,0.0,-1414084745901369543,-0.7908172607421875,58.32182432641275,-2.5447546993175534,10.154023980614143,54,-51.91,1575420000,4
Agc,1730974189415,924661514000000,18,0.0,-1414084745901369543,-0.7908172607421875,58.32182432641275,-2.5447546993175534,10.154023980614143,54,-54.95,1602000000,3
Agc,1730974189415,924661514000000,18,0.0,-1414084745901369543,-0.7908172607421875,58.32182432641275,-2.5447546993175534,10.154023980614143,54,-60.86,1561098000,5
Agc,1730974189415,924661514000000,18,0.0,-1414084745901369543,-0.7908172607421875,58.32182432641275,-2.5447546993175534,10.154023980614143,54,-55.71,1575420000,6
Agc,1730974189415,924661514000000,18,0.0,-1414084745901369543,-0.7908172607421875,58.32182432641275,-2.5447546993175534,10.154023980614143,54,-40.74,1176450000,1
Agc,1730974189415,924661514000000,18,0.0,-1414084745901369543,-0.7908172607421875,58.32182432641275,-2.5447546993175534,10.154023980614143,54,-40.74,1176450000,4
Agc,1730974189415,924661514000000,18,0.0,-1414084745901369543,-0.7908172607421875,58.32182432641275,-2.5447546993175534,10.154023980614143,54,-40.74,1176450000,6
Agc,1730974189415,924661514000000,18,0.0,-1414084745901369543,-0.7908172607421875,58.32182432641275,-2.5447546993175534,10.154023980614143,54,-40.74,1176450000,5
Agc,1730974189415,924661514000000,18,0.0,-1414084745901369543,-0.7908172607421875,58.32182432641275,-2.5447546993175534,10.154023980614143,54,-55.71,1575420000,5
Status,,58,0,1,3,1575420030,25.30,185.10349,21.199793,0,1,1,20.3
Status,,58,1,1,4,1575420030,32.20,111.65317,71.68455,1,1,1,27.2
Status,,58,2,1,7,1575420030,30.10,335.84863,31.496225,1,1,1,25.1
Status,,58,3,1,8,1575420030,34.00,74.786415,54.55012,1,1,1,29.0
Status,,58,4,1,9,1575420030,31.70,338.96274,70.28971,1,1,1,26.7
Status,,58,5,1,14,1575420030,25.50,247.68947,22.996183,1,1,1,20.5
Status,,58,6,1,27,1575420030,22.00,49.75068,25.696049,0,1,1,17.0
Status,,58,7,1,30,1575420030,23.20,307.70587,12.655102,1,1,1,18.2
Status,,58,8,4,195,1575420030,20.40,96.885574,9.182961,0,1,1,15.4
Status,,58,9,4,196,1575420030,22.00,134.67662,15.736556,1,1,1,17.0
Status,,58,10,3,11,1602000000,23.90,311.62985,32.03281,1,1,1,18.9
Status,,58,11,3,21,1604249980,33.70,142.07239,16.780931,1,1,1,28.7
Status,,58,12,3,7,1604812540,34.00,172.46642,50.664066,1,1,1,29.0
Status,,58,13,3,8,1605374980,33.90,302.53906,68.43442,0,1,0,28.9
Status,,58,14,5,60,1561097980,28.80,170.52867,71.91866,0,1,0,23.8
Status,,58,15,5,59,1561097980,34.90,98.88454,18.035814,0,1,0,29.9
Status,,58,16,5,40,1561097980,26.90,62.208065,56.092182,1,1,1,21.9
Status,,58,17,5,37,1561097980,26.90,20.453646,33.640118,1,1,1,21.9
Status,,58,18,5,32,1561097980,38.60,174.2471,41.118958,1,1,1,33.6
Status,,58,19,5,28,1561097980,38.20,87.88719,26.746843,1,1,1,33.2
Status,,58,20,5,27,1561097980,37.20,140.55534,33.99683,1,1,1,32.2
Status,,58,21,5,20,1561097980,30.70,274.35583,60.27629,1,1,1,25.7
Status,,58,22,5,19,1561097980,27.40,315.55795,20.118261,0,1,1,22.4
Status,,58,23,5,10,1561097980,28.80,92.85834,75.731026,1,1,1,23.8
Status,,58,24,5,9,1561097980,24.00,36.7855,42.647594,1,1,1,19.0
Status,,58,25,5,7,1561097980,34.40,67.726364,65.50302,1,1,1,29.4
Status,,58,26,5,5,1561097980,30.80,236.24715,63.184685,1,1,1,25.8
Status,,58,27,5,3,1561097980,24.30,111.434746,48.52051,0,1,1,19.3
Status,,58,28,5,2,1561097980,32.90,155.33255,71.825714,1,1,1,27.9
Status,,58,29,5,1,1561097980,28.20,97.28379,13.392409,0,1,1,23.2
Status,,58,30,6,7,1575420030,25.30,68.69789,78.55669,1,1,1,20.3
Status,,58,31,6,8,1575420030,29.90,133.61072,30.81919,1,1,1,24.9
Status,,58,32,6,21,1575420030,26.00,250.02782,33.54626,1,1,1,21.0
Status,,58,33,6,27,1575420030,28.10,327.801,61.200436,1,1,1,23.1
Status,,58,34,6,30,1575420030,23.40,28.480774,26.086815,1,1,1,18.4
Status,,58,35,1,3,1176450050,24.70,185.10349,21.199793,1,1,1,19.7
Status,,58,36,1,4,1176450050,24.60,111.65317,71.68455,1,1,1,19.6
Status,,58,37,1,8,1176450050,20.60,74.786415,54.55012,1,1,1,15.6
Status,,58,38,1,9,1176450050,22.40,338.96274,70.28971,1,1,1,17.4
Status,,58,39,1,27,1176450050,18.30,49.75068,25.696049,1,1,1,13.3
Status,,58,40,4,195,1176450050,22.50,96.885574,9.182961,1,1,1,17.5
Status,,58,41,4,196,1176450050,19.70,134.67662,15.736556,1,1,1,14.7
Status,,58,42,6,7,1176450050,29.90,68.69789,78.55669,1,1,1,24.9
Status,,58,43,6,8,1176450050,31.90,133.61072,30.81919,1,1,1,26.9
Status,,58,44,6,21,1176450050,24.20,250.02782,33.54626,1,1,1,19.2
Status,,58,45,5,20,1176450050,19.00,274.35583,60.27629,0,1,1,14.0
Status,,58,46,5,27,1176450050,28.40,140.55534,33.99683,1,1,1,23.4
Status,,58,47,5,28,1176450050,28.90,87.88719,26.746843,1,1,1,23.9
Status,,58,48,5,32,1176450050,28.80,174.2471,41.118958,1,1,1,23.8
Status,,58,49,5,40,1176450050,21.20,62.208065,56.092182,1,1,1,16.2
Status,,58,50,5,19,1575420030,24.70,315.55795,20.118261,0,1,1,19.7
Status,,58,51,5,20,1575420030,24.10,274.35583,60.27629,1,1,1,19.1
Status,,58,52,5,27,1575420030,29.40,140.55534,33.99683,1,1,1,24.4
Status,,58,53,5,28,1575420030,32.70,87.88719,26.746843,1,1,1,27.7
Status,,58,54,5,32,1575420030,39.40,174.2471,41.118958,1,1,1,34.4
Status,,58,55,5,37,1575420030,21.80,20.453646,33.640118,1,1,1,16.8
Status,,58,56,5,39,1575420030,20.70,70.75659,34.551155,1,1,1,15.7
Status,,58,57,5,40,1575420030,26.90,62.208065,56.092182,1,1,1,21.9
Raw,1730974190415,924662514000000,18,0.0,-1414084745901369548,-0.3505725860595703,41.264960600528866,-2.2992022373723935,10.22455009776318,54,3,0.0,16399,382208336827832,46,30.3,528.5216674804688,0.7894999980926514,16,0.0,0.0,1575420030,,,,0,0.0,1,-51.91,25.3,0.0,0.0,,,C,772232526535072,0
Raw,1730974190415,924662514000000,18,0.0,-1414084745901369548,-0.3505725860595703,41.264960600528866,-2.2992022373723935,10.22455009776318,54,4,0.0,16399,382208347964962,19,37.2,114.62217712402344,0.05870867520570755,16,0.0,0.0,1575420030,,,,0,0.0,1,-51.91,32.2,0.0,0.0,,,C,772232526535072,0
Raw,1730974190415,924662514000000,18,0.0,-1414084745901369548,-0.3505725860595703,41.264960600528866,-2.2992022373723935,10.22455009776318,54,7,0.0,16399,382208338136876,24,35.1,-235.29278564453125,0.09250329434871674,16,0.0,0.0,1575420030,,,,0,0.0,1,-51.91,30.1,0.0,0.0,,,C,772232526535072,0
Raw,1730974190415,924662514000000,18,0.0,-1414084745901369548,-0.3505725860595703,41.264960600528866,-2.2992022373723935,10.22455009776318,54,8,0.0,16399,382208346253162,16,39.0,139.1172332763672,0.04890523478388786,16,0.0,0.0,1575420030,,,,0,0.0,1,-51.91,34.0,0.0,0.0,,,C,772232526535072,0
Raw,1730974190415,924662514000000,18,0.0,-1414084745901369548,-0.3505725860595703,41.264960600528866,-2.2992022373723935,10.22455009776318,54,9,0.0,16399,382208347766245,21,36.7,-241.86341857910156,0.0770910382270813,16,0.0,0.0,1575420030,,,,0,0.0,1,-51.91,31.700000000000003,0.0,0.0,,,C,772232526535072,0
Raw,1730974190415,924662514000000,18,0.0,-1414084745901369548,-0.3505725860595703,41.264960600528866,-2.2992022373723935,10.22455009776318,54,14,0.0,16399,382208337425292,46,30.5,-342.4334716796875,0.7879999876022339,16,0.0,0.0,1575420030,,,,0,0.0,1,-51.91,25.5,0.0,0.0,,,C,772232526535072,0
Raw,1730974190415,924662514000000,18,0.0,-1414084745901369548,-0.3505725860595703,41.264960600528866,-2.2992022373723935,10.22455009776318,54,27,0.0,16399,382208339197007,70,27.0,464.7257080078125,1.715000033378601,16,0.0,0.0,1575420030,,,,0,0.0,1,-51.91,22.0,0.0,0.0,,,C,772232526535072,0
Raw,1730974190415,924662514000000,18,0.0,-1414084745901369548,-0.3505725860595703,41.264960600528866,-2.2992022373723935,10.22455009776318,54,30,0.0,16399,382208332961870,61,28.2,-295.87811279296875,0.9254999756813049,16,0.0,0.0,1575420030,,,,0,0.0,1,-51.91,23.2,0.0,0.0,,,C,772232526535072,0
Raw,1730974190415,924662514000000,18,0.0,-1414084745901369548,-0.3505725860595703,41.264960600528866,-2.2992022373723935,10.22455009776318,54,195,0.0,16399,382208281264887,92,25.4,53.52009582519531,2.683000087738037,16,0.0,0.0,1575420030,,,,0,0.0,4,-51.91,20.4,0.0,0.0,,,C,772232526535072,0
Raw,1730974190415,924662514000000,18,0.0,-1414084745901369548,-0.3505725860595703,41.264960600528866,-2.2992022373723935,10.22455009776318,54,11,0.0,49359,47390343447427,61,27.9,123.2667236328125,1.0190000534057617,16,0.0,0.0,1602000000,,,,0,0.0,3,-54.92,23.9,3792.741455078125,10.209905624389648,,,C,772232526535072,0
Raw,1730974190415,924662514000000,18,0.0,-1414084745901369548,-0.3505725860595703,41.264960600528866,-2.2992022373723935,10.22455009776318,54,21,0.0,49359,47390338739753,17,37.7,-502.527099609375,0.5926322340965271,16,0.0,0.0,1604249980,,,,0,0.0,3,-54.92,33.7,3792.741455078125,10.209905624389648,,,C,772232526535072,0
Raw,1730974190415,924662514000000,18,0.0,-1414084745901369548,-0.3505725860595703,41.264960600528866,-2.2992022373723935,10.22455009776318,54,7,0.0,49359,47390348049168,16,38.0,553.46435546875,0.045641396194696426,16,0.0,0.0,1604812540,,,,0,0.0,3,-54.92,34.0,3792.741455078125,10.209905624389648,,,C,772232526535072,0
Raw,1730974190415,924662514000000,18,0.0,-1414084745901369548,-0.3505725860595703,41.264960600528866,-2.2992022373723935,10.22455009776318,54,8,0.0,49359,47390350419255,17,37.9,-167.82269287109375,1.1644573211669922,16,0.0,0.0,1605374980,,,,0,0.0,3,-54.92,33.9,3792.741455078125,10.209905624389648,,,C,772232526535072,0
Raw,1730974190415,924662514000000,18,0.0,-1414084745901369548,-0.3505725860595703,41.264960600528866,-2.2992022373723935,10.22455009776318,54,60,0.0,16399,382194295157045,31,33.1,4.292082786560059,3.227100133895874,16,0.0,0.0,1561097980,,,,0,0.0,5,-60.76,28.8,-1542.596923828125,8.785337448120117,,,I,772232526535072,0
Raw,1730974190415,924662514000000,18,0.0,-1414084745901369548,-0.3505725860595703,41.264960600528866,-2.2992022373723935,10.22455009776318,54,59,0.0,16399,382194282747472,16,39.2,1.9107928276062012,1.4881000518798828,16,0.0,0.0,1561097980,,,,0,0.0,5,-60.76,34.900000000000006,-1542.596923828125,8.785337448120117,,,I,772232526535072,0
Raw,1730974190415,924662514000000,18,0.0,-1414084745901369548,-0.3505725860595703,41.264960600528866,-2.2992022373723935,10.22455009776318,54,40,0.0,16399,382194292230371,40,31.2,-12.64579963684082,1.434499979019165,16,0.0,0.0,1561097980,,,,0,0.0,5,-60.76,26.9,-1542.596923828125,8.785337448120117,,,I,772232526535072,0
Raw,1730974190415,924662514000000,18,0.0,-1414084745901369548,-0.3505725860595703,41.264960600528866,-2.2992022373723935,10.22455009776318,54,37,0.0,16399,382194334842452,40,31.2,199.3081817626953,0.7324999570846558,16,0.0,0.0,1561097980,,,,0,0.0,5,-60.76,26.9,-1542.596923828125,8.785337448120117,,,I,772232526535072,0
Raw,1730974190415,924662514000000,18,0.0,-1414084745901369548,-0.3505725860595703,41.264960600528866,-2.2992022373723935,10.22455009776318,54,32,0.0,16399,382194336882605,11,42.9,515.0750122070312,0.02625979110598564,16,0.0,0.0,1561097980,,,,0,0.0,5,-60.76,38.6,-1542.596923828125,8.785337448120117,,,I,772232526535072,0
Raw,1730974190415,924662514000000,18,0.0,-1414084745901369548,-0.3505725860595703,41.264960600528866,-2.2992022373723935,10.22455009776318,54,28,0.0,16399,382194334111242,11,42.5,-54.54570770263672,0.02925978973507881,16,0.0,0.0,1561097980,,,,0,0.0,5,-60.76,38.2,-1542.596923828125,8.785337448120117,,,I,772232526535072,0
Raw,1730974190415,924662514000000,18,0.0,-1414084745901369548,-0.3505725860595703,41.264960600528866,-2.2992022373723935,10.22455009776318,54,27,0.0,16399,382194336270074,12,41.5,-360.1145324707031,1.1793032884597778,16,0.0,0.0,1561097980,,,,0,0.0,5,-60.76,37.2,-1542.596923828125,8.785337448120117,,,I,772232526535072,0
Raw,1730974190415,924662514000000,18,0.0,-1414084745901369548,-0.3505725860595703,41.264960600528866,-2.2992022373723935,10.22455009776318,54,20,0.0,16399,382194340402238,24,35.0,-14.48966121673584,1.8485559225082397,16,0.0,0.0,1561097980,,,,0,0.0,5,-60.76,30.7,-1542.596923828125,8.785337448120117,,,I,772232526535072,0
Raw,1730974190415,924662514000000,18,0.0,-1414084745901369548,-0.3505725860595703,41.264960600528866,-2.2992022373723935,10.22455009776318,54,19,0.0,16399,382194330743254,35,31.7,-449.0555725097656,2.2115001678466797,16,0.0,0.0,1561097980,,,,0,0.0,5,-60.76,27.4,-1542.596923828125,8.785337448120117,,,I,772232526535072,0
Raw,1730974190415,924662514000000,18,0.0,-1414084745901369548,-0.3505725860595703,41.264960600528866,-2.2992022373723935,10.22455009776318,54,10,0.0,16399,382194293887046,31,33.1,-30.390249252319336,0.6240000128746033,16,0.0,0.0,1561097980,,,,0,0.0,5,-60.76,28.8,-1542.596923828125,8.785337448120117,,,I,772232526535072,0
Raw,1730974190415,924662514000000,18,0.0,-1414084745901369548,-0.3505725860595703,41.264960600528866,-2.2992022373723935,10.22455009776318,54,9,0.0,16399,382194288963017,53,28.3,-148.7729949951172,0.9314999580383301,16,0.0,0.0,1561097980,,,,0,0.0,5,-60.76,24.0,-1542.596923828125,8.785337448120117,,,I,772232526535072,0
Raw,1730974190415,924662514000000,18,0.0,-1414084745901369548,-0.3505725860595703,41.264960600528866,-2.2992022373723935,10.22455009776318,54,7,0.0,16399,382194293591115,16,38.7,-4.450017929077148,0.038537390530109406,16,0.0,0.0,1561097980,,,,0,0.0,5,-60.76,34.400000000000006,-1542.596923828125,8.785337448120117,,,I,772232526535072,0
Raw,1730974190415,924662514000000,18,0.0,-1414084745901369548,-0.3505725860595703,41.264960600528866,-2.2992022373723935,10.22455009776318,54,3,0.0,16399,382194292177353,53,28.6,4.685763359069824,8.355799674987793,16,0.0,0.0,1561097980,,,,0,0.0,5,-60.76,24.3,-1542.596923828125,8.785337448120117,,,I,772232526535072,0
Raw,1730974190415,924662514000000,18,0.0,-1414084745901369548,-0.3505725860595703,41.264960600528866,-2.2992022373723935,10.22455009776318,54,1,0.0,16399,382194280823311,31,32.5,-6.346904754638672,5.066100120544434,16,0.0,0.0,1561097980,,,,0,0.0,5,-60.76,28.2,-1542.596923828125,8.785337448120117,,,I,772232526535072,0
Raw,1730974190415,924662514000000,18,0.0,-1414084745901369548,-0.3505725860595703,41.264960600528866,-2.2992022373723935,10.22455009776318,54,7,0.0,23567,382208337415077,46,29.6,-37.89113235473633,0.1012432873249054,16,0.0,0.0,1575420030,,,,0,0.0,6,-55.71,25.3,-1467.337158203125,9.196320533752441,,,C,772232526535072,0
Raw,1730974190415,924662514000000,18,0.0,-1414084745901369548,-0.3505725860595703,41.264960600528866,-2.2992022373723935,10.22455009776318,54,8,0.0,23567,382208328864425,27,34.2,382.11053466796875,0.863675594329834,16,0.0,0.0,1575420030,,,,0,0.0,6,-55.71,29.900000000000002,-1467.337158203125,9.196320533752441,,,C,772232526535072,0
Raw,1730974190415,924662514000000,18,0.0,-1414084745901369548,-0.3505725860595703,41.264960600528866,-2.2992022373723935,10.22455009776318,54,21,0.0,23567,382208329388303,40,30.3,-203.72589111328125,0.07856027781963348,16,0.0,0.0,1575420030,,,,0,0.0,6,-55.71,26.0,-1467.337158203125,9.196320533752441,,,C,772232526535072,0
Raw,1730974190415,924662514000000,18,0.0,-1414084745901369548,-0.3505725860595703,41.264960600528866,-2.2992022373723935,10.22455009776318,54,27,0.0,23567,382208335317501,31,32.4,185.58541870117188,0.07320638000965118,16,0.0,0.0,1575420030,,,,0,0.0,6,-55.71,28.099999999999998,-1467.337158203125,9.196320533752441,,,C,772232526535072,0
Raw,1730974190415,924662514000000,18,0.0,-1414084745901369548,-0.3505725860595703,41.264960600528866,-2.2992022373723935,10.22455009776318,54,30,0.0,23567,382208326960501,61,27.7,431.0246887207031,1.0385000705718994,16,0.0,0.0,1575420030,,,,0,0.0,6,-55.71,23.4,-1467.337158203125,9.196320533752441,,,C,772232526535072,0
Raw,1730974190415,924662514000000,18,0.0,-1414084745901369548,-0.3505725860595703,41.264960600528866,-2.2992022373723935,10.22455009776318,54,4,0.0,81935,382208347964942,11,29.6,115.83921813964844,5.526740074157715,16,0.0,0.0,1176450050,,,,0,0.0,1,-40.33,24.6,22.17856788635254,5.39540433883667,,,Q,772232526535072,0
