# 
# Header Description:
# 
# Version: v3.1.0.3 Platform: 12 Manufacturer: Xiaomi Model: 22120RN86I GNSS Hardware Model Name: MTK_MNLD_default,MNL_VER_default
# 
# Raw,utcTimeMillis,TimeNanos,LeapSecond,TimeUncertaintyNanos,FullBiasNanos,BiasNanos,BiasUncertaintyNanos,DriftNanosPerSecond,DriftUncertaintyNanosPerSecond,HardwareClockDiscontinuityCount,Svid,TimeOffsetNanos,State,ReceivedSvTimeNanos,ReceivedSvTimeUncertaintyNanos,Cn0DbHz,PseudorangeRateMetersPerSecond,PseudorangeRateUncertaintyMetersPerSecond,AccumulatedDeltaRangeState,AccumulatedDeltaRangeMeters,AccumulatedDeltaRangeUncertaintyMeters,CarrierFrequencyHz,CarrierCycles,CarrierPhase,CarrierPhaseUncertainty,MultipathIndicator,SnrInDb,ConstellationType,AgcDb,BasebandCn0DbHz,FullInterSignalBiasNanos,FullInterSignalBiasUncertaintyNanos,SatelliteInterSignalBiasNanos,SatelliteInterSignalBiasUncertaintyNanos,CodeType,ChipsetElapsedRealtimeNanos,IsFullTracking
# 
# UncalAccel,utcTimeMillis,elapsedRealtimeNanos,UncalAccelXMps2,UncalAccelYMps2,UncalAccelZMps2,BiasXMps2,BiasYMps2,BiasZMps2
# 
# Accel,utcTimeMillis,elapsedRealtimeNanos,AccelXMps2,AccelYMps2,AccelZMps2
# 
# UncalGyro,utcTimeMillis,elapsedRealtimeNanos,UncalGyroXRadPerSec,UncalGyroYRadPerSec,UncalGyroZRadPerSec,DriftXRadPerSec,DriftYRadPerSec,DriftZRadPerSec
# 
# Gyro,utcTimeMillis,elapsedRealtimeNanos,GyroXRadPerSec,GyroYRadPerSec,GyroZRadPerSec
# 
# UncalMag,utcTimeMillis,elapsedRealtimeNanos,UncalMagXMicroT,UncalMagYMicroT,UncalMagZMicroT,BiasXMicroT,BiasYMicroT,BiasZMicroT
# 
# Mag,utcTimeMillis,elapsedRealtimeNanos,MagXMicroT,MagYMicroT,MagZMicroT
# 
# Pressure,utcTimeMillis,elapsedRealtimeNanos,PressureHpa
# 
# OrientationDeg,utcTimeMillis,elapsedRealtimeNanos,yawDeg,rollDeg,pitchDeg
# 
# Fix,Provider,LatitudeDegrees,LongitudeDegrees,AltitudeMeters,SpeedMps,AccuracyMeters,BearingDegrees,UnixTimeMillis,SpeedAccuracyMps,BearingAccuracyDegrees,elapsedRealtimeNanos,VerticalAccuracyMeters,MockLocation,NumberOfUsedSignals,VerticalSpeedAccuracyMps,SolutionType
# 
# Nav,Svid,Type,Status,MessageId,Sub-messageId,Data(Bytes)
# 
# Status,UnixTimeMillis,SignalCount,SignalIndex,ConstellationType,Svid,CarrierFrequencyHz,Cn0DbHz,AzimuthDegrees,ElevationDegrees,UsedInFix,HasAlmanacData,HasEphemerisData,BasebandCn0DbHz
# 
# Agc,utcTimeMillis,TimeNanos,LeapSecond,TimeUncertaintyNanos,FullBiasNanos,BiasNanos,BiasUncertaintyNanos,DriftNanosPerSecond,DriftUncertaintyNanosPerSecond,HardwareClockDiscontinuityCount,AgcDb,CarrierFrequencyHz,ConstellationType
# 
Raw,1730974972000,2047042000000,18,90.67345517517768,-1415008142958000128,0.0,90.67345517517768,-3281.9969368602906,0.0,0,9,0.0,16431,382989933602609,487,17.507999420166016,-1139.2009701381671,0.14999,16,0.0,0.0,1575420030,,,,0,0.0,1,6.0,17.507999420166016,0.0,0.0,0.0,66.7128,C,,
Raw,1730974972000,2047042000000,18,90.67345517517768,-1415008142958000128,0.0,90.67345517517768,-3281.9969368602906,0.0,0,8,0.0,16431,382989931079638,396,25.163999557495117,-747.0817629280738,0.14999,16,0.0,0.0,1575420030,,,,0,2.4414419191339363,1,6.0,25.163999557495117,0.0,0.0,0.0,66.7128,C,,
Raw,1730974972000,2047042000000,18,90.67345517517768,-1415008142958000128,0.0,90.67345517517768,-3281.9969368602906,0.0,0,194,0.0,16431,382989858784106,487,19.0,-944.583970044082,0.14999,16,0.0,0.0,1575420030,,,,0,1.006102366227915,4,6.0,19.0,0.0,,0.0,,C,,
Raw,1730974972000,2047042000000,18,90.67345517517768,-1415008142958000128,0.0,90.67345517517768,-3281.9969368602906,0.0,0,27,0.0,16431,382989923207252,396,22.43000030517578,-448.119252941952,0.14999,16,0.0,0.0,1575420030,,,,0,1.2073288863858336,1,6.0,22.43000030517578,0.0,0.0,0.0,66.7128,C,,
Raw,1730974972000,2047042000000,18,90.67345517517768,-1415008142958000128,0.0,90.67345517517768,-3281.9969368602906,0.0,0,32,0.0,16905,382975920812501,487,20.899999618530273,-438.1153564453125,0.14999,16,0.0,0.0,1561097980,,,,0,0.6342882635441317,5,6.0,20.899999618530273,0.0,0.0,154.82430894870768,66.7128,I,,
Raw,1730974972000,2047042000000,18,90.67345517517768,-1415008142958000128,0.0,90.67345517517768,-3281.9969368602906,0.0,0,7,0.0,17,891289,487,17.399999618530273,-968.01806640625,0.14999,16,0.0,0.0,1561097980,,,,0,0.0,5,6.0,17.399999618530273,0.0,0.0,154.82430894870768,66.7128,I,,
Raw,1730974972000,2047042000000,18,90.67345517517768,-1415008142958000128,0.0,90.67345517517768,-3281.9969368602906,0.0,0,4,0.0,47,382989932864878,487,14.151000022888184,-777.6853618968579,0.14999,16,0.0,0.0,1575420030,,,,0,0.0,1,6.0,14.151000022888184,0.0,0.0,0.0,66.7128,C,,
Raw,1730974972000,2047042000000,18,90.67345517517768,-1415008142958000128,0.0,90.67345517517768,-3281.9969368602906,0.0,0,27,0.0,16431,382989920109372,1797,11.850000381469727,-769.1987100908464,0.14999,16,0.0,0.0,1575420030,,,,0,0.0,6,6.0,11.850000381469727,0.0,0.0,-20.84772097429898,66.7128,C,,
Raw,1730974972000,2047042000000,18,90.67345517517768,-1415008142958000128,0.0,90.67345517517768,-3281.9969368602906,0.0,0,3,0.0,17,495175,316,26.097999572753906,-984.632568359375,0.14999,16,0.0,0.0,1561097980,,,,0,7.309759697817992,5,6.0,26.097999572753906,0.0,0.0,154.82430894870768,66.7128,I,,
Raw,1730974972000,2047042000000,18,90.67345517517768,-1415008142958000128,0.0,90.67345517517768,-3281.9969368602906,0.0,0,7,0.0,16431,382989922751698,396,21.5,-961.5155539983477,0.14999,16,0.0,0.0,1575420030,,,,0,1.4685783431706698,6,6.0,21.5,0.0,0.0,-20.84772097429898,66.7128,C,,
Raw,1730974972000,2047042000000,18,90.67345517517768,-1415008142958000128,0.0,90.67345517517768,-3281.9969368602906,0.0,0,21,0.0,16431,382989922674937,487,24.052000045776367,-1230.6362436662896,0.14999,16,0.0,0.0,1575420030,,,,0,2.3837281543841735,1,6.0,24.052000045776367,0.0,0.0,0.0,66.7128,C,,
Raw,1730974972000,2047042000000,18,90.67345517517768,-1415008142958000128,0.0,90.67345517517768,-3281.9969368602906,0.0,0,20,0.0,16905,382975925650180,797,13.399999618530273,-918.2523803710938,0.14999,16,0.0,0.0,1561097980,,,,0,0.0,5,6.0,13.399999618530273,0.0,0.0,154.82430894870768,66.7128,I,,
Raw,1730974972000,2047042000000,18,90.67345517517768,-1415008142958000128,0.0,90.67345517517768,-3281.9969368602906,0.0,0,16,0.0,16905,382975874010999,316,21.71500015258789,-1139.77685546875,0.14999,16,0.0,0.0,1561097980,,,,0,4.670690158831022,5,6.0,21.71500015258789,0.0,0.0,154.82430894870768,66.7128,I,,
Raw,1730974972000,2047042000000,18,90.67345517517768,-1415008142958000128,0.0,90.67345517517768,-3281.9969368602906,0.0,0,8,0.0,32995,48171936006739,797,15.0,-1018.7024695948328,0.14999,16,0.0,0.0,1605374980,,,,0,0.0,3,6.0,15.0,0.0,0.0,115.1855121807868,66.7128,C,,
Raw,1730974972000,2047042000000,18,90.67345517517768,-1415008142958000128,0.0,90.67345517517768,-3281.9969368602906,0.0,0,1,0.0,32995,48171924900943,797,16.0,-1653.6229754032213,0.14999,16,0.0,0.0,1602562560,,,,0,0.0,3,6.0,16.0,0.0,0.0,115.1855121807868,66.7128,C,,
Raw,1730974972000,2047042000000,18,90.67345517517768,-1415008142958000128,0.0,90.67345517517768,-3281.9969368602906,0.0,0,7,0.0,32995,48171931813245,487,18.0,-346.9122320685919,0.14999,16,0.0,0.0,1604812540,,,,0,0.0,3,6.0,18.0,0.0,0.0,115.1855121807868,66.7128,C,,
Raw,1730974972000,2047042000000,18,90.67345517517768,-1415008142958000128,0.0,90.67345517517768,-3281.9969368602906,0.0,0,7,0.0,16431,382989924096363,1797,19.128999710083008,-1240.193111548127,0.14999,16,0.0,0.0,1575420030,,,,0,0.0,1,6.0,19.128999710083008,0.0,0.0,0.0,66.7128,C,,
Raw,1730974972000,2047042000000,18,90.67345517517768,-1415008142958000128,0.0,90.67345517517768,-3281.9969368602906,0.0,0,19,0.0,17,156196,487,19.176000595092773,-1375.35546875,0.14999,16,0.0,0.0,1561097980,,,,0,0.0,5,6.0,19.176000595092773,0.0,0.0,154.82430894870768,66.7128,I,,
Raw,1730974972000,2047042000000,18,90.67345517517768,-1415008142958000128,0.0,90.67345517517768,-3281.9969368602906,0.0,0,3,0.0,16431,382989920794216,396,24.131000518798828,-476.9574320947357,0.14999,16,0.0,0.0,1575420030,,,,0,2.72439494035978,1,6.0,24.131000518798828,0.0,0.0,0.0,66.7128,C,,
Raw,1730974972000,2047042000000,18,90.67345517517768,-1415008142958000128,0.0,90.67345517517768,-3281.9969368602906,0.0,0,27,0.0,16905,382975922494573,797,18.517000198364258,-1318.9127197265625,0.14999,16,0.0,0.0,1561097980,,,,0,0.0,5,6.0,18.517000198364258,0.0,0.0,154.82430894870768,66.7128,I,,
Raw,1730974972000,2047042000000,18,90.67345517517768,-1415008142958000128,0.0,90.67345517517768,-3281.9969368602906,0.0,0,28,0.0,16905,382975919493312,797,11.300000190734863,-982.875244140625,0.14999,16,0.0,0.0,1561097980,,,,0,0.0,5,6.0,11.300000190734863,0.0,0.0,154.82430894870768,66.7128,I,,
Raw,1730974972000,2047042000000,18,90.67345517517768,-1415008142958000128,0.0,90.67345517517768,-3281.9969368602906,0.0,0,10,0.0,16905,382975879256429,396,22.040000915527344,-993.6605224609375,0.14999,16,0.0,0.0,1561097980,,,,0,0.0,5,6.0,22.040000915527344,0.0,0.0,154.82430894870768,66.7128,I,,
Raw,1730974972000,2047042000000,18,90.67345517517768,-1415008142958000128,0.0,90.67345517517768,-3281.9969368602906,0.0,0,13,0.0,17,788432,797,16.934999465942383,-775.6416625976562,0.14999,16,0.0,0.0,1561097980,,,,0,0.0,5,6.0,16.934999465942383,0.0,0.0,154.82430894870768,66.7128,I,,
Raw,1730974972000,2047042000000,18,90.67345517517768,-1415008142958000128,0.0,90.67345517517768,-3281.9969368602906,0.0,0,30,0.0,16905,382975916302761,487,19.53700065612793,-1487.7349853515625,0.14999,16,0.0,0.0,1561097980,,,,0,0.0,5,6.0,19.53700065612793,0.0,0.0,154.82430894870768,66.7128,I,,
Raw,1730974972000,2047042000000,18,90.67345517517768,-1415008142958000128,0.0,90.67345517517768,-3281.9969368602906,0.0,0,6,0.0,16905,382975875554300,316,23.20400047302246,-1122.949462890625,0.14999,16,0.0,0.0,1561097980,,,,0,6.361266699255231,5,6.0,23.20400047302246,0.0,0.0,154.82430894870768,66.7128,I,,
Raw,1730974973000,2048042000000,18,87.32244307501045,-1415008142958000128,0.0,87.32244307501045,-3282.8148338909045,0.0,0,9,0.0,16431,382990933606401,316,25.214000701904297,-1139.7977749528077,0.14999,16,0.0,0.0,1575420030,,,,0,5.306288867948933,1,6.0,25.214000701904297,0.0,0.0,0.0,66.7128,C,,
Raw,1730974973000,2048042000000,18,87.32244307501045,-1415008142958000128,0.0,87.32244307501045,-3282.8148338909045,0.0,0,8,0.0,16431,382990931082125,235,28.131999969482422,-746.6938351527158,0.14999,16,0.0,0.0,1575420030,,,,0,9.205820932270033,1,6.0,28.131999969482422,0.0,0.0,0.0,66.7128,C,,
Raw,1730974973000,2048042000000,18,87.32244307501045,-1415008142958000128,0.0,87.32244307501045,-3282.8148338909045,0.0,0,194,0.0,16431,382990858787273,487,20.0,-945.6742561557109,0.14999,16,0.0,0.0,1575420030,,,,0,0.0,4,6.0,20.0,0.0,,0.0,,C,,
Raw,1730974973000,2048042000000,18,87.32244307501045,-1415008142958000128,0.0,87.32244307501045,-3282.8148338909045,0.0,0,27,0.0,16431,382990923208741,316,22.514999389648438,-448.34555188731355,0.14999,16,0.0,0.0,1575420030,,,,0,3.7721563295535443,1,6.0,22.514999389648438,0.0,0.0,0.0,66.7128,C,,
Raw,1730974973000,2048042000000,18,87.32244307501045,-1415008142958000128,0.0,87.32244307501045,-3282.8148338909045,0.0,0,32,0.0,16905,382976920813966,487,19.399999618530273,-438.552734375,0.14999,16,0.0,0.0,1561097980,,,,0,0.0,5,6.0,19.399999618530273,0.0,0.0,151.32522614742393,66.7128,I,,
Raw,1730974973000,2048042000000,18,87.32244307501045,-1415008142958000128,0.0,87.32244307501045,-3282.8148338909045,0.0,0,7,0.0,17,894571,487,17.4950008392334,-967.8002319335938,0.14999,16,0.0,0.0,1561097980,,,,0,0.0,5,6.0,17.4950008392334,0.0,0.0,151.32522614742393,66.7128,I,,
Raw,1730974973000,2048042000000,18,87.32244307501045,-1415008142958000128,0.0,87.32244307501045,-3282.8148338909045,0.0,0,4,0.0,47,382990932867449,797,20.13599967956543,-780.0054022855797,0.14999,16,0.0,0.0,1575420030,,,,0,0.0,1,6.0,20.13599967956543,0.0,0.0,0.0,66.7128,C,,
Raw,1730974973000,2048042000000,18,87.32244307501045,-1415008142958000128,0.0,87.32244307501045,-3282.8148338909045,0.0,0,27,0.0,16431,382990920111938,1797,11.897000312805176,-769.3735795694629,0.14999,16,0.0,0.0,1575420030,,,,0,0.0,6,6.0,11.897000312805176,0.0,0.0,-37.62240750301892,66.7128,C,,
Raw,1730974973000,2048042000000,18,87.32244307501045,-1415008142958000128,0.0,87.32244307501045,-3282.8148338909045,0.0,0,3,0.0,17,498455,316,26.04800033569336,-982.652587890625,0.14999,16,0.0,0.0,1561097980,,,,0,6.258584379273778,5,6.0,26.04800033569336,0.0,0.0,151.32522614742393,66.7128,I,,
Raw,1730974973000,2048042000000,18,87.32244307501045,-1415008142958000128,0.0,87.32244307501045,-3282.8148338909045,0.0,0,7,0.0,16431,382990922754908,396,21.5,-960.9586105048159,0.14999,16,0.0,0.0,1575420030,,,,0,1.4685783431706698,6,6.0,21.5,0.0,0.0,-37.62240750301892,66.7128,C,,
Raw,1730974973000,2048042000000,18,87.32244307501045,-1415008142958000128,0.0,87.32244307501045,-3282.8148338909045,0.0,0,21,0.0,16431,382990915180399,1797,11.699999809265137,-1144.3639868484765,0.14999,16,0.0,0.0,1575420030,,,,0,0.0,6,6.0,11.699999809265137,0.0,0.0,-37.62240750301892,66.7128,C,,
Raw,1730974973000,2048042000000,18,87.32244307501045,-1415008142958000128,0.0,87.32244307501045,-3282.8148338909045,0.0,0,21,0.0,16431,382990922679039,487,21.003000259399414,-1230.1178606582125,0.14999,16,0.0,0.0,1575420030,,,,0,0.0,1,6.0,21.003000259399414,0.0,0.0,0.0,66.7128,C,,
Raw,1730974973000,2048042000000,18,87.32244307501045,-1415008142958000128,0.0,87.32244307501045,-3282.8148338909045,0.0,0,20,0.0,16905,382976925653242,797,13.100000381469727,-919.3787231445312,0.14999,16,0.0,0.0,1561097980,,,,0,0.0,5,6.0,13.100000381469727,0.0,0.0,151.32522614742393,66.7128,I,,
Raw,1730974973000,2048042000000,18,87.32244307501045,-1415008142958000128,0.0,87.32244307501045,-3282.8148338909045,0.0,0,16,0.0,16905,382976874014800,396,21.798999786376953,-1140.0567626953125,0.14999,16,0.0,0.0,1561097980,,,,0,4.02794248640903,5,6.0,21.798999786376953,0.0,0.0,151.32522614742393,66.7128,I,,
Raw,1730974973000,2048042000000,18,87.32244307501045,-1415008142958000128,0.0,87.32244307501045,-3282.8148338909045,0.0,0,8,0.0,32995,48172936010138,797,15.0,-1019.9857802546682,0.14999,16,0.0,0.0,1605374980,,,,0,0.0,3,6.0,15.0,0.0,0.0,103.24132698433156,66.7128,C,,
Raw,1730974973000,2048042000000,18,87.32244307501045,-1415008142958000128,0.0,87.32244307501045,-3282.8148338909045,0.0,0,1,0.0,32995,48172924906467,487,18.0,-1652.3072693059821,0.14999,16,0.0,0.0,1602562560,,,,0,0.0,3,6.0,18.0,0.0,0.0,103.24132698433156,66.7128,C,,
Raw,1730974973000,2048042000000,18,87.32244307501045,-1415008142958000128,0.0,87.32244307501045,-3282.8148338909045,0.0,0,7,0.0,32995,48172931814415,797,16.0,-344.96483657540034,0.14999,16,0.0,0.0,1604812540,,,,0,0.0,3,6.0,16.0,0.0,0.0,103.24132698433156,66.7128,C,,
Raw,1730974973000,2048042000000,18,87.32244307501045,-1415008142958000128,0.0,87.32244307501045,-3282.8148338909045,0.0,0,7,0.0,16431,382990924100499,1797,19.128999710083008,-1241.0635564342476,0.14999,16,0.0,0.0,1575420030,,,,0,0.0,1,6.0,19.128999710083008,0.0,0.0,0.0,66.7128,C,,
Raw,1730974973000,2048042000000,18,87.32244307501045,-1415008142958000128,0.0,87.32244307501045,-3282.8148338909045,0.0,0,19,0.0,17,160788,487,19.14699935913086,-1377.3902587890625,0.14999,16,0.0,0.0,1561097980,,,,0,0.0,5,6.0,19.14699935913086,0.0,0.0,151.32522614742393,66.7128,I,,
Raw,1730974973000,2048042000000,18,87.32244307501045,-1415008142958000128,0.0,87.32244307501045,-3282.8148338909045,0.0,0,3,0.0,16431,382990920795807,396,24.023000717163086,-476.1221097712702,0.14999,16,0.0,0.0,1575420030,,,,0,0.5176103795995495,1,6.0,24.023000717163086,0.0,0.0,0.0,66.7128,C,,
Raw,1730974973000,2048042000000,18,87.32244307501045,-1415008142958000128,0.0,87.32244307501045,-3282.8148338909045,0.0,0,27,0.0,16905,382976922498976,396,18.570999145507812,-1318.84765625,0.14999,16,0.0,0.0,1561097980,,,,0,0.0,5,6.0,18.570999145507812,0.0,0.0,151.32522614742393,66.7128,I,,
Raw,1730974973000,2048042000000,18,87.32244307501045,-1415008142958000128,0.0,87.32244307501045,-3282.8148338909045,0.0,0,28,0.0,16905,382976919496579,797,14.0,-980.2843017578125,0.14999,16,0.0,0.0,1561097980,,,,0,0.0,5,6.0,14.0,0.0,0.0,151.32522614742393,66.7128,I,,
Raw,1730974973000,2048042000000,18,87.32244307501045,-1415008142958000128,0.0,87.32244307501045,-3282.8148338909045,0.0,0,10,0.0,16905,382976879259746,487,22.01799964904785,-994.4163818359375,0.14999,16,0.0,0.0,1561097980,,,,0,1.5836249209524964,5,6.0,22.01799964904785,0.0,0.0,151.32522614742393,66.7128,I,,
Raw,1730974973000,2048042000000,18,87.32244307501045,-1415008142958000128,0.0,87.32244307501045,-3282.8148338909045,0.0,0,13,0.0,17,791017,797,16.843000411987305,-774.4927978515625,0.14999,16,0.0,0.0,1561097980,,,,0,0.0,5,6.0,16.843000411987305,0.0,0.0,151.32522614742393,66.7128,I,,
Raw,1730974973000,2048042000000,18,87.32244307501045,-1415008142958000128,0.0,87.32244307501045,-3282.8148338909045,0.0,0,30,0.0,16905,382976916307728,396,22.799999237060547,-1489.1015625,0.14999,16,0.0,0.0,1561097980,,,,0,3.287057115688742,5,6.0,22.799999237060547,0.0,0.0,151.32522614742393,66.7128,I,,
Raw,1730974973000,2048042000000,18,87.32244307501045,-1415008142958000128,0.0,87.32244307501045,-3282.8148338909045,0.0,0,6,0.0,16905,382976875558045,396,23.20800018310547,-1122.755126953125,0.14999,16,0.0,0.0,1561097980,,,,0,3.862491967089232,5,6.0,23.20800018310547,0.0,0.0,151.32522614742393,66.7128,I,,
Raw,1730974974000,2049042000000,18,83.38725099702388,-1415008142958000128,0.0,83.38725099702388,-3290.4144616372296,0.0,0,9,0.0,16431,382991933610207,235,25.325000762939453,-1142.2749377051537,0.14999,16,0.0,0.0,1575420030,,,,0,8.317031959614795,1,6.0,25.325000762939453,0.0,0.0,0.0,66.7128,C,,
Raw,1730974974000,2049042000000,18,83.38725099702388,-1415008142958000128,0.0,83.38725099702388,-3290.4144616372296,0.0,0,8,0.0,16431,382991931084620,235,28.34000015258789,-749.7107982430119,0.14999,16,0.0,0.0,1575420030,,,,0,9.465896937332193,1,6.0,28.34000015258789,0.0,0.0,0.0,66.7128,C,,
Raw,1730974974000,2049042000000,18,83.38725099702388,-1415008142958000128,0.0,83.38725099702388,-3290.4144616372296,0.0,0,194,0.0,16431,382991858790388,396,23.0,-947.7392398394369,0.14999,16,0.0,0.0,1575420030,,,,0,2.20824966823407,4,6.0,23.0,0.0,,0.0,,C,,
Raw,1730974974000,2049042000000,18,83.38725099702388,-1415008142958000128,0.0,83.38725099702388,-3290.4144616372296,0.0,0,27,0.0,16431,382991923210240,316,25.42799949645996,-451.04371732557297,0.14999,16,0.0,0.0,1575420030,,,,0,5.631032845362645,1,6.0,25.42799949645996,0.0,0.0,0.0,66.7128,C,,
Raw,1730974974000,2049042000000,18,83.38725099702388,-1415008142958000128,0.0,83.38725099702388,-3290.4144616372296,0.0,0,32,0.0,16905,382977920815448,1797,19.399999618530273,-449.8576965332031,0.14999,16,0.0,0.0,1561097980,,,,0,0.0,5,6.0,19.399999618530273,0.0,0.0,148.6304222118694,66.7128,I,,
Raw,1730974974000,2049042000000,18,83.38725099702388,-1415008142958000128,0.0,83.38725099702388,-3290.4144616372296,0.0,0,7,0.0,17,897813,487,17.600000381469727,-969.7053833007812,0.14999,16,0.0,0.0,1561097980,,,,0,0.0,5,6.0,17.600000381469727,0.0,0.0,148.6304222118694,66.7128,I,,
Raw,1730974974000,2049042000000,18,83.38725099702388,-1415008142958000128,0.0,83.38725099702388,-3290.4144616372296,0.0,0,4,0.0,47,382991932870052,797,20.13599967956543,-783.3890616550257,0.14999,16,0.0,0.0,1575420030,,,,0,0.0,1,6.0,20.13599967956543,0.0,0.0,0.0,66.7128,C,,
Raw,1730974974000,2049042000000,18,83.38725099702388,-1415008142958000128,0.0,83.38725099702388,-3290.4144616372296,0.0,0,27,0.0,16431,382991920114507,797,11.942000389099121,-771.3997704756531,0.14999,16,0.0,0.0,1575420030,,,,0,0.0,6,6.0,11.942000389099121,0.0,0.0,-39.33150980714494,66.7128,C,,
Raw,1730974974000,2049042000000,18,83.38725099702388,-1415008142958000128,0.0,83.38725099702388,-3290.4144616372296,0.0,0,3,0.0,17,501738,235,26.065000534057617,-987.4208984375,0.14999,16,0.0,0.0,1561097980,,,,0,7.78332168729065,5,6.0,26.065000534057617,0.0,0.0,148.6304222118694,66.7128,I,,
Raw,1730974974000,2049042000000,18,83.38725099702388,-1415008142958000128,0.0,83.38725099702388,-3290.4144616372296,0.0,0,7,0.0,16431,382991922758105,396,21.3799991607666,-964.7511039369145,0.14999,16,0.0,0.0,1575420030,,,,0,0.0,6,6.0,21.3799991607666,0.0,0.0,-39.33150980714494,66.7128,C,,
Raw,1730974974000,2049042000000,18,83.38725099702388,-1415008142958000128,0.0,83.38725099702388,-3290.4144616372296,0.0,0,21,0.0,16431,382991915184218,1797,11.699999809265137,-1146.0608340421504,0.14999,16,0.0,0.0,1575420030,,,,0,0.0,6,6.0,11.699999809265137,0.0,0.0,-39.33150980714494,66.7128,C,,
Raw,1730974974000,2049042000000,18,83.38725099702388,-1415008142958000128,0.0,83.38725099702388,-3290.4144616372296,0.0,0,21,0.0,16431,382991922683153,1797,21.003000259399414,-1238.0695902599757,0.14999,16,0.0,0.0,1575420030,,,,0,0.0,1,6.0,21.003000259399414,0.0,0.0,0.0,66.7128,C,,
Raw,1730974974000,2049042000000,18,83.38725099702388,-1415008142958000128,0.0,83.38725099702388,-3290.4144616372296,0.0,0,20,0.0,16905,382977925656313,797,13.100000381469727,-922.8359985351562,0.14999,16,0.0,0.0,1561097980,,,,0,0.0,5,6.0,13.100000381469727,0.0,0.0,148.6304222118694,66.7128,I,,
Raw,1730974974000,2049042000000,18,83.38725099702388,-1415008142958000128,0.0,83.38725099702388,-3290.4144616372296,0.0,0,16,0.0,16905,382977874018607,396,21.81399917602539,-1142.521728515625,0.14999,16,0.0,0.0,1561097980,,,,0,2.3454259131152853,5,6.0,21.81399917602539,0.0,0.0,148.6304222118694,66.7128,I,,
Raw,1730974974000,2049042000000,18,83.38725099702388,-1415008142958000128,0.0,83.38725099702388,-3290.4144616372296,0.0,0,8,0.0,32995,48173936013542,1797,14.0,-1023.5430145492181,0.14999,16,0.0,0.0,1605374980,,,,0,0.0,3,6.0,14.0,0.0,0.0,91.10746684545727,66.7128,C,,
Raw,1730974974000,2049042000000,18,83.38725099702388,-1415008142958000128,0.0,83.38725099702388,-3290.4144616372296,0.0,0,1,0.0,32995,48173924911950,487,19.0,-1656.4999178663322,0.14999,16,0.0,0.0,1602562560,,,,0,0.0,3,6.0,19.0,0.0,0.0,91.10746684545727,66.7128,C,,
Raw,1730974974000,2049042000000,18,83.38725099702388,-1415008142958000128,0.0,83.38725099702388,-3290.4144616372296,0.0,0,7,0.0,32995,48173931815569,797,15.0,-348.61790770619166,0.14999,16,0.0,0.0,1604812540,,,,0,0.0,3,6.0,15.0,0.0,0.0,91.10746684545727,66.7128,C,,
Raw,1730974974000,2049042000000,18,83.38725099702388,-1415008142958000128,0.0,83.38725099702388,-3290.4144616372296,0.0,0,19,0.0,17,165383,487,19.11400032043457,-1379.4105224609375,0.14999,16,0.0,0.0,1561097980,,,,0,0.0,5,6.0,19.11400032043457,0.0,0.0,148.6304222118694,66.7128,I,,
Raw,1730974974000,2049042000000,18,83.38725099702388,-1415008142958000128,0.0,83.38725099702388,-3290.4144616372296,0.0,0,3,0.0,16431,382991920797398,396,23.992000579833984,-479.82614637890396,0.14999,16,0.0,0.0,1575420030,,,,0,2.72439494035978,1,6.0,23.992000579833984,0.0,0.0,0.0,66.7128,C,,
Raw,1730974974000,2049042000000,18,83.38725099702388,-1415008142958000128,0.0,83.38725099702388,-3290.4144616372296,0.0,0,27,0.0,16905,382977922503385,316,23.799999237060547,-1322.7978515625,0.14999,16,0.0,0.0,1561097980,,,,0,4.608978427565479,5,6.0,23.799999237060547,0.0,0.0,148.6304222118694,66.7128,I,,
Raw,1730974974000,2049042000000,18,83.38725099702388,-1415008142958000128,0.0,83.38725099702388,-3290.4144616372296,0.0,0,28,0.0,16905,382977919499849,797,14.0,-981.0670166015625,0.14999,16,0.0,0.0,1561097980,,,,0,0.0,5,6.0,14.0,0.0,0.0,148.6304222118694,66.7128,I,,
Raw,1730974974000,2049042000000,18,83.38725099702388,-1415008142958000128,0.0,83.38725099702388,-3290.4144616372296,0.0,0,10,0.0,16905,382977879263068,487,19.399999618530273,-997.6168212890625,0.14999,16,0.0,0.0,1561097980,,,,0,0.0,5,6.0,19.399999618530273,0.0,0.0,148.6304222118694,66.7128,I,,
Raw,1730974974000,2049042000000,18,83.38725099702388,-1415008142958000128,0.0,83.38725099702388,-3290.4144616372296,0.0,0,13,0.0,17,793612,487,16.905000686645508,-780.4004516601562,0.14999,16,0.0,0.0,1561097980,,,,0,0.0,5,6.0,16.905000686645508,0.0,0.0,148.6304222118694,66.7128,I,,
Raw,1730974974000,2049042000000,18,83.38725099702388,-1415008142958000128,0.0,83.38725099702388,-3290.4144616372296,0.0,0,30,0.0,16905,382977916312701,396,22.75,-1493.471923828125,0.14999,16,0.0,0.0,1561097980,,,,0,1.7981022287879587,5,6.0,22.75,0.0,0.0,148.6304222118694,66.7128,I,,
Raw,1730974974000,2049042000000,18,83.38725099702388,-1415008142958000128,0.0,83.38725099702388,-3290.4144616372296,0.0,0,6,0.0,16905,382977875561797,396,20.200000762939453,-1126.9879150390625,0.14999,16,0.0,0.0,1561097980,,,,0,0.0,5,6.0,20.200000762939453,0.0,0.0,148.6304222118694,66.7128,I,,
Raw,1730974975000,2050042000000,18,87.3590831587859,-1415008142958000128,0.0,87.3590831587859,-3293.962786652875,0.0,0,9,0.0,16431,382992933614022,316,25.636999130249023,-1142.91494884687,0.14999,16,0.0,0.0,1575420030,,,,0,5.905553335497798,1,6.0,25.636999130249023,0.0,0.0,0.0,66.7128,C,,
Raw,1730974975000,2050042000000,18,87.3590831587859,-1415008142958000128,0.0,87.3590831587859,-3293.962786652875,0.0,0,8,0.0,16431,382992931087118,316,25.766000747680664,-750.6824295596391,0.14999,16,0.0,0.0,1575420030,,,,0,6.096459693622406,1,6.0,25.766000747680664,0.0,0.0,0.0,66.7128,C,,
Raw,1730974975000,2050042000000,18,87.3590831587859,-1415008142958000128,0.0,87.3590831587859,-3293.962786652875,0.0,0,194,0.0,16431,382992858793565,487,20.0,-947.8929242802614,0.14999,16,0.0,0.0,1575420030,,,,0,0.0,4,6.0,20.0,0.0,,0.0,,C,,
Raw,1730974975000,2050042000000,18,87.3590831587859,-1415008142958000128,0.0,87.3590831587859,-3293.962786652875,0.0,0,27,0.0,16431,382992923211746,396,25.339000701904297,-451.6272814915935,0.14999,16,0.0,0.0,1575420030,,,,0,3.0522032641231664,1,6.0,25.339000701904297,0.0,0.0,0.0,66.7128,C,,
Raw,1730974975000,2050042000000,18,87.3590831587859,-1415008142958000128,0.0,87.3590831587859,-3293.962786652875,0.0,0,32,0.0,16905,382978920816967,1797,19.399999618530273,-457.7551574707031,0.14999,16,0.0,0.0,1561097980,,,,0,0.0,5,6.0,19.399999618530273,0.0,0.0,144.09929074183802,66.7128,I,,
Raw,1730974975000,2050042000000,18,87.3590831587859,-1415008142958000128,0.0,87.3590831587859,-3293.962786652875,0.0,0,7,0.0,17,901051,396,20.799999237060547,-971.7219848632812,0.14999,16,0.0,0.0,1561097980,,,,0,0.42378598139876184,5,6.0,20.799999237060547,0.0,0.0,144.09929074183802,66.7128,I,,
Raw,1730974975000,2050042000000,18,87.3590831587859,-1415008142958000128,0.0,87.3590831587859,-3293.962786652875,0.0,0,4,0.0,47,382992932872666,1797,11.800000190734863,-784.3692413202356,0.14999,16,0.0,0.0,1575420030,,,,0,0.0,1,6.0,11.800000190734863,0.0,0.0,0.0,66.7128,C,,
Raw,1730974975000,2050042000000,18,87.3590831587859,-1415008142958000128,0.0,87.3590831587859,-3293.962786652875,0.0,0,27,0.0,16431,382992920117081,797,11.984000205993652,-772.4304968977001,0.14999,16,0.0,0.0,1575420030,,,,0,0.0,6,6.0,11.984000205993652,0.0,0.0,-37.31392481917716,66.7128,C,,
Raw,1730974975000,2050042000000,18,87.3590831587859,-1415008142958000128,0.0,87.3590831587859,-3293.962786652875,0.0,0,3,0.0,17,505001,316,26.055999755859375,-977.0699462890625,0.14999,16,0.0,0.0,1561097980,,,,0,7.19670964679776,5,6.0,26.055999755859375,0.0,0.0,144.09929074183802,66.7128,I,,
Raw,1730974975000,2050042000000,18,87.3590831587859,-1415008142958000128,0.0,87.3590831587859,-3293.962786652875,0.0,0,7,0.0,16431,382992922761310,396,18.600000381469727,-966.4915291249937,0.14999,16,0.0,0.0,1575420030,,,,0,0.0,6,6.0,18.600000381469727,0.0,0.0,-37.31392481917716,66.7128,C,,
Raw,1730974975000,2050042000000,18,87.3590831587859,-1415008142958000128,0.0,87.3590831587859,-3293.962786652875,0.0,0,21,0.0,16431,382992915188041,1837,11.699999809265137,-1146.7394985861538,0.14999,16,0.0,0.0,1575420030,,,,0,0.0,6,6.0,11.699999809265137,0.0,0.0,-37.31392481917716,66.7128,C,,
Raw,1730974975000,2050042000000,18,87.3590831587859,-1415008142958000128,0.0,87.3590831587859,-3293.962786652875,0.0,0,21,0.0,16431,382992922687281,1797,21.003000259399414,-1235.8778680168275,0.14999,16,0.0,0.0,1575420030,,,,0,0.0,1,6.0,21.003000259399414,0.0,0.0,0.0,66.7128,C,,
Raw,1730974975000,2050042000000,18,87.3590831587859,-1415008142958000128,0.0,87.3590831587859,-3293.962786652875,0.0,0,20,0.0,16905,382978925659383,1797,12.699999809265137,-923.8694458007812,0.14999,16,0.0,0.0,1561097980,,,,0,0.0,5,6.0,12.699999809265137,0.0,0.0,144.09929074183802,66.7128,I,,
Raw,1730974975000,2050042000000,18,87.3590831587859,-1415008142958000128,0.0,87.3590831587859,-3293.962786652875,0.0,0,16,0.0,16905,382978874022421,487,21.70800018310547,-1144.0477294921875,0.14999,16,0.0,0.0,1561097980,,,,0,0.0,5,6.0,21.70800018310547,0.0,0.0,144.09929074183802,66.7128,I,,
Raw,1730974975000,2050042000000,18,87.3590831587859,-1415008142958000128,0.0,87.3590831587859,-3293.962786652875,0.0,0,8,0.0,32995,48174936016949,797,16.0,-1024.4740849732325,0.14999,16,0.0,0.0,1605374980,,,,0,0.0,3,6.0,16.0,0.0,0.0,92.58299143685615,66.7128,C,,
Raw,1730974975000,2050042000000,18,87.3590831587859,-1415008142958000128,0.0,87.3590831587859,-3293.962786652875,0.0,0,1,0.0,32995,48174924917478,487,18.0,-1657.9482541533237,0.14999,16,0.0,0.0,1602562560,,,,0,0.0,3,6.0,18.0,0.0,0.0,92.58299143685615,66.7128,C,,
Raw,1730974975000,2050042000000,18,87.3590831587859,-1415008142958000128,0.0,87.3590831587859,-3293.962786652875,0.0,0,7,0.0,32995,48174931816709,797,15.0,-348.1254377060632,0.14999,16,0.0,0.0,1604812540,,,,0,0.0,3,6.0,15.0,0.0,0.0,92.58299143685615,66.7128,C,,
Raw,1730974975000,2050042000000,18,87.3590831587859,-1415008142958000128,0.0,87.3590831587859,-3293.962786652875,0.0,0,19,0.0,17,169987,487,18.993000030517578,-1380.7515869140625,0.14999,16,0.0,0.0,1561097980,,,,0,0.0,5,6.0,18.993000030517578,0.0,0.0,144.09929074183802,66.7128,I,,
Raw,1730974975000,2050042000000,18,87.3590831587859,-1415008142958000128,0.0,87.3590831587859,-3293.962786652875,0.0,0,3,0.0,16431,382992920798998,316,23.992000579833984,-480.2243879226607,0.14999,16,0.0,0.0,1575420030,,,,0,3.622825035846457,1,6.0,23.992000579833984,0.0,0.0,0.0,66.7128,C,,
Raw,1730974975000,2050042000000,18,87.3590831587859,-1415008142958000128,0.0,87.3590831587859,-3293.962786652875,0.0,0,27,0.0,16905,382978922507803,316,23.844999313354492,-1322.826904296875,0.14999,16,0.0,0.0,1561097980,,,,0,5.711146180155476,5,6.0,23.844999313354492,0.0,0.0,144.09929074183802,66.7128,I,,
Raw,1730974975000,2050042000000,18,87.3590831587859,-1415008142958000128,0.0,87.3590831587859,-3293.962786652875,0.0,0,28,0.0,16905,382978919503124,487,14.0,-983.0753784179688,0.14999,16,0.0,0.0,1561097980,,,,0,0.0,5,6.0,14.0,0.0,0.0,144.09929074183802,66.7128,I,,
Raw,1730974975000,2050042000000,18,87.3590831587859,-1415008142958000128,0.0,87.3590831587859,-3293.962786652875,0.0,0,10,0.0,16905,382978879266399,487,19.360000610351562,-998.9364624023438,0.14999,16,0.0,0.0,1561097980,,,,0,0.0,5,6.0,19.360000610351562,0.0,0.0,144.09929074183802,66.7128,I,,
Raw,1730974975000,2050042000000,18,87.3590831587859,-1415008142958000128,0.0,87.3590831587859,-3293.962786652875,0.0,0,13,0.0,17,796212,487,16.979000091552734,-779.400634765625,0.14999,16,0.0,0.0,1561097980,,,,0,0.0,5,6.0,16.979000091552734,0.0,0.0,144.09929074183802,66.7128,I,,
Raw,1730974975000,2050042000000,18,87.3590831587859,-1415008142958000128,0.0,87.3590831587859,-3293.962786652875,0.0,0,30,0.0,16905,382978916317683,396,22.687000274658203,-1492.5797119140625,0.14999,16,0.0,0.0,1561097980,,,,0,1.4376401461225072,5,6.0,22.687000274658203,0.0,0.0,144.09929074183802,66.7128,I,,
Raw,1730974975000,2050042000000,18,87.3590831587859,-1415008142958000128,0.0,87.3590831587859,-3293.962786652875,0.0,0,6,0.0,16905,382978875565556,487,20.274999618530273,-1127.6925048828125,0.14999,16,0.0,0.0,1561097980,,,,0,1.7271966134949643,5,6.0,20.274999618530273,0.0,0.0,144.09929074183802,66.7128,I,,
Raw,1730974976001,2051042000000,18,85.875029340161,-1415008142959000064,0.0,85.875029340161,-3296.614265111801,0.0,0,9,0.0,16431,382993933617840,235,28.246999740600586,-1143.560163331202,0.14999,16,0.0,0.0,1575420030,,,,0,9.362799114007453,1,6.0,28.246999740600586,0.0,0.0,0.0,66.7128,C,,
Raw,1730974976001,2051042000000,18,85.875029340161,-1415008142959000064,0.0,85.875029340161,-3296.614265111801,0.0,0,8,0.0,16431,382993931089626,235,27.375,-750.9058016247793,0.14999,16,0.0,0.0,1575420030,,,,0,8.228849581513694,1,6.0,27.375,0.0,0.0,0.0,66.7128,C,,
Raw,1730974976001,2051042000000,18,85.875029340161,-1415008142959000064,0.0,85.875029340161,-3296.614265111801,0.0,0,194,0.0,16431,382993858796734,487,20.0,-949.4161099141401,0.14999,16,0.0,0.0,1575420030,,,,0,0.0,4,6.0,20.0,0.0,,0.0,,C,,
Raw,1730974976001,2051042000000,18,85.875029340161,-1415008142959000064,0.0,85.875029340161,-3296.614265111801,0.0,0,27,0.0,16431,382993923213255,316,25.375,-452.13251676788315,0.14999,16,0.0,0.0,1575420030,,,,0,6.502243824767916,1,6.0,25.375,0.0,0.0,0.0,66.7128,C,,
Raw,1730974976001,2051042000000,18,85.875029340161,-1415008142959000064,0.0,85.875029340161,-3296.614265111801,0.0,0,7,0.0,17,904295,487,20.774999618530273,-972.949951171875,0.14999,16,0.0,0.0,1561097980,,,,0,0.0,5,6.0,20.774999618530273,0.0,0.0,141.83111531658065,66.7128,I,,
Raw,1730974976001,2051042000000,18,85.875029340161,-1415008142959000064,0.0,85.875029340161,-3296.614265111801,0.0,0,4,0.0,47,382993932875281,1797,11.800000190734863,-784.6590489205569,0.14999,16,0.0,0.0,1575420030,,,,0,0.0,1,6.0,11.800000190734863,0.0,0.0,0.0,66.7128,C,,
Raw,1730974976001,2051042000000,18,85.875029340161,-1415008142959000064,0.0,85.875029340161,-3296.614265111801,0.0,0,27,0.0,16431,382993920119685,797,15.5,-773.2596867102258,0.14999,16,0.0,0.0,1575420030,,,,0,0.0,6,6.0,15.5,0.0,0.0,-30.113876261811825,66.7128,C,,
Raw,1730974976001,2051042000000,18,85.875029340161,-1415008142959000064,0.0,85.875029340161,-3296.614265111801,0.0,0,3,0.0,17,508261,316,25.95800018310547,-979.4353637695312,0.14999,16,0.0,0.0,1561097980,,,,0,4.959465327236133,5,6.0,25.95800018310547,0.0,0.0,141.83111531658065,66.7128,I,,
Raw,1730974976001,2051042000000,18,85.875029340161,-1415008142959000064,0.0,85.875029340161,-3296.614265111801,0.0,0,7,0.0,16431,382993922764514,316,23.200000762939453,-965.7518182220895,0.14999,16,0.0,0.0,1575420030,,,,0,3.82136830050668,6,6.0,23.200000762939453,0.0,0.0,-30.113876261811825,66.7128,C,,
Raw,1730974976001,2051042000000,18,85.875029340161,-1415008142959000064,0.0,85.875029340161,-3296.614265111801,0.0,0,21,0.0,16431,382993915191867,1837,11.699999809265137,-1147.314560862008,0.14999,16,0.0,0.0,1575420030,,,,0,0.0,6,6.0,11.699999809265137,0.0,0.0,-30.113876261811825,66.7128,C,,
Raw,1730974976001,2051042000000,18,85.875029340161,-1415008142959000064,0.0,85.875029340161,-3296.614265111801,0.0,0,20,0.0,16905,382979925662465,797,12.699999809265137,-922.1358642578125,0.14999,16,0.0,0.0,1561097980,,,,0,0.0,5,6.0,12.699999809265137,0.0,0.0,141.83111531658065,66.7128,I,,
Raw,1730974976001,2051042000000,18,85.875029340161,-1415008142959000064,0.0,85.875029340161,-3296.614265111801,0.0,0,16,0.0,16905,382979874026240,797,21.60700035095215,-1145.6468505859375,0.14999,16,0.0,0.0,1561097980,,,,0,0.0,5,6.0,21.60700035095215,0.0,0.0,141.83111531658065,66.7128,I,,
Raw,1730974976001,2051042000000,18,85.875029340161,-1415008142959000064,0.0,85.875029340161,-3296.614265111801,0.0,0,8,0.0,32995,48175936020369,797,16.0,-1025.436887108887,0.14999,16,0.0,0.0,1605374980,,,,0,0.0,3,6.0,16.0,0.0,0.0,96.6123633840679,66.7128,C,,
Raw,1730974976001,2051042000000,18,85.875029340161,-1415008142959000064,0.0,85.875029340161,-3296.614265111801,0.0,0,1,0.0,32995,48175924923002,487,19.0,-1657.9442350566646,0.14999,16,0.0,0.0,1602562560,,,,0,0.0,3,6.0,19.0,0.0,0.0,96.6123633840679,66.7128,C,,
Raw,1730974976001,2051042000000,18,85.875029340161,-1415008142959000064,0.0,85.875029340161,-3296.614265111801,0.0,0,7,0.0,32995,48175931817833,487,18.0,-349.67791768424166,0.14999,16,0.0,0.0,1604812540,,,,0,0.0,3,6.0,18.0,0.0,0.0,96.6123633840679,66.7128,C,,
Raw,1730974976001,2051042000000,18,85.875029340161,-1415008142959000064,0.0,85.875029340161,-3296.614265111801,0.0,0,19,0.0,17,174594,487,19.007999420166016,-1381.0992431640625,0.14999,16,0.0,0.0,1561097980,,,,0,0.0,5,6.0,19.007999420166016,0.0,0.0,141.83111531658065,66.7128,I,,
Raw,1730974976001,2051042000000,18,85.875029340161,-1415008142959000064,0.0,85.875029340161,-3296.614265111801,0.0,0,3,0.0,16431,382993920800604,316,23.988000869750977,-481.67988364412065,0.14999,16,0.0,0.0,1575420030,,,,0,3.470881400836027,1,6.0,23.988000869750977,0.0,0.0,0.0,66.7128,C,,
Raw,1730974976001,2051042000000,18,85.875029340161,-1415008142959000064,0.0,85.875029340161,-3296.614265111801,0.0,0,27,0.0,16905,382979922512211,316,23.886999130249023,-1323.3980712890625,0.14999,16,0.0,0.0,1561097980,,,,0,5.666024574070992,5,6.0,23.886999130249023,0.0,0.0,141.83111531658065,66.7128,I,,
Raw,1730974976001,2051042000000,18,85.875029340161,-1415008142959000064,0.0,85.875029340161,-3296.614265111801,0.0,0,28,0.0,16905,382979919506400,487,18.5,-984.948974609375,0.14999,16,0.0,0.0,1561097980,,,,0,0.0,5,6.0,18.5,0.0,0.0,141.83111531658065,66.7128,I,,
Raw,1730974976001,2051042000000,18,85.875029340161,-1415008142959000064,0.0,85.875029340161,-3296.614265111801,0.0,0,10,0.0,16905,382979879269730,487,19.256999969482422,-998.320556640625,0.14999,16,0.0,0.0,1561097980,,,,0,0.0,5,6.0,19.256999969482422,0.0,0.0,141.83111531658065,66.7128,I,,
Raw,1730974976001,2051042000000,18,85.875029340161,-1415008142959000064,0.0,85.875029340161,-3296.614265111801,0.0,0,13,0.0,17,798809,487,17.059999465942383,-780.075927734375,0.14999,16,0.0,0.0,1561097980,,,,0,0.0,5,6.0,17.059999465942383,0.0,0.0,141.83111531658065,66.7128,I,,
Raw,1730974976001,2051042000000,18,85.875029340161,-1415008142959000064,0.0,85.875029340161,-3296.614265111801,0.0,0,30,0.0,16905,382979916322662,396,22.707000732421875,-1493.6158447265625,0.14999,16,0.0,0.0,1561097980,,,,0,3.6938286163519765,5,6.0,22.707000732421875,0.0,0.0,141.83111531658065,66.7128,I,,
Raw,1730974976001,2051042000000,18,85.875029340161,-1415008142959000064,0.0,85.875029340161,-3296.614265111801,0.0,0,6,0.0,16905,382979875569321,487,20.250999450683594,-1128.448486328125,0.14999,16,0.0,0.0,1561097980,,,,0,0.0,5,6.0,20.250999450683594,0.0,0.0,141.83111531658065,66.7128,I,,
Raw,1730974976001,2051042000000,18,85.875029340161,-1415008142959000064,0.0,85.875029340161,-3296.614265111801,0.0,0,2,0.0,16431,382993921388946,797,17.340999603271484,-1253.6394780351106,0.14999,16,0.0,0.0,1575420030,,,,0,0.0,1,6.0,17.340999603271484,0.0,0.0,0.0,66.7128,C,,
Raw,1730974977001,2052042000000,18,87.19868497297885,-1415008142959000064,0.0,87.19868497297885,-3298.724200536722,0.0,0,9,0.0,16431,382994933621655,396,26.836000442504883,-1143.3945855358274,0.14999,16,0.0,0.0,1575420030,,,,0,7.521288790758663,1,6.0,26.836000442504883,0.0,0.0,0.0,66.7128,C,,
Raw,1730974977001,2052042000000,18,87.19868497297885,-1415008142959000064,0.0,87.19868497297885,-3298.724200536722,0.0,0,8,0.0,16431,382994931092130,316,25.611000061035156,-751.5777296984323,0.14999,16,0.0,0.0,1575420030,,,,0,5.866863339953804,1,6.0,25.611000061035156,0.0,0.0,0.0,66.7128,C,,
Raw,1730974977001,2052042000000,18,87.19868497297885,-1415008142959000064,0.0,87.19868497297885,-3298.724200536722,0.0,0,194,0.0,16431,382994858799894,487,20.0,-950.3500169968042,0.14999,16,0.0,0.0,1575420030,,,,0,0.0,4,6.0,20.0,0.0,,0.0,,C,,
Raw,1730974977001,2052042000000,18,87.19868497297885,-1415008142959000064,0.0,87.19868497297885,-3298.724200536722,0.0,0,27,0.0,16431,382994923214767,316,25.417999267578125,-452.91994046423554,0.14999,16,0.0,0.0,1575420030,,,,0,6.715842038463862,1,6.0,25.417999267578125,0.0,0.0,0.0,66.7128,C,,
Raw,1730974977001,2052042000000,18,87.19868497297885,-1415008142959000064,0.0,87.19868497297885,-3298.724200536722,0.0,0,7,0.0,17,907542,396,20.83099937438965,-972.7600708007812,0.14999,16,0.0,0.0,1561097980,,,,0,2.0760744191191374,5,6.0,20.83099937438965,0.0,0.0,145.01052249855528,66.7128,I,,
Raw,1730974977001,2052042000000,18,87.19868497297885,-1415008142959000064,0.0,87.19868497297885,-3298.724200536722,0.0,0,4,0.0,47,382994932877897,1797,11.800000190734863,-784.0027773331668,0.14999,16,0.0,0.0,1575420030,,,,0,0.0,1,6.0,11.800000190734863,0.0,0.0,0.0,66.7128,C,,
Raw,1730974977001,2052042000000,18,87.19868497297885,-1415008142959000064,0.0,87.19868497297885,-3298.724200536722,0.0,0,27,0.0,16431,382994920122265,797,15.5,-773.9421143859423,0.14999,16,0.0,0.0,1575420030,,,,0,0.0,6,6.0,15.5,0.0,0.0,-21.008682329654462,66.7128,C,,
Raw,1730974977001,2052042000000,18,87.19868497297885,-1415008142959000064,0.0,87.19868497297885,-3298.724200536722,0.0,0,3,0.0,17,511533,316,22.899999618530273,-981.4498901367188,0.14999,16,0.0,0.0,1561097980,,,,0,3.4052343078991476,5,6.0,22.899999618530273,0.0,0.0,145.01052249855528,66.7128,I,,
Raw,1730974977001,2052042000000,18,87.19868497297885,-1415008142959000064,0.0,87.19868497297885,-3298.724200536722,0.0,0,7,0.0,16431,382994922767714,316,23.155000686645508,-966.4461857107722,0.14999,16,0.0,0.0,1575420030,,,,0,2.555731589622524,6,6.0,23.155000686645508,0.0,0.0,-21.008682329654462,66.7128,C,,
Raw,1730974977001,2052042000000,18,87.19868497297885,-1415008142959000064,0.0,87.19868497297885,-3298.724200536722,0.0,0,21,0.0,16431,382994915195538,1934,8.699999809265137,-1147.5790021670782,0.14999,16,0.0,0.0,1575420030,,,,0,0.0,6,6.0,8.699999809265137,0.0,0.0,-21.008682329654462,66.7128,C,,
Raw,1730974977001,2052042000000,18,87.19868497297885,-1415008142959000064,0.0,87.19868497297885,-3298.724200536722,0.0,0,20,0.0,16905,382980925665541,797,12.699999809265137,-922.035400390625,0.14999,16,0.0,0.0,1561097980,,,,0,0.0,5,6.0,12.699999809265137,0.0,0.0,145.01052249855528,66.7128,I,,
Raw,1730974977001,2052042000000,18,87.19868497297885,-1415008142959000064,0.0,87.19868497297885,-3298.724200536722,0.0,0,16,0.0,16905,382980874030057,797,21.51099967956543,-1144.166015625,0.14999,16,0.0,0.0,1561097980,,,,0,0.0,5,6.0,21.51099967956543,0.0,0.0,145.01052249855528,66.7128,I,,
Raw,1730974977001,2052042000000,18,87.19868497297885,-1415008142959000064,0.0,87.19868497297885,-3298.724200536722,0.0,0,8,0.0,32995,48176936023788,797,17.0,-1025.17929490951,0.14999,16,0.0,0.0,1605374980,,,,0,0.0,3,6.0,17.0,0.0,0.0,99.80342924006872,66.7128,C,,
Raw,1730974977001,2052042000000,18,87.19868497297885,-1415008142959000064,0.0,87.19868497297885,-3298.724200536722,0.0,0,1,0.0,32995,48176924928548,487,18.0,-1660.5456867124112,0.14999,16,0.0,0.0,1602562560,,,,0,0.0,3,6.0,18.0,0.0,0.0,99.80342924006872,66.7128,C,,
Raw,1730974977001,2052042000000,18,87.19868497297885,-1415008142959000064,0.0,87.19868497297885,-3298.724200536722,0.0,0,7,0.0,32995,48176931819005,487,19.0,-352.0086443823859,0.14999,16,0.0,0.0,1604812540,,,,0,0.0,3,6.0,19.0,0.0,0.0,99.80342924006872,66.7128,C,,
Raw,1730974977001,2052042000000,18,87.19868497297885,-1415008142959000064,0.0,87.19868497297885,-3298.724200536722,0.0,0,7,0.0,16431,382994924117126,797,16.690000534057617,-1247.3191821769967,0.14999,16,0.0,0.0,1575420030,,,,0,0.0,1,6.0,16.690000534057617,0.0,0.0,0.0,66.7128,C,,
Raw,1730974977001,2052042000000,18,87.19868497297885,-1415008142959000064,0.0,87.19868497297885,-3298.724200536722,0.0,0,19,0.0,17,179201,487,18.95199966430664,-1383.9920654296875,0.14999,16,0.0,0.0,1561097980,,,,0,0.0,5,6.0,18.95199966430664,0.0,0.0,145.01052249855528,66.7128,I,,
Raw,1730974977001,2052042000000,18,87.19868497297885,-1415008142959000064,0.0,87.19868497297885,-3298.724200536722,0.0,0,3,0.0,16431,382994920802214,396,23.915000915527344,-481.81461305113123,0.14999,16,0.0,0.0,1575420030,,,,0,1.4039989405667015,1,6.0,23.915000915527344,0.0,0.0,0.0,66.7128,C,,
Raw,1730974977001,2052042000000,18,87.19868497297885,-1415008142959000064,0.0,87.19868497297885,-3298.724200536722,0.0,0,27,0.0,16905,382980922516623,316,23.937000274658203,-1324.426513671875,0.14999,16,0.0,0.0,1561097980,,,,0,5.977061528194133,5,6.0,23.937000274658203,0.0,0.0,145.01052249855528,66.7128,I,,
Raw,1730974977001,2052042000000,18,87.19868497297885,-1415008142959000064,0.0,87.19868497297885,-3298.724200536722,0.0,0,28,0.0,16905,382980919509674,487,17.100000381469727,-984.009765625,0.14999,16,0.0,0.0,1561097980,,,,0,0.0,5,6.0,17.100000381469727,0.0,0.0,145.01052249855528,66.7128,I,,
Raw,1730974977001,2052042000000,18,87.19868497297885,-1415008142959000064,0.0,87.19868497297885,-3298.724200536722,0.0,0,10,0.0,16905,382980879273063,487,19.159000396728516,-999.9921264648438,0.14999,16,0.0,0.0,1561097980,,,,0,0.0,5,6.0,19.159000396728516,0.0,0.0,145.01052249855528,66.7128,I,,
Raw,1730974977001,2052042000000,18,87.19868497297885,-1415008142959000064,0.0,87.19868497297885,-3298.724200536722,0.0,0,13,0.0,17,801408,487,17.10700035095215,-778.5267944335938,0.14999,16,0.0,0.0,1561097980,,,,0,0.0,5,6.0,17.10700035095215,0.0,0.0,145.01052249855528,66.7128,I,,
Raw,1730974977001,2052042000000,18,87.19868497297885,-1415008142959000064,0.0,87.19868497297885,-3298.724200536722,0.0,0,30,0.0,16905,382980916327646,396,22.676000595092773,-1494.433349609375,0.14999,16,0.0,0.0,1561097980,,,,0,2.3454259131152853,5,6.0,22.676000595092773,0.0,0.0,145.01052249855528,66.7128,I,,
Raw,1730974977001,2052042000000,18,87.19868497297885,-1415008142959000064,0.0,87.19868497297885,-3298.724200536722,0.0,0,6,0.0,16905,382980875573084,396,20.292999267578125,-1128.099853515625,0.14999,16,0.0,0.0,1561097980,,,,0,0.8278537031645016,5,6.0,20.292999267578125,0.0,0.0,145.01052249855528,66.7128,I,,
Raw,1730974977001,2052042000000,18,87.19868497297885,-1415008142959000064,0.0,87.19868497297885,-3298.724200536722,0.0,0,2,0.0,16431,382994921393125,797,17.340999603271484,-1252.6649662966784,0.14999,16,0.0,0.0,1575420030,,,,0,0.0,1,6.0,17.340999603271484,0.0,0.0,0.0,66.7128,C,,
Raw,1730974978001,2053042000000,18,88.14406148424143,-1415008142959000064,0.0,88.14406148424143,-3301.0070580563197,0.0,0,9,0.0,16431,382995933625472,396,24.559999465942383,-1144.7677104853462,0.14999,16,0.0,0.0,1575420030,,,,0,4.391139056735431,1,6.0,24.559999465942383,0.0,0.0,0.0,66.7128,C,,
Raw,1730974978001,2053042000000,18,88.14406148424143,-1415008142959000064,0.0,88.14406148424143,-3301.0070580563197,0.0,0,8,0.0,16431,382995931094641,316,26.211000442504883,-752.229262527369,0.14999,16,0.0,0.0,1575420030,,,,0,6.680605115338131,1,6.0,26.211000442504883,0.0,0.0,0.0,66.7128,C,,
Raw,1730974978001,2053042000000,18,88.14406148424143,-1415008142959000064,0.0,88.14406148424143,-3301.0070580563197,0.0,0,194,0.0,16431,382995858803078,487,20.0,-950.2046021540652,0.14999,16,0.0,0.0,1575420030,,,,0,0.0,4,6.0,20.0,0.0,,0.0,,C,,
Raw,1730974978001,2053042000000,18,88.14406148424143,-1415008142959000064,0.0,88.14406148424143,-3301.0070580563197,0.0,0,27,0.0,16431,382995923216279,235,28.05500030517578,-453.2107236912973,0.14999,16,0.0,0.0,1575420030,,,,0,9.12625497462933,1,6.0,28.05500030517578,0.0,0.0,0.0,66.7128,C,,
Raw,1730974978001,2053042000000,18,88.14406148424143,-1415008142959000064,0.0,88.14406148424143,-3301.0070580563197,0.0,0,7,0.0,17,910790,396,20.854000091552734,-973.5031127929688,0.14999,16,0.0,0.0,1561097980,,,,0,1.213956807072233,5,6.0,20.854000091552734,0.0,0.0,148.75313227620134,66.7128,I,,
Raw,1730974978001,2053042000000,18,88.14406148424143,-1415008142959000064,0.0,88.14406148424143,-3301.0070580563197,0.0,0,27,0.0,16431,382995920124847,797,15.5,-774.7355776764022,0.14999,16,0.0,0.0,1575420030,,,,0,0.0,6,6.0,15.5,0.0,0.0,-15.969478608685462,66.7128,C,,
Raw,1730974978001,2053042000000,18,88.14406148424143,-1415008142959000064,0.0,88.14406148424143,-3301.0070580563197,0.0,0,3,0.0,17,514813,316,22.979999542236328,-983.556884765625,0.14999,16,0.0,0.0,1561097980,,,,0,5.43683213072998,5,6.0,22.979999542236328,0.0,0.0,148.75313227620134,66.7128,I,,
Raw,1730974978001,2053042000000,18,88.14406148424143,-1415008142959000064,0.0,88.14406148424143,-3301.0070580563197,0.0,0,7,0.0,16431,382995922770939,396,23.066999435424805,-967.0064742102713,0.14999,16,0.0,0.0,1575420030,,,,0,1.3389357926122645,6,6.0,23.066999435424805,0.0,0.0,-15.969478608685462,66.7128,C,,
Raw,1730974978001,2053042000000,18,88.14406148424143,-1415008142959000064,0.0,88.14406148424143,-3301.0070580563197,0.0,0,21,0.0,16431,382995915199367,2001,8.699999809265137,-1148.2505121149854,0.14999,16,0.0,0.0,1575420030,,,,0,0.0,6,6.0,8.699999809265137,0.0,0.0,-15.969478608685462,66.7128,C,,
Raw,1730974978001,2053042000000,18,88.14406148424143,-1415008142959000064,0.0,88.14406148424143,-3301.0070580563197,0.0,0,21,0.0,16431,382995922699647,487,19.257999420166016,-1237.4602416729583,0.14999,16,0.0,0.0,1575420030,,,,0,0.0,1,6.0,19.257999420166016,0.0,0.0,0.0,66.7128,C,,
Raw,1730974978001,2053042000000,18,88.14406148424143,-1415008142959000064,0.0,88.14406148424143,-3301.0070580563197,0.0,0,20,0.0,16905,382981925668608,797,12.819999694824219,-922.309326171875,0.14999,16,0.0,0.0,1561097980,,,,0,0.0,5,6.0,12.819999694824219,0.0,0.0,148.75313227620134,66.7128,I,,
Raw,1730974978001,2053042000000,18,88.14406148424143,-1415008142959000064,0.0,88.14406148424143,-3301.0070580563197,0.0,0,16,0.0,16905,382981874033876,797,16.5,-1147.0439453125,0.14999,16,0.0,0.0,1561097980,,,,0,0.0,5,6.0,16.5,0.0,0.0,148.75313227620134,66.7128,I,,
Raw,1730974978001,2053042000000,18,88.14406148424143,-1415008142959000064,0.0,88.14406148424143,-3301.0070580563197,0.0,0,8,0.0,32995,48177936027231,797,17.0,-1025.97614384061,0.14999,16,0.0,0.0,1605374980,,,,0,0.0,3,6.0,17.0,0.0,0.0,101.89796867085458,66.7128,C,,
Raw,1730974978001,2053042000000,18,88.14406148424143,-1415008142959000064,0.0,88.14406148424143,-3301.0070580563197,0.0,0,1,0.0,32995,48177924934080,487,19.0,-1657.6585138214407,0.14999,16,0.0,0.0,1602562560,,,,0,0.0,3,6.0,19.0,0.0,0.0,101.89796867085458,66.7128,C,,
Raw,1730974978001,2053042000000,18,88.14406148424143,-1415008142959000064,0.0,88.14406148424143,-3301.0070580563197,0.0,0,7,0.0,32995,48177931820189,487,18.0,-350.44006494967465,0.14999,16,0.0,0.0,1604812540,,,,0,0.0,3,6.0,18.0,0.0,0.0,101.89796867085458,66.7128,C,,
Raw,1730974978001,2053042000000,18,88.14406148424143,-1415008142959000064,0.0,88.14406148424143,-3301.0070580563197,0.0,0,7,0.0,16431,382995924121276,487,18.59000015258789,-1246.1428550785458,0.14999,16,0.0,0.0,1575420030,,,,0,0.0,1,6.0,18.59000015258789,0.0,0.0,0.0,66.7128,C,,
Raw,1730974978001,2053042000000,18,88.14406148424143,-1415008142959000064,0.0,88.14406148424143,-3301.0070580563197,0.0,0,19,0.0,17,183812,487,18.888999938964844,-1381.56787109375,0.14999,16,0.0,0.0,1561097980,,,,0,0.0,5,6.0,18.888999938964844,0.0,0.0,148.75313227620134,66.7128,I,,
Raw,1730974978001,2053042000000,18,88.14406148424143,-1415008142959000064,0.0,88.14406148424143,-3301.0070580563197,0.0,0,3,0.0,16431,382995920803823,396,23.864999771118164,-483.03549377072795,0.14999,16,0.0,0.0,1575420030,,,,0,1.9686237225717838,1,6.0,23.864999771118164,0.0,0.0,0.0,66.7128,C,,
Raw,1730974978001,2053042000000,18,88.14406148424143,-1415008142959000064,0.0,88.14406148424143,-3301.0070580563197,0.0,0,27,0.0,16905,382981922521041,316,24.020000457763672,-1324.9078369140625,0.14999,16,0.0,0.0,1561097980,,,,0,6.808882296802366,5,6.0,24.020000457763672,0.0,0.0,148.75313227620134,66.7128,I,,
Raw,1730974978001,2053042000000,18,88.14406148424143,-1415008142959000064,0.0,88.14406148424143,-3301.0070580563197,0.0,0,28,0.0,16905,382981919512941,797,17.094999313354492,-984.4307250976562,0.14999,16,0.0,0.0,1561097980,,,,0,0.0,5,6.0,17.094999313354492,0.0,0.0,148.75313227620134,66.7128,I,,
Raw,1730974978001,2053042000000,18,88.14406148424143,-1415008142959000064,0.0,88.14406148424143,-3301.0070580563197,0.0,0,10,0.0,16905,382981879276400,487,19.121000289916992,-999.9937744140625,0.14999,16,0.0,0.0,1561097980,,,,0,0.0,5,6.0,19.121000289916992,0.0,0.0,148.75313227620134,66.7128,I,,
Raw,1730974978001,2053042000000,18,88.14406148424143,-1415008142959000064,0.0,88.14406148424143,-3301.0070580563197,0.0,0,13,0.0,17,804012,487,17.166000366210938,-783.0167236328125,0.14999,16,0.0,0.0,1561097980,,,,0,0.0,5,6.0,17.166000366210938,0.0,0.0,148.75313227620134,66.7128,I,,
Raw,1730974978001,2053042000000,18,88.14406148424143,-1415008142959000064,0.0,88.14406148424143,-3301.0070580563197,0.0,0,30,0.0,16905,382981916332632,396,20.0,-1494.635009765625,0.14999,16,0.0,0.0,1561097980,,,,0,0.0,5,6.0,20.0,0.0,0.0,148.75313227620134,66.7128,I,,
Raw,1730974978001,2053042000000,18,88.14406148424143,-1415008142959000064,0.0,88.14406148424143,-3301.0070580563197,0.0,0,6,0.0,16905,382981875576851,396,20.382999420166016,-1129.93603515625,0.14999,16,0.0,0.0,1561097980,,,,0,2.3454259131152853,5,6.0,20.382999420166016,0.0,0.0,148.75313227620134,66.7128,I,,
Raw,1730974978001,2053042000000,18,88.14406148424143,-1415008142959000064,0.0,88.14406148424143,-3301.0070580563197,0.0,0,2,0.0,16431,382995921397261,797,17.16200065612793,-1255.4983721845267,0.14999,16,0.0,0.0,1575420030,,,,0,0.0,1,6.0,17.16200065612793,0.0,0.0,0.0,66.7128,C,,
Raw,1730974979001,2054042000000,18,88.78606141020302,-1415008142959000064,0.0,88.78606141020302,-3302.1564201645415,0.0,0,9,0.0,16431,382996933629288,396,25.075000762939453,-1145.3662807198027,0.14999,16,0.0,0.0,1575420030,,,,0,5.139247380653616,1,6.0,25.075000762939453,0.0,0.0,0.0,66.7128,C,,
Raw,1730974979001,2054042000000,18,88.78606141020302,-1415008142959000064,0.0,88.78606141020302,-3302.1564201645415,0.0,0,8,0.0,16431,382996931097148,487,23.02899932861328,-751.6693456951996,0.14999,16,0.0,0.0,1575420030,,,,0,2.14896008895929,1,6.0,23.02899932861328,0.0,0.0,0.0,66.7128,C,,
Raw,1730974979001,2054042000000,18,88.78606141020302,-1415008142959000064,0.0,88.78606141020302,-3302.1564201645415,0.0,0,194,0.0,16431,382996858806237,396,21.0,-950.5656769648537,0.14999,16,0.0,0.0,1575420030,,,,0,0.2995431193930568,4,6.0,21.0,0.0,,0.0,,C,,
Raw,1730974979001,2054042000000,18,88.78606141020302,-1415008142959000064,0.0,88.78606141020302,-3302.1564201645415,0.0,0,27,0.0,16431,382996923217790,316,27.93899917602539,-454.0238853502304,0.14999,16,0.0,0.0,1575420030,,,,0,6.058612620068308,1,6.0,27.93899917602539,0.0,0.0,0.0,66.7128,C,,
Raw,1730974979001,2054042000000,18,88.78606141020302,-1415008142959000064,0.0,88.78606141020302,-3302.1564201645415,0.0,0,7,0.0,17,914037,487,20.81100082397461,-973.8655395507812,0.14999,16,0.0,0.0,1561097980,,,,0,0.0,5,6.0,20.81100082397461,0.0,0.0,149.4727012916851,66.7128,I,,
Raw,1730974979001,2054042000000,18,88.78606141020302,-1415008142959000064,0.0,88.78606141020302,-3302.1564201645415,0.0,0,27,0.0,16431,382996920127432,797,15.5,-775.3232301830492,0.14999,16,0.0,0.0,1575420030,,,,0,0.0,6,6.0,15.5,0.0,0.0,-11.787056200280189,66.7128,C,,
Raw,1730974979001,2054042000000,18,88.78606141020302,-1415008142959000064,0.0,88.78606141020302,-3302.1564201645415,0.0,0,3,0.0,17,518097,316,22.930999755859375,-986.6527709960938,0.14999,16,0.0,0.0,1561097980,,,,0,2.1441993929573675,5,6.0,22.930999755859375,0.0,0.0,149.4727012916851,66.7128,I,,
Raw,1730974979001,2054042000000,18,88.78606141020302,-1415008142959000064,0.0,88.78606141020302,-3302.1564201645415,0.0,0,7,0.0,16431,382996922774163,396,18.799999237060547,-967.2710084321741,0.14999,16,0.0,0.0,1575420030,,,,0,0.0,6,6.0,18.799999237060547,0.0,0.0,-11.787056200280189,66.7128,C,,
Raw,1730974979001,2054042000000,18,88.78606141020302,-1415008142959000064,0.0,88.78606141020302,-3302.1564201645415,0.0,0,21,0.0,16431,382996915203198,1934,8.699999809265137,-1148.392489034925,0.14999,16,0.0,0.0,1575420030,,,,0,0.0,6,6.0,8.699999809265137,0.0,0.0,-11.787056200280189,66.7128,C,,
Raw,1730974979001,2054042000000,18,88.78606141020302,-1415008142959000064,0.0,88.78606141020302,-3302.1564201645415,0.0,0,21,0.0,16431,382996922703715,487,20.246000289916992,-1237.2071362214433,0.14999,16,0.0,0.0,1575420030,,,,0,0.0,1,6.0,20.246000289916992,0.0,0.0,0.0,66.7128,C,,
Raw,1730974979001,2054042000000,18,88.78606141020302,-1415008142959000064,0.0,88.78606141020302,-3302.1564201645415,0.0,0,20,0.0,16905,382982925671687,797,12.934000015258789,-924.2685546875,0.14999,16,0.0,0.0,1561097980,,,,0,0.0,5,6.0,12.934000015258789,0.0,0.0,149.4727012916851,66.7128,I,,
Raw,1730974979001,2054042000000,18,88.78606141020302,-1415008142959000064,0.0,88.78606141020302,-3302.1564201645415,0.0,0,16,0.0,16905,382982874037702,487,19.100000381469727,-1145.2420654296875,0.14999,16,0.0,0.0,1561097980,,,,0,0.0,5,6.0,19.100000381469727,0.0,0.0,149.4727012916851,66.7128,I,,
Raw,1730974979001,2054042000000,18,88.78606141020302,-1415008142959000064,0.0,88.78606141020302,-3302.1564201645415,0.0,0,8,0.0,32995,48178936030654,797,17.0,-1025.8803104241335,0.14999,16,0.0,0.0,1605374980,,,,0,0.0,3,6.0,17.0,0.0,0.0,101.98909422934248,66.7128,C,,
Raw,1730974979001,2054042000000,18,88.78606141020302,-1415008142959000064,0.0,88.78606141020302,-3302.1564201645415,0.0,0,1,0.0,32995,48178924939616,487,19.0,-1658.1238156028444,0.14999,16,0.0,0.0,1602562560,,,,0,0.0,3,6.0,19.0,0.0,0.0,101.98909422934248,66.7128,C,,
Raw,1730974979001,2054042000000,18,88.78606141020302,-1415008142959000064,0.0,88.78606141020302,-3302.1564201645415,0.0,0,7,0.0,32995,48178931821367,797,17.0,-351.2455849665544,0.14999,16,0.0,0.0,1604812540,,,,0,0.0,3,6.0,17.0,0.0,0.0,101.98909422934248,66.7128,C,,
Raw,1730974979001,2054042000000,18,88.78606141020302,-1415008142959000064,0.0,88.78606141020302,-3302.1564201645415,0.0,0,7,0.0,16431,382996924125451,487,18.615999221801758,-1247.949437051309,0.14999,16,0.0,0.0,1575420030,,,,0,0.0,1,6.0,18.615999221801758,0.0,0.0,0.0,66.7128,C,,
Raw,1730974979001,2054042000000,18,88.78606141020302,-1415008142959000064,0.0,88.78606141020302,-3302.1564201645415,0.0,0,19,0.0,17,188424,797,18.77899932861328,-1382.6041259765625,0.14999,16,0.0,0.0,1561097980,,,,0,0.0,5,6.0,18.77899932861328,0.0,0.0,149.4727012916851,66.7128,I,,
Raw,1730974979001,2054042000000,18,88.78606141020302,-1415008142959000064,0.0,88.78606141020302,-3302.1564201645415,0.0,0,3,0.0,16431,382996920805433,396,23.84000015258789,-482.75200451501127,0.14999,16,0.0,0.0,1575420030,,,,0,2.668536936676378,1,6.0,23.84000015258789,0.0,0.0,0.0,66.7128,C,,
Raw,1730974979001,2054042000000,18,88.78606141020302,-1415008142959000064,0.0,88.78606141020302,-3302.1564201645415,0.0,0,27,0.0,16905,382982922525462,316,24.034000396728516,-1325.46044921875,0.14999,16,0.0,0.0,1561097980,,,,0,5.15357149738369,5,6.0,24.034000396728516,0.0,0.0,149.4727012916851,66.7128,I,,
Raw,1730974979001,2054042000000,18,88.78606141020302,-1415008142959000064,0.0,88.78606141020302,-3302.1564201645415,0.0,0,28,0.0,16905,382982919516228,797,17.09000015258789,-984.78759765625,0.14999,16,0.0,0.0,1561097980,,,,0,0.0,5,6.0,17.09000015258789,0.0,0.0,149.4727012916851,66.7128,I,,
Raw,1730974979001,2054042000000,18,88.78606141020302,-1415008142959000064,0.0,88.78606141020302,-3302.1564201645415,0.0,0,10,0.0,16905,382982879279735,797,19.083999633789062,-999.9096069335938,0.14999,16,0.0,0.0,1561097980,,,,0,0.0,5,6.0,19.083999633789062,0.0,0.0,149.4727012916851,66.7128,I,,
Raw,1730974979001,2054042000000,18,88.78606141020302,-1415008142959000064,0.0,88.78606141020302,-3302.1564201645415,0.0,0,13,0.0,17,806625,797,17.14699935913086,-782.8446044921875,0.14999,16,0.0,0.0,1561097980,,,,0,0.0,5,6.0,17.14699935913086,0.0,0.0,149.4727012916851,66.7128,I,,
Raw,1730974979001,2054042000000,18,88.78606141020302,-1415008142959000064,0.0,88.78606141020302,-3302.1564201645415,0.0,0,30,0.0,16905,382982916337618,396,20.09000015258789,-1494.7615966796875,0.14999,16,0.0,0.0,1561097980,,,,0,1.7981022287879587,5,6.0,20.09000015258789,0.0,0.0,149.4727012916851,66.7128,I,,
Raw,1730974979001,2054042000000,18,88.78606141020302,-1415008142959000064,0.0,88.78606141020302,-3302.1564201645415,0.0,0,6,0.0,16905,382982875580618,487,20.292999267578125,-1128.455322265625,0.14999,16,0.0,0.0,1561097980,,,,0,0.0,5,6.0,20.292999267578125,0.0,0.0,149.4727012916851,66.7128,I,,
Raw,1730974979001,2054042000000,18,88.78606141020302,-1415008142959000064,0.0,88.78606141020302,-3302.1564201645415,0.0,0,2,0.0,16431,382996921401448,797,17.16200065612793,-1256.248211022165,0.14999,16,0.0,0.0,1575420030,,,,0,0.0,1,6.0,17.16200065612793,0.0,0.0,0.0,66.7128,C,,
Raw,1730974980001,2055042000000,18,87.45507648818405,-1415008142959000064,0.0,87.45507648818405,-3301.5155596240606,0.0,0,9,0.0,16431,382997933633112,316,26.562000274658203,-1144.7653875645358,0.14999,16,0.0,0.0,1575420030,,,,0,7.161369932686908,1,6.0,26.562000274658203,0.0,0.0,0.0,66.7128,C,,
