# 
# Header Description:
# 
# Version: v3.0.6.4 Platform: 14 Manufacturer: samsung Model: SM-M346B
# 
# Raw,utcTimeMillis,TimeNanos,LeapSecond,TimeUncertaintyNanos,FullBiasNanos,BiasNanos,BiasUncertaintyNanos,DriftNanosPerSecond,DriftUncertaintyNanosPerSecond,HardwareClockDiscontinuityCount,Svid,TimeOffsetNanos,State,ReceivedSvTimeNanos,ReceivedSvTimeUncertaintyNanos,Cn0DbHz,PseudorangeRateMetersPerSecond,PseudorangeRateUncertaintyMetersPerSecond,AccumulatedDeltaRangeState,AccumulatedDeltaRangeMeters,AccumulatedDeltaRangeUncertaintyMeters,CarrierFrequencyHz,CarrierCycles,CarrierPhase,CarrierPhaseUncertainty,MultipathIndicator,SnrInDb,ConstellationType,AgcDb,BasebandCn0DbHz,FullInterSignalBiasNanos,FullInterSignalBiasUncertaintyNanos,SatelliteInterSignalBiasNanos,SatelliteInterSignalBiasUncertaintyNanos,CodeType,ChipsetElapsedRealtimeNanos
# 
# UncalAccel,utcTimeMillis,elapsedRealtimeNanos,UncalAccelXMps2,UncalAccelYMps2,UncalAccelZMps2,BiasXMps2,BiasYMps2,BiasZMps2
# 
# Accel,utcTimeMillis,elapsedRealtimeNanos,AccelXMps2,AccelYMps2,AccelZMps2
# 
# UncalGyro,utcTimeMillis,elapsedRealtimeNanos,UncalGyroXRadPerSec,UncalGyroYRadPerSec,UncalGyroZRadPerSec,DriftXRadPerSec,DriftYRadPerSec,DriftZRadPerSec
# 
# Gyro,utcTimeMillis,elapsedRealtimeNanos,GyroXRadPerSec,GyroYRadPerSec,GyroZRadPerSec
# 
# UncalMag,utcTimeMillis,elapsedRealtimeNanos,UncalMagXMicroT,UncalMagYMicroT,UncalMagZMicroT,BiasXMicroT,BiasYMicroT,BiasZMicroT
# 
# Mag,utcTimeMillis,elapsedRealtimeNanos,MagXMicroT,MagYMicroT,MagZMicroT
# 
# OrientationDeg,utcTimeMillis,elapsedRealtimeNanos,yawDeg,rollDeg,pitchDeg
# 
# Fix,Provider,LatitudeDegrees,LongitudeDegrees,AltitudeMeters,SpeedMps,AccuracyMeters,BearingDegrees,UnixTimeMillis,SpeedAccuracyMps,BearingAccuracyDegrees,elapsedRealtimeNanos,VerticalAccuracyMeters,MockLocation,NumberOfUsedSignals,VerticalSpeedAccuracyMps,SolutionType
# 
# Nav,Svid,Type,Status,MessageId,Sub-messageId,Data(Bytes)
# 
# Status,UnixTimeMillis,SignalCount,SignalIndex,ConstellationType,Svid,CarrierFrequencyHz,Cn0DbHz,AzimuthDegrees,ElevationDegrees,UsedInFix,HasAlmanacData,HasEphemerisData,BasebandCn0DbHz
# 
# Agc,utcTimeMillis,TimeNanos,LeapSecond,TimeUncertaintyNanos,FullBiasNanos,BiasNanos,BiasUncertaintyNanos,DriftNanosPerSecond,DriftUncertaintyNanosPerSecond,HardwareClockDiscontinuityCount,AgcDb,CarrierFrequencyHz,ConstellationType
# 
Fix,FLP,12.9356424000,77.5414964000,798.0999755859375,0.16984318,25.871,74.88673,1726560833023,1.5,45.0,682070718000000,1.3393159,0,,,
Raw,1726560834007,6334721791,18,0.0,-1410596045672750848,0.0,2000092.125,1.9042695760726929,0.0,0,32,0.0,19,1506424,18,30.399999618530273,170.85546875,0.15500031411647797,16,0.0,0.1096007227897644,1575420030,,,,0,,1,1.2999999523162842,25.399999618530273,0.0,0.0,0.0,0.0,C,813137221007820
Raw,1726560834007,6334721791,18,0.0,-1410596045672750848,0.0,2000092.125,1.9042695760726929,0.0,0,28,0.0,19,8674133,26,25.5,436.3704528808594,0.23795360326766968,16,0.0,0.1682569980621338,1575420030,,,,0,,1,1.2999999523162842,20.5,0.0,0.0,0.0,0.0,C,813137221007820
Raw,1726560834007,6334721791,18,0.0,-1410596045672750848,0.0,2000092.125,1.9042695760726929,0.0,0,21,0.0,19,4457197,28,24.700000762939453,-94.12088012695312,0.25767216086387634,16,0.0,0.18219998478889465,1575420030,,,,0,,1,1.2999999523162842,19.700000762939453,0.0,0.0,0.0,0.0,C,813137221007820
Raw,1726560834007,6334721791,18,0.0,-1410596045672750848,0.0,2000092.125,1.9042695760726929,0.0,0,10,0.0,19,8097566,25,26.100000381469727,170.181396484375,0.22461310029029846,16,0.0,0.1588239222764969,1575420030,,,,0,,1,1.2999999523162842,21.100000381469727,0.0,0.0,0.0,0.0,C,813137221007820
Raw,1726560834007,6334721791,18,0.0,-1410596045672750848,0.0,2000092.125,1.9042695760726929,0.0,0,13,0.0,51,19957618,13,36.79999923706055,-68.78656005859375,0.09888850152492523,19,-28369.042082420594,0.16594380140304565,1561097980,,,,0,,5,1.2999999523162842,31.799999237060547,0.0,0.0,0.0,0.0,C,813137221007820
Raw,1726560834007,6334721791,18,0.0,-1410596045672750848,0.0,2000092.125,1.9042695760726929,0.0,0,12,0.0,51,8397991,14,35.29999923706055,460.7177734375,0.10892178863286972,16,0.0,0.07701859623193741,1601437440,,,,0,,3,1.2999999523162842,30.299999237060547,0.0,0.0,0.0,0.0,C,813137221007820
Raw,1726560834007,6334721791,18,0.0,-1410596045672750848,0.0,2000092.125,1.9042695760726929,0.0,0,26,0.0,1040,2882191,16,32.70000076293945,423.0653991699219,0.13032881915569305,19,-76641.0099971359,0.1873023509979248,1575420030,,,,0,,6,1.2999999523162842,27.700000762939453,0.0,0.0,0.0,0.0,C,813137221007820
Raw,1726560834007,6334721791,18,0.0,-1410596045672750848,0.0,2000092.125,1.9042695760726929,0.0,0,36,0.0,51,19154074,15,33.400001525878906,-568.9822387695312,0.12398333847522736,19,-96521.84101960225,0.18368837237358093,1561097980,,,,0,,5,1.2999999523162842,28.399999618530273,0.0,0.0,0.0,0.0,C,813137221007820
Raw,1726560834007,6334721791,18,0.0,-1410596045672750848,0.0,2000092.125,1.9042695760726929,0.0,0,13,0.0,51,14527220,19,30.100000381469727,-154.2371063232422,0.15872763097286224,16,0.0,0.11223630607128143,1600875010,,,,0,,3,1.2999999523162842,25.100000381469727,0.0,0.0,0.0,0.0,C,813137221007820
Raw,1726560834007,6334721791,18,0.0,-1410596045672750848,0.0,2000092.125,1.9042695760726929,0.0,0,14,0.0,51,6239959,19,30.100000381469727,-755.088623046875,0.15872763097286224,16,0.0,0.11223630607128143,1598062460,,,,0,,3,1.2999999523162842,25.100000381469727,0.0,0.0,0.0,0.0,C,813137221007820
Raw,1726560834007,6334721791,18,0.0,-1410596045672750848,0.0,2000092.125,1.9042695760726929,0.0,0,37,0.0,51,119785,26,25.700000762939453,395.474853515625,0.23337766528129578,16,0.0,0.16502134501934052,1561097980,,,,0,,5,1.2999999523162842,20.700000762939453,0.0,0.0,0.0,0.0,C,813137221007820
Raw,1726560834998,7327249557,18,0.0,-1410596045671365888,0.0,2000092.125,1.9314967393875122,0.0,0,32,0.0,19,14033600,18,30.399999618530273,170.31382751464844,0.15500031411647797,16,0.0,0.1096007227897644,1575420030,,,,0,,1,1.2999999523162842,25.399999618530273,0.0,0.0,0.0,0.0,C,813138213537956
Raw,1726560834998,7327249557,18,0.0,-1410596045671365888,0.0,2000092.125,1.9314967393875122,0.0,0,28,0.0,19,1200428,26,25.5,436.26593017578125,0.23795360326766968,16,0.0,0.1682569980621338,1575420030,,,,0,,1,1.2999999523162842,20.5,0.0,0.0,0.0,0.0,C,813138213537956
Raw,1726560834998,7327249557,18,0.0,-1410596045671365888,0.0,2000092.125,1.9314967393875122,0.0,0,21,0.0,19,16985254,28,24.700000762939453,-94.61537170410156,0.25767216086387634,16,0.0,0.18219998478889465,1575420030,,,,0,,1,1.2999999523162842,19.700000762939453,0.0,0.0,0.0,0.0,C,813138213537956
Raw,1726560834998,7327249557,18,0.0,-1410596045671365888,0.0,2000092.125,1.9314967393875122,0.0,0,10,0.0,19,624776,25,25.899999618530273,170.08294677734375,0.2289324849843979,16,0.0,0.16187815368175507,1575420030,,,,0,,1,1.2999999523162842,20.899999618530273,0.0,0.0,0.0,0.0,C,813138213537956
Raw,1726560834998,7327249557,18,0.0,-1410596045671365888,0.0,2000092.125,1.9314967393875122,0.0,0,13,0.0,51,12485618,12,37.099998474121094,-68.98004913330078,0.09704875946044922,19,-28437.56180641576,0.16464293003082275,1561097980,,,,0,,5,1.2999999523162842,32.099998474121094,0.0,0.0,0.0,0.0,C,813138213537956
Raw,1726560834998,7327249557,18,0.0,-1410596045671365888,0.0,2000092.125,1.9314967393875122,0.0,0,12,0.0,51,924235,14,35.29999923706055,460.5152282714844,0.10892178863286972,16,0.0,0.07701859623193741,1601437440,,,,0,,3,1.2999999523162842,30.299999237060547,0.0,0.0,0.0,0.0,C,813138213537956
Raw,1726560834998,7327249557,18,0.0,-1410596045671365888,0.0,2000092.125,1.9314967393875122,0.0,0,26,0.0,1040,2408582,14,34.400001525878906,422.9400329589844,0.11569254100322723,19,-76221.41133793106,0.1769530326128006,1575420030,,,,0,,6,1.2999999523162842,29.399999618530273,0.0,0.0,0.0,0.0,C,813138213537956
Raw,1726560834998,7327249557,18,0.0,-1410596045671365888,0.0,2000092.125,1.9314967393875122,0.0,0,36,0.0,51,11683729,15,33.400001525878906,-568.884765625,0.12398333847522736,19,-97086.5626179605,0.18368837237358093,1561097980,,,,0,,5,1.2999999523162842,28.399999618530273,0.0,0.0,0.0,0.0,C,813138213537956
Raw,1726560834998,7327249557,18,0.0,-1410596045671365888,0.0,2000092.125,1.9314967393875122,0.0,0,14,0.0,51,18770301,19,30.100000381469727,-755.1045532226562,0.15872763097286224,16,0.0,0.11223630607128143,1598062460,,,,0,,3,1.2999999523162842,25.100000381469727,0.0,0.0,0.0,0.0,C,813138213537956
Raw,1726560834998,7327249557,18,0.0,-1410596045671365888,0.0,2000092.125,1.9314967393875122,0.0,0,13,0.0,51,7055596,19,30.100000381469727,-154.9274444580078,0.15872763097286224,16,0.0,0.11223630607128143,1600875010,,,,0,,3,1.2999999523162842,25.100000381469727,0.0,0.0,0.0,0.0,C,813138213537956
Raw,1726560834998,7327249557,18,0.0,-1410596045671365888,0.0,2000092.125,1.9314967393875122,0.0,0,37,0.0,51,12646229,26,25.700000762939453,395.6806945800781,0.23337766528129578,16,0.0,0.16502134501934052,1561097980,,,,0,,5,1.2999999523162842,20.700000762939453,0.0,0.0,0.0,0.0,C,813138213537956
Raw,1726560834998,7327249557,18,0.0,-1410596045671365888,0.0,2000092.125,1.9314967393875122,0.0,0,2,0.0,51,19000632,24,26.700000762939453,-93.6180191040039,0.21236379444599152,16,0.0,0.1501624435186386,1599750020,,,,0,,3,1.2999999523162842,21.700000762939453,0.0,0.0,0.0,0.0,C,813138213537956
Raw,1726560834998,7327249557,18,0.0,-1410596045671365888,0.0,2000092.125,1.9314967393875122,0.0,0,17,0.0,51,1212914,29,24.200000762939453,428.4802551269531,0.2712673544883728,16,0.0,0.1918131411075592,1604249980,,,,0,,3,1.2999999523162842,19.200000762939453,0.0,0.0,0.0,0.0,C,813138213537956
Raw,1726560834998,7327249557,18,0.0,-1410596045671365888,0.0,2000092.125,1.9314967393875122,0.0,0,3,0.0,51,16055859,26,25.399999618530273,-241.69833374023438,0.24029220640659332,16,0.0,0.16991062462329865,1604812540,,,,0,,3,1.2999999523162842,20.399999618530273,0.0,0.0,0.0,0.0,C,813138213537956
Raw,1726560836000,8334752459,18,0.0,-1410596045665277952,0.0,50.034610748291016,0.4846890866756439,0.0,0,32,0.0,15,202453921535919,18,30.299999237060547,171.07574462890625,0.15622803568840027,16,0.0,0.11046884208917618,1575420030,,,,0,,1,1.2999999523162842,25.299999237060547,0.0,0.0,0.0,0.0,C,813138474603979
Raw,1726560836000,8334752459,18,0.0,-1410596045665277952,0.0,50.034610748291016,0.4846890866756439,0.0,0,28,0.0,15,202453928701871,21,28.200000762939453,435.8962707519531,0.18579070270061493,16,0.0,0.1313726007938385,1575420030,,,,0,,1,1.2999999523162842,23.200000762939453,0.0,0.0,0.0,0.0,C,813138474603979
Raw,1726560836000,8334752459,18,0.0,-1410596045665277952,0.0,50.034610748291016,0.4846890866756439,0.0,0,21,0.0,15,202453924488468,23,27.299999237060547,-95.13362121582031,0.20108991861343384,16,0.0,0.14219067990779877,1575420030,,,,0,,1,1.2999999523162842,22.299999237060547,0.0,0.0,0.0,0.0,C,813138474603979
Raw,1726560836000,8334752459,18,0.0,-1410596045665277952,0.0,50.034610748291016,0.4846890866756439,0.0,0,26,0.0,15,202453928037785,35,22.0,-422.8409118652344,0.34602075815200806,16,0.0,0.2446712851524353,1575420030,,,,0,,1,1.2999999523162842,17.0,0.0,0.0,0.0,0.0,C,813138474603979
Raw,1726560836000,8334752459,18,0.0,-1410596045665277952,0.0,50.034610748291016,0.4846890866756439,0.0,0,10,0.0,15,202453928127085,26,25.5,168.83822631835938,0.23795360326766968,16,0.0,0.1682569980621338,1575420030,,,,0,,1,1.2999999523162842,20.5,0.0,0.0,0.0,0.0,C,813138474603979
Raw,1726560836000,8334752459,18,0.0,-1410596045665277952,0.0,50.034610748291016,0.4846890866756439,0.0,0,31,0.0,15,202453932962419,47,19.299999237060547,11.896402359008789,0.4890214502811432,16,0.0,0.34578707814216614,1575420030,,,,0,,1,1.2999999523162842,14.300000190734863,0.0,0.0,0.0,0.0,C,813138474603979
Raw,1726560836000,8334752459,18,0.0,-1410596045665277952,0.0,50.034610748291016,0.4846890866756439,0.0,0,13,0.0,51,19988754,12,37.400001525878906,-69.2237548828125,0.09525986015796661,19,-28506.978536035036,0.16337800025939941,1561097980,,,,0,,5,1.2999999523162842,32.400001525878906,0.0,0.0,0.0,0.0,C,813138474603979
Raw,1726560836000,8334752459,18,0.0,-1410596045665277952,0.0,50.034610748291016,0.4846890866756439,0.0,0,12,0.0,239,40435928425603,14,35.20000076293945,460.6219787597656,0.10964430868625641,16,0.0,0.07752948999404907,1601437440,,,,0,,3,1.2999999523162842,30.200000762939453,0.0,0.0,0.0,0.0,C,813138474603979
Raw,1726560836000,8334752459,18,0.0,-1410596045665277952,0.0,50.034610748291016,0.4846890866756439,0.0,0,26,0.0,3072,17910046,14,34.79999923706055,423.01312255859375,0.11260754615068436,16,0.0,0.07962479442358017,1575420030,,,,0,,6,1.2999999523162842,29.799999237060547,0.0,0.0,0.0,0.0,C,813138474603979
Raw,1726560836000,8334752459,18,0.0,-1410596045665277952,0.0,50.034610748291016,0.4846890866756439,0.0,0,36,0.0,51,19188525,15,34.0,-568.9132690429688,0.11890606582164764,19,-97659.68462019565,0.18009822070598602,1561097980,,,,0,,5,1.2999999523162842,29.0,0.0,0.0,0.0,0.0,C,813138474603979
Raw,1726560836000,8334752459,18,0.0,-1410596045665277952,0.0,50.034610748291016,0.4846890866756439,0.0,0,13,0.0,239,40435934558946,19,30.100000381469727,-154.65426635742188,0.15872763097286224,16,0.0,0.11223630607128143,1600875010,,,,0,,3,1.2999999523162842,25.100000381469727,0.0,0.0,0.0,0.0,C,813138474603979
Raw,1726560836000,8334752459,18,0.0,-1410596045665277952,0.0,50.034610748291016,0.4846890866756439,0.0,0,37,0.0,51,147795,23,27.399999618530273,395.8028259277344,0.19929847121238708,16,0.0,0.14092394709587097,1561097980,,,,0,,5,1.2999999523162842,22.399999618530273,0.0,0.0,0.0,0.0,C,813138474603979
Raw,1726560836000,8334752459,18,0.0,-1410596045665277952,0.0,50.034610748291016,0.4846890866756439,0.0,0,14,0.0,239,40435926275813,19,30.0,-755.6957397460938,0.1599999964237213,16,0.0,0.11313600093126297,1598062460,,,,0,,3,1.2999999523162842,25.0,0.0,0.0,0.0,0.0,C,813138474603979
Raw,1726560836000,8334752459,18,0.0,-1410596045665277952,0.0,50.034610748291016,0.4846890866756439,0.0,0,3,0.0,239,40435923559614,24,26.5,-241.30950927734375,0.21633315086364746,16,0.0,0.15296916663646698,1604812540,,,,0,,3,1.2999999523162842,21.5,0.0,0.0,0.0,0.0,C,813138474603979
Raw,1726560836000,8334752459,18,0.0,-1410596045665277952,0.0,50.034610748291016,0.4846890866756439,0.0,0,29,0.0,51,18481570,27,25.200000762939453,249.2335205078125,0.24507398903369904,16,0.0,0.17329181730747223,1561097980,,,,0,,5,1.2999999523162842,20.200000762939453,0.0,0.0,0.0,0.0,C,813138474603979
Raw,1726560836000,8334752459,18,0.0,-1410596045665277952,0.0,50.034610748291016,0.4846890866756439,0.0,0,16,0.0,51,13374790,32,23.200000762939453,168.17697143554688,0.3018958866596222,16,0.0,0.21347057819366455,1561097980,,,,0,,5,1.2999999523162842,18.200000762939453,0.0,0.0,0.0,0.0,C,813138474603979
Raw,1726560836000,8334752459,18,0.0,-1410596045665277952,0.0,50.034610748291016,0.4846890866756439,0.0,0,17,0.0,239,40435928714322,29,24.299999237060547,428.9321594238281,0.2684636116027832,16,0.0,0.18983061611652374,1604249980,,,,0,,3,1.2999999523162842,19.299999237060547,0.0,0.0,0.0,0.0,C,813138474603979
Raw,1726560837000,9334721913,18,0.0,-1410596045665278208,0.0,10.014025688171387,0.12821026146411896,0.0,0,32,0.0,15,202454921504817,18,30.299999237060547,170.070068359375,0.15622803568840027,16,0.0,0.11046884208917618,1575420030,,,,0,,1,1.2999999523162842,25.299999237060547,0.0,0.0,0.0,0.0,C,813139219770524
Raw,1726560837000,9334721913,18,0.0,-1410596045665278208,0.0,10.014025688171387,0.12821026146411896,0.0,0,28,0.0,15,202454928669859,21,28.299999237060547,436.2890625,0.18419939279556274,16,0.0,0.13024738430976868,1575420030,,,,0,,1,1.2999999523162842,23.299999237060547,0.0,0.0,0.0,0.0,C,813139219770524
Raw,1726560837000,9334721913,18,0.0,-1410596045665278208,0.0,10.014025688171387,0.12821026146411896,0.0,0,21,0.0,15,202454924458256,23,27.299999237060547,-95.27032470703125,0.20108991861343384,16,0.0,0.14219067990779877,1575420030,,,,0,,1,1.2999999523162842,22.299999237060547,0.0,0.0,0.0,0.0,C,813139219770524
Raw,1726560837000,9334721913,18,0.0,-1410596045665278208,0.0,10.014025688171387,0.12821026146411896,0.0,0,26,0.0,15,202454928008664,31,23.5,-423.2455749511719,0.29218408465385437,16,0.0,0.20660336315631866,1575420030,,,,0,,1,1.2999999523162842,18.5,0.0,0.0,0.0,0.0,C,813139219770524
Raw,1726560837000,9334721913,18,0.0,-1410596045665278208,0.0,10.014025688171387,0.12821026146411896,0.0,0,10,0.0,15,202454928095954,26,25.299999237060547,168.3448028564453,0.24266545474529266,16,0.0,0.1715887486934662,1575420030,,,,0,,1,1.2999999523162842,20.299999237060547,0.0,0.0,0.0,0.0,C,813139219770524
Raw,1726560837000,9334721913,18,0.0,-1410596045665278208,0.0,10.014025688171387,0.12821026146411896,0.0,0,31,0.0,15,202454932931842,46,19.5,11.711353302001953,0.4756242632865906,16,0.0,0.3363139033317566,1575420030,,,,0,,1,1.2999999523162842,14.5,0.0,0.0,0.0,0.0,C,813139219770524
Raw,1726560837000,9334721913,18,0.0,-1410596045665278208,0.0,10.014025688171387,0.12821026146411896,0.0,0,13,0.0,51,19958437,12,37.599998474121094,-69.33023834228516,0.09409463405609131,19,-28576.128034472233,0.1625540554523468,1561097980,,,,0,,5,1.2999999523162842,32.599998474121094,0.0,0.0,0.0,0.0,C,813139219770524
Raw,1726560837000,9334721913,18,0.0,-1410596045665278208,0.0,10.014025688171387,0.12821026146411896,0.0,0,12,0.0,239,40436928393480,14,35.20000076293945,460.4747314453125,0.10964430868625641,16,0.0,0.07752948999404907,1601437440,,,,0,,3,1.2999999523162842,30.200000762939453,0.0,0.0,0.0,0.0,C,813139219770524
Raw,1726560837000,9334721913,18,0.0,-1410596045665278208,0.0,10.014025688171387,0.12821026146411896,0.0,0,26,0.0,3072,17878087,14,34.70000076293945,422.68280029296875,0.11336711049079895,19,-144633.2993424156,0.1753087192773819,1575420030,,,,0,,6,1.2999999523162842,29.700000762939453,0.0,0.0,0.0,0.0,C,813139219770524
Raw,1726560837000,9334721913,18,0.0,-1410596045665278208,0.0,10.014025688171387,0.12821026146411896,0.0,0,36,0.0,51,19159897,15,34.099998474121094,-569.5404052734375,0.11809024214744568,19,-98228.69993949596,0.1795213520526886,1561097980,,,,0,,5,1.2999999523162842,29.100000381469727,0.0,0.0,0.0,0.0,C,813139219770524
Raw,1726560837000,9334721913,18,0.0,-1410596045665278208,0.0,10.014025688171387,0.12821026146411896,0.0,0,13,0.0,239,40436934528886,18,30.299999237060547,-154.31954956054688,0.15622803568840027,16,0.0,0.11046884208917618,1600875010,,,,0,,3,1.2999999523162842,25.299999237060547,0.0,0.0,0.0,0.0,C,813139219770524
Raw,1726560837000,9334721913,18,0.0,-1410596045665278208,0.0,10.014025688171387,0.12821026146411896,0.0,0,37,0.0,51,115948,22,27.5,395.5844421386719,0.1975308656692505,16,0.0,0.1396740823984146,1561097980,,,,0,,5,1.2999999523162842,22.5,0.0,0.0,0.0,0.0,C,813139219770524
Raw,1726560837000,9334721913,18,0.0,-1410596045665278208,0.0,10.014025688171387,0.12821026146411896,0.0,0,14,0.0,239,40436926247771,19,29.799999237060547,-755.4281616210938,0.16259105503559113,16,0.0,0.11496813595294952,1598062460,,,,0,,3,1.2999999523162842,24.799999237060547,0.0,0.0,0.0,0.0,C,813139219770524
Raw,1726560837000,9334721913,18,0.0,-1410596045665278208,0.0,10.014025688171387,0.12821026146411896,0.0,0,3,0.0,239,40436923529832,24,26.700000762939453,-241.47593688964844,0.21236379444599152,16,0.0,0.1501624435186386,1604812540,,,,0,,3,1.2999999523162842,21.700000762939453,0.0,0.0,0.0,0.0,C,813139219770524
Raw,1726560837000,9334721913,18,0.0,-1410596045665278208,0.0,10.014025688171387,0.12821026146411896,0.0,0,29,0.0,51,18450193,26,25.399999618530273,248.8182830810547,0.24029220640659332,16,0.0,0.16991062462329865,1561097980,,,,0,,5,1.2999999523162842,20.399999618530273,0.0,0.0,0.0,0.0,C,813139219770524
Raw,1726560837000,9334721913,18,0.0,-1410596045665278208,0.0,10.014025688171387,0.12821026146411896,0.0,0,38,0.0,47,202440874488734,29,24.200000762939453,50.4383544921875,0.2712673544883728,16,0.0,0.1918131411075592,1561097980,,,,0,,5,1.2999999523162842,19.200000762939453,0.0,0.0,0.0,0.0,C,813139219770524
Raw,1726560837000,9334721913,18,0.0,-1410596045665278208,0.0,10.014025688171387,0.12821026146411896,0.0,0,17,0.0,239,40436928682411,29,24.299999237060547,428.4984130859375,0.2684636116027832,16,0.0,0.18983061611652374,1604249980,,,,0,,3,1.2999999523162842,19.299999237060547,0.0,0.0,0.0,0.0,C,813139219770524
Raw,1726560837000,9334721913,18,0.0,-1410596045665278208,0.0,10.014025688171387,0.12821026146411896,0.0,0,8,0.0,51,16753779,28,24.600000381469727,-15.2840576171875,0.2603082060813904,16,0.0,0.18406392633914948,1561097980,,,,0,,5,1.2999999523162842,19.600000381469727,0.0,0.0,0.0,0.0,C,813139219770524
Raw,1726560837000,9334721913,18,0.0,-1410596045665278208,0.0,10.014025688171387,0.12821026146411896,0.0,0,16,0.0,51,13343646,32,23.200000762939453,168.0316925048828,0.3018958866596222,16,0.0,0.21347057819366455,1561097980,,,,0,,5,1.2999999523162842,18.200000762939453,0.0,0.0,0.0,0.0,C,813139219770524
Raw,1726560837000,9334721913,18,0.0,-1410596045665278208,0.0,10.014025688171387,0.12821026146411896,0.0,0,20,0.0,51,1547587,29,24.30000114440918,-155.51556396484375,0.2684635519981384,16,0.0,0.18983057141304016,1561097980,,,,0,,5,1.2999999523162842,19.30000114440918,0.0,0.0,0.0,0.0,C,813139219770524
Raw,1726560838000,10334721913,18,0.0,-1410596045665278208,0.0,10.014025688171387,-0.32038038969039917,0.0,0,32,0.0,15,202455921504258,18,30.399999618530273,169.40750122070312,0.15500031411647797,16,0.0,0.1096007227897644,1575420030,,,,0,,1,1.2999999523162842,25.399999618530273,0.0,0.0,0.0,0.0,C,813139996637293
Raw,1726560838000,10334721913,18,0.0,-1410596045665278208,0.0,10.014025688171387,-0.32038038969039917,0.0,0,10,0.0,15,202455928095411,27,25.100000381469727,168.21408081054688,0.2475186139345169,16,0.0,0.17502041161060333,1575420030,,,,0,,1,1.2999999523162842,20.100000381469727,0.0,0.0,0.0,0.0,C,813139996637293
Raw,1726560838000,10334721913,18,0.0,-1410596045665278208,0.0,10.014025688171387,-0.32038038969039917,0.0,0,28,0.0,15,202455928668449,21,28.5,435.50726318359375,0.18107740581035614,16,0.0,0.12803983688354492,1575420030,,,,0,,1,1.2999999523162842,23.5,0.0,0.0,0.0,0.0,C,813139996637293
Raw,1726560838000,10334721913,18,0.0,-1410596045665278208,0.0,10.014025688171387,-0.32038038969039917,0.0,0,21,0.0,15,202455924458521,23,27.399999618530273,-94.42085266113281,0.19929847121238708,16,0.0,0.14092394709587097,1575420030,,,,0,,1,1.2999999523162842,22.399999618530273,0.0,0.0,0.0,0.0,C,813139996637293
Raw,1726560838000,10334721913,18,0.0,-1410596045665278208,0.0,10.014025688171387,-0.32038038969039917,0.0,0,26,0.0,15,202455928010067,29,24.200000762939453,-423.2792053222656,0.2712673544883728,16,0.0,0.1918131411075592,1575420030,,,,0,,1,1.2999999523162842,19.200000762939453,0.0,0.0,0.0,0.0,C,813139996637293
Raw,1726560838000,10334721913,18,0.0,-1410596045665278208,0.0,10.014025688171387,-0.32038038969039917,0.0,0,31,0.0,15,202455932931763,46,19.5,10.56827163696289,0.4756242632865906,16,0.0,0.3363139033317566,1575420030,,,,0,,1,1.2999999523162842,14.5,0.0,0.0,0.0,0.0,C,813139996637293
Raw,1726560838000,10334721913,18,0.0,-1410596045665278208,0.0,10.014025688171387,-0.32038038969039917,0.0,0,13,0.0,47,202441879958665,12,37.599998474121094,-69.34817504882812,0.09409463405609131,19,-28645.522987784265,0.1625540554523468,1561097980,,,,0,,5,1.2999999523162842,32.599998474121094,0.0,0.0,0.0,0.0,C,813139996637293
Raw,1726560838000,10334721913,18,0.0,-1410596045665278208,0.0,10.014025688171387,-0.32038038969039917,0.0,0,12,0.0,239,40437928391947,14,35.20000076293945,460.2451171875,0.10964430868625641,16,0.0,0.07752948999404907,1601437440,,,,0,,3,1.2999999523162842,30.200000762939453,0.0,0.0,0.0,0.0,C,813139996637293
Raw,1726560838000,10334721913,18,0.0,-1410596045665278208,0.0,10.014025688171387,-0.32038038969039917,0.0,0,26,0.0,3072,17876687,14,34.599998474121094,422.3386535644531,0.11413440108299255,25,-144210.84596879384,0.08070443570613861,1575420030,,,,0,,6,1.2999999523162842,29.600000381469727,0.0,0.0,0.0,0.0,C,813139996637293
Raw,1726560838000,10334721913,18,0.0,-1410596045665278208,0.0,10.014025688171387,-0.32038038969039917,0.0,0,36,0.0,47,202441919161789,15,34.099998474121094,-569.166015625,0.11809024214744568,19,-98798.03756812913,0.1795213520526886,1561097980,,,,0,,5,1.2999999523162842,29.100000381469727,0.0,0.0,0.0,0.0,C,813139996637293
Raw,1726560838000,10334721913,18,0.0,-1410596045665278208,0.0,10.014025688171387,-0.32038038969039917,0.0,0,13,0.0,239,40437934529450,18,30.299999237060547,-154.80917358398438,0.15622803568840027,16,0.0,0.11046884208917618,1600875010,,,,0,,3,1.2999999523162842,25.299999237060547,0.0,0.0,0.0,0.0,C,813139996637293
Raw,1726560838000,10334721913,18,0.0,-1410596045665278208,0.0,10.014025688171387,-0.32038038969039917,0.0,0,37,0.0,51,114622,22,27.799999237060547,395.1014404296875,0.19236689805984497,16,0.0,0.1360226273536682,1561097980,,,,0,,5,1.2999999523162842,22.799999237060547,0.0,0.0,0.0,0.0,C,813139996637293
Raw,1726560838000,10334721913,18,0.0,-1410596045665278208,0.0,10.014025688171387,-0.32038038969039917,0.0,0,14,0.0,239,40437926250189,19,29.600000381469727,-755.6145629882812,0.16524554789066315,16,0.0,0.11684512346982956,1598062460,,,,0,,3,1.2999999523162842,24.600000381469727,0.0,0.0,0.0,0.0,C,813139996637293
Raw,1726560838000,10334721913,18,0.0,-1410596045665278208,0.0,10.014025688171387,-0.32038038969039917,0.0,0,3,0.0,239,40437923530720,24,26.700000762939453,-243.0613250732422,0.21236379444599152,16,0.0,0.1501624435186386,1604812540,,,,0,,3,1.2999999523162842,21.700000762939453,0.0,0.0,0.0,0.0,C,813139996637293
Raw,1726560838000,10334721913,18,0.0,-1410596045665278208,0.0,10.014025688171387,-0.32038038969039917,0.0,0,38,0.0,47,202441874488574,29,24.200000762939453,50.20340347290039,0.2712673544883728,16,0.0,0.1918131411075592,1561097980,,,,0,,5,1.2999999523162842,19.200000762939453,0.0,0.0,0.0,0.0,C,813139996637293
Raw,1726560838000,10334721913,18,0.0,-1410596045665278208,0.0,10.014025688171387,-0.32038038969039917,0.0,0,29,0.0,51,18449381,26,25.700000762939453,248.84857177734375,0.23337766528129578,16,0.0,0.16502134501934052,1561097980,,,,0,,5,1.2999999523162842,20.700000762939453,0.0,0.0,0.0,0.0,C,813139996637293
Raw,1726560838000,10334721913,18,0.0,-1410596045665278208,0.0,10.014025688171387,-0.32038038969039917,0.0,0,196,0.0,15,202455868332069,26,25.30000114440918,-261.2775573730469,0.24266541004180908,16,0.0,0.1715887188911438,1575420030,,,,0,,4,1.2999999523162842,20.30000114440918,0.0,0.0,0.0,0.0,C,813139996637293
Raw,1726560838000,10334721913,18,0.0,-1410596045665278208,0.0,10.014025688171387,-0.32038038969039917,0.0,0,17,0.0,239,40437928680917,29,24.399999618530273,427.7725830078125,0.2657030522823334,16,0.0,0.18787862360477448,1604249980,,,,0,,3,1.2999999523162842,19.399999618530273,0.0,0.0,0.0,0.0,C,813139996637293
Raw,1726560838000,10334721913,18,0.0,-1410596045665278208,0.0,10.014025688171387,-0.32038038969039917,0.0,0,8,0.0,51,16753804,28,24.600000381469727,-15.807975769042969,0.2603082060813904,16,0.0,0.18406392633914948,1561097980,,,,0,,5,1.2999999523162842,19.600000381469727,0.0,0.0,0.0,0.0,C,813139996637293
Raw,1726560838000,10334721913,18,0.0,-1410596045665278208,0.0,10.014025688171387,-0.32038038969039917,0.0,0,6,0.0,47,202441876561366,32,23.100000381469727,155.73219299316406,0.3052409589290619,16,0.0,0.21583588421344757,1561097980,,,,0,,5,1.2999999523162842,18.100000381469727,0.0,0.0,0.0,0.0,C,813139996637293
Raw,1726560838000,10334721913,18,0.0,-1410596045665278208,0.0,10.014025688171387,-0.32038038969039917,0.0,0,39,0.0,47,202441872755241,33,22.899999618530273,170.10861206054688,0.3121001422405243,16,0.0,0.22068600356578827,1561097980,,,,0,,5,1.2999999523162842,17.899999618530273,0.0,0.0,0.0,0.0,C,813139996637293
Raw,1726560838000,10334721913,18,0.0,-1410596045665278208,0.0,10.014025688171387,-0.32038038969039917,0.0,0,20,0.0,51,1548215,29,24.299999237060547,-155.27542114257812,0.2684636116027832,16,0.0,0.18983061611652374,1561097980,,,,0,,5,1.2999999523162842,19.299999237060547,0.0,0.0,0.0,0.0,C,813139996637293
Raw,1726560838000,10334721913,18,0.0,-1410596045665278208,0.0,10.014025688171387,-0.32038038969039917,0.0,0,30,0.0,47,202441915192570,35,22.200000762939453,385.68609619140625,0.33802053332328796,16,0.0,0.23901431262493134,1561097980,,,,0,,5,1.2999999523162842,17.200000762939453,0.0,0.0,0.0,0.0,C,813139996637293
Fix,FLP,12.9356809000,77.5415024000,798.0999755859375,0.41067418,25.788,21.290672,1726560838021,1.5,45.0,682075715000000,1.8066224,0,,,
Raw,1726560839000,11334721913,18,0.0,-1410596045665278208,0.0,10.014025688171387,-0.3190271854400635,0.0,0,32,0.0,15,202456921503674,18,30.399999618530273,169.59487915039062,0.15500031411647797,16,0.0,0.1096007227897644,1575420030,,,,0,,1,1.2999999523162842,25.399999618530273,0.0,0.0,0.0,0.0,C,813140883987370
Raw,1726560839000,11334721913,18,0.0,-1410596045665278208,0.0,10.014025688171387,-0.3190271854400635,0.0,0,10,0.0,15,202456928094831,23,27.100000381469727,168.55174255371094,0.20474600791931152,16,0.0,0.1447758972644806,1575420030,,,,0,,1,1.2999999523162842,22.100000381469727,0.0,0.0,0.0,0.0,C,813140883987370
Raw,1726560839000,11334721913,18,0.0,-1410596045665278208,0.0,10.014025688171387,-0.3190271854400635,0.0,0,28,0.0,15,202456928666980,21,28.5,435.57501220703125,0.18107740581035614,16,0.0,0.12803983688354492,1575420030,,,,0,,1,1.2999999523162842,23.5,0.0,0.0,0.0,0.0,C,813140883987370
Raw,1726560839000,11334721913,18,0.0,-1410596045665278208,0.0,10.014025688171387,-0.3190271854400635,0.0,0,21,0.0,15,202456924458845,22,27.5,-95.0275650024414,0.1975308656692505,16,0.0,0.1396740823984146,1575420030,,,,0,,1,1.2999999523162842,22.5,0.0,0.0,0.0,0.0,C,813140883987370
Raw,1726560839000,11334721913,18,0.0,-1410596045665278208,0.0,10.014025688171387,-0.3190271854400635,0.0,0,26,0.0,15,202456928011521,29,24.399999618530273,-423.2504577636719,0.2657030522823334,16,0.0,0.18787862360477448,1575420030,,,,0,,1,1.2999999523162842,19.399999618530273,0.0,0.0,0.0,0.0,C,813140883987370
Raw,1726560839000,11334721913,18,0.0,-1410596045665278208,0.0,10.014025688171387,-0.3190271854400635,0.0,0,31,0.0,15,202456932931711,46,19.5,9.755401611328125,0.4756242632865906,16,0.0,0.3363139033317566,1575420030,,,,0,,1,1.2999999523162842,14.5,0.0,0.0,0.0,0.0,C,813140883987370
Raw,1726560839000,11334721913,18,0.0,-1410596045665278208,0.0,10.014025688171387,-0.3190271854400635,0.0,0,13,0.0,47,202442879958899,12,37.79999923706055,-69.23927307128906,0.09295062720775604,25,-28714.762264013087,0.06572538614273071,1561097980,,,,0,,5,1.2999999523162842,32.79999923706055,0.0,0.0,0.0,0.0,C,813140883987370
Raw,1726560839000,11334721913,18,0.0,-1410596045665278208,0.0,10.014025688171387,-0.3190271854400635,0.0,0,12,0.0,239,40438928390456,14,35.20000076293945,460.7435607910156,0.10964430868625641,16,0.0,0.07752948999404907,1601437440,,,,0,,3,1.2999999523162842,30.200000762939453,0.0,0.0,0.0,0.0,C,813140883987370
Raw,1726560839000,11334721913,18,0.0,-1410596045665278208,0.0,10.014025688171387,-0.3190271854400635,0.0,0,26,0.0,3072,17875271,14,34.900001525878906,422.704345703125,0.11185558140277863,25,-143788.22527947486,0.0790930837392807,1575420030,,,,0,,6,1.2999999523162842,29.899999618530273,0.0,0.0,0.0,0.0,C,813140883987370
Raw,1726560839000,11334721913,18,0.0,-1410596045665278208,0.0,10.014025688171387,-0.3190271854400635,0.0,0,36,0.0,47,202442919163706,15,34.099998474121094,-569.1929931640625,0.11809024214744568,25,-99367.23056066806,0.08350160717964172,1561097980,,,,0,,5,1.2999999523162842,29.100000381469727,0.0,0.0,0.0,0.0,C,813140883987370
Raw,1726560839000,11334721913,18,0.0,-1410596045665278208,0.0,10.014025688171387,-0.3190271854400635,0.0,0,13,0.0,239,40438934529941,18,30.299999237060547,-154.01953125,0.15622803568840027,16,0.0,0.11046884208917618,1600875010,,,,0,,3,1.2999999523162842,25.299999237060547,0.0,0.0,0.0,0.0,C,813140883987370
Raw,1726560839000,11334721913,18,0.0,-1410596045665278208,0.0,10.014025688171387,-0.3190271854400635,0.0,0,37,0.0,51,113269,21,28.100000381469727,395.1435852050781,0.18740276992321014,16,0.0,0.13251249492168427,1561097980,,,,0,,5,1.2999999523162842,23.100000381469727,0.0,0.0,0.0,0.0,C,813140883987370
Raw,1726560839000,11334721913,18,0.0,-1410596045665278208,0.0,10.014025688171387,-0.3190271854400635,0.0,0,14,0.0,239,40438926252772,20,29.399999618530273,-756.324462890625,0.1679656058549881,16,0.0,0.11876848340034485,1598062460,,,,0,,3,1.2999999523162842,24.399999618530273,0.0,0.0,0.0,0.0,C,813140883987370
Raw,1726560839000,11334721913,18,0.0,-1410596045665278208,0.0,10.014025688171387,-0.3190271854400635,0.0,0,3,0.0,239,40438923531376,24,26.600000381469727,-241.09576416015625,0.21433469653129578,16,0.0,0.15155605971813202,1604812540,,,,0,,3,1.2999999523162842,21.600000381469727,0.0,0.0,0.0,0.0,C,813140883987370
Raw,1726560839000,11334721913,18,0.0,-1410596045665278208,0.0,10.014025688171387,-0.3190271854400635,0.0,0,196,0.0,15,202456868332980,26,25.299999237060547,-260.9084777832031,0.24266545474529266,16,0.0,0.1715887486934662,1575420030,,,,0,,4,1.2999999523162842,20.299999237060547,0.0,0.0,0.0,0.0,C,813140883987370
Raw,1726560839000,11334721913,18,0.0,-1410596045665278208,0.0,10.014025688171387,-0.3190271854400635,0.0,0,38,0.0,47,202442874488447,26,25.399999618530273,50.3157958984375,0.24029220640659332,16,0.0,0.16991062462329865,1561097980,,,,0,,5,1.2999999523162842,20.399999618530273,0.0,0.0,0.0,0.0,C,813140883987370
Raw,1726560839000,11334721913,18,0.0,-1410596045665278208,0.0,10.014025688171387,-0.3190271854400635,0.0,0,29,0.0,51,18448536,26,25.700000762939453,248.7401580810547,0.23337766528129578,16,0.0,0.16502134501934052,1561097980,,,,0,,5,1.2999999523162842,20.700000762939453,0.0,0.0,0.0,0.0,C,813140883987370
Raw,1726560839000,11334721913,18,0.0,-1410596045665278208,0.0,10.014025688171387,-0.3190271854400635,0.0,0,29,0.0,3072,16005183,28,24.600000381469727,98.25250244140625,0.2603082060813904,16,0.0,0.18406392633914948,1575420030,,,,0,,6,1.2999999523162842,19.600000381469727,0.0,0.0,0.0,0.0,C,813140883987370
Raw,1726560839000,11334721913,18,0.0,-1410596045665278208,0.0,10.014025688171387,-0.3190271854400635,0.0,0,8,0.0,51,16753822,28,24.600000381469727,-15.310038566589355,0.2603082060813904,16,0.0,0.18406392633914948,1561097980,,,,0,,5,1.2999999523162842,19.600000381469727,0.0,0.0,0.0,0.0,C,813140883987370
Raw,1726560839000,11334721913,18,0.0,-1410596045665278208,0.0,10.014025688171387,-0.3190271854400635,0.0,0,17,0.0,239,40438928679561,28,24.700000762939453,430.1008605957031,0.25767216086387634,16,0.0,0.18219998478889465,1604249980,,,,0,,3,1.2999999523162842,19.700000762939453,0.0,0.0,0.0,0.0,C,813140883987370
Raw,1726560839000,11334721913,18,0.0,-1410596045665278208,0.0,10.014025688171387,-0.3190271854400635,0.0,0,39,0.0,47,202442872754675,33,22.899999618530273,170.5038299560547,0.3121001422405243,16,0.0,0.22068600356578827,1561097980,,,,0,,5,1.2999999523162842,17.899999618530273,0.0,0.0,0.0,0.0,C,813140883987370
Raw,1726560839000,11334721913,18,0.0,-1410596045665278208,0.0,10.014025688171387,-0.3190271854400635,0.0,0,30,0.0,47,202442915191320,35,22.200000762939453,385.5504455566406,0.33802053332328796,16,0.0,0.23901431262493134,1561097980,,,,0,,5,1.2999999523162842,17.200000762939453,0.0,0.0,0.0,0.0,C,813140883987370
Raw,1726560840000,12334721913,18,0.0,-1410596045665278208,0.0,10.014025688171387,-0.039406292140483856,0.0,0,32,0.0,15,202457921503132,18,30.399999618530273,170.3076171875,0.15500031411647797,16,0.0,0.1096007227897644,1575420030,,,,0,,1,1.2999999523162842,25.399999618530273,0.0,0.0,0.0,0.0,C,813142014065655
Raw,1726560840000,12334721913,18,0.0,-1410596045665278208,0.0,10.014025688171387,-0.039406292140483856,0.0,0,10,0.0,15,202457928094279,19,29.899999618530273,167.4169158935547,0.16128772497177124,16,0.0,0.11404655128717422,1575420030,,,,0,,1,1.2999999523162842,24.899999618530273,0.0,0.0,0.0,0.0,C,813142014065655
Raw,1726560840000,12334721913,18,0.0,-1410596045665278208,0.0,10.014025688171387,-0.039406292140483856,0.0,0,28,0.0,15,202457928665478,21,28.600000381469727,437.1208190917969,0.17954610288143158,16,0.0,0.12695704400539398,1575420030,,,,0,,1,1.2999999523162842,23.600000381469727,0.0,0.0,0.0,0.0,C,813142014065655
Raw,1726560840000,12334721913,18,0.0,-1410596045665278208,0.0,10.014025688171387,-0.039406292140483856,0.0,0,21,0.0,15,202457924459190,22,27.5,-94.89053344726562,0.1975308656692505,16,0.0,0.1396740823984146,1575420030,,,,0,,1,1.2999999523162842,22.5,0.0,0.0,0.0,0.0,C,813142014065655
Raw,1726560840000,12334721913,18,0.0,-1410596045665278208,0.0,10.014025688171387,-0.039406292140483856,0.0,0,26,0.0,15,202457928012966,27,25.0,-422.2221984863281,0.25,16,0.0,0.1767749935388565,1575420030,,,,0,,1,1.2999999523162842,20.0,0.0,0.0,0.0,0.0,C,813142014065655
Raw,1726560840000,12334721913,18,0.0,-1410596045665278208,0.0,10.014025688171387,-0.039406292140483856,0.0,0,31,0.0,15,202457932931611,45,19.700000762939453,9.169635772705078,0.46277016401290894,16,0.0,0.3272247910499573,1575420030,,,,0,,1,1.2999999523162842,14.699999809265137,0.0,0.0,0.0,0.0,C,813142014065655
Raw,1726560840000,12334721913,18,0.0,-1410596045665278208,0.0,10.014025688171387,-0.039406292140483856,0.0,0,13,0.0,47,202443879959126,12,38.099998474121094,-69.0086441040039,0.09127336740493774,25,-28783.84778654427,0.06453939527273178,1561097980,,,,0,,5,1.2999999523162842,33.099998474121094,0.0,0.0,0.0,0.0,C,813142014065655
Raw,1726560840000,12334721913,18,0.0,-1410596045665278208,0.0,10.014025688171387,-0.039406292140483856,0.0,0,12,0.0,239,40439928388879,14,35.400001525878906,460.9333801269531,0.1082063764333725,16,0.0,0.07651273161172867,1601437440,,,,0,,3,1.2999999523162842,30.399999618530273,0.0,0.0,0.0,0.0,C,813142014065655
Raw,1726560840000,12334721913,18,0.0,-1410596045665278208,0.0,10.014025688171387,-0.039406292140483856,0.0,0,26,0.0,3072,17873862,14,35.29999923706055,422.83648681640625,0.10892178863286972,25,-143365.4607344219,0.07701859623193741,1575420030,,,,0,,6,1.2999999523162842,30.299999237060547,0.0,0.0,0.0,0.0,C,813142014065655
Raw,1726560840000,12334721913,18,0.0,-1410596045665278208,0.0,10.014025688171387,-0.039406292140483856,0.0,0,36,0.0,47,202443919165576,15,34.0,-568.9552001953125,0.11890606582164764,25,-99936.26503544836,0.08407847583293915,1561097980,,,,0,,5,1.2999999523162842,29.0,0.0,0.0,0.0,0.0,C,813142014065655
Raw,1726560840000,12334721913,18,0.0,-1410596045665278208,0.0,10.014025688171387,-0.039406292140483856,0.0,0,13,0.0,239,40439934530490,18,30.299999237060547,-154.0069580078125,0.15622803568840027,16,0.0,0.11046884208917618,1600875010,,,,0,,3,1.2999999523162842,25.299999237060547,0.0,0.0,0.0,0.0,C,813142014065655
Raw,1726560840000,12334721913,18,0.0,-1410596045665278208,0.0,10.014025688171387,-0.039406292140483856,0.0,0,37,0.0,51,111924,21,28.100000381469727,395.5490417480469,0.18740276992321014,16,0.0,0.13251249492168427,1561097980,,,,0,,5,1.2999999523162842,23.100000381469727,0.0,0.0,0.0,0.0,C,813142014065655
Raw,1726560840000,12334721913,18,0.0,-1410596045665278208,0.0,10.014025688171387,-0.039406292140483856,0.0,0,14,0.0,239,40439926255217,20,29.200000762939453,-755.5071411132812,0.1707533597946167,16,0.0,0.12073969841003418,1598062460,,,,0,,3,1.2999999523162842,24.200000762939453,0.0,0.0,0.0,0.0,C,813142014065655
Raw,1726560840000,12334721913,18,0.0,-1410596045665278208,0.0,10.014025688171387,-0.039406292140483856,0.0,0,196,0.0,15,202457868333855,24,26.5,-261.2837829589844,0.21633315086364746,16,0.0,0.15296916663646698,1575420030,,,,0,,4,1.2999999523162842,21.5,0.0,0.0,0.0,0.0,C,813142014065655
Raw,1726560840000,12334721913,18,0.0,-1410596045665278208,0.0,10.014025688171387,-0.039406292140483856,0.0,0,3,0.0,239,40439923532271,24,26.600000381469727,-242.4096221923828,0.21433469653129578,16,0.0,0.15155605971813202,1604812540,,,,0,,3,1.2999999523162842,21.600000381469727,0.0,0.0,0.0,0.0,C,813142014065655
Raw,1726560840000,12334721913,18,0.0,-1410596045665278208,0.0,10.014025688171387,-0.039406292140483856,0.0,0,38,0.0,47,202443874488251,25,25.799999237060547,51.40828323364258,0.23113907873630524,16,0.0,0.16343843936920166,1561097980,,,,0,,5,1.2999999523162842,20.799999237060547,0.0,0.0,0.0,0.0,C,813142014065655
Raw,1726560840000,12334721913,18,0.0,-1410596045665278208,0.0,10.014025688171387,-0.039406292140483856,0.0,0,29,0.0,3072,16004844,28,24.600000381469727,97.36106872558594,0.2603082060813904,16,0.0,0.18406392633914948,1575420030,,,,0,,6,1.2999999523162842,19.600000381469727,0.0,0.0,0.0,0.0,C,813142014065655
Raw,1726560840000,12334721913,18,0.0,-1410596045665278208,0.0,10.014025688171387,-0.039406292140483856,0.0,0,29,0.0,51,18447681,26,25.700000762939453,248.12759399414062,0.23337766528129578,16,0.0,0.16502134501934052,1561097980,,,,0,,5,1.2999999523162842,20.700000762939453,0.0,0.0,0.0,0.0,C,813142014065655
Raw,1726560840000,12334721913,18,0.0,-1410596045665278208,0.0,10.014025688171387,-0.039406292140483856,0.0,0,27,0.0,3072,14014470,31,23.399999618530273,-92.39362335205078,0.29536861181259155,16,0.0,0.20885515213012695,1575420030,,,,0,,6,1.2999999523162842,18.399999618530273,0.0,0.0,0.0,0.0,C,813142014065655
Raw,1726560840000,12334721913,18,0.0,-1410596045665278208,0.0,10.014025688171387,-0.039406292140483856,0.0,0,17,0.0,239,40439928678115,28,24.700000762939453,429.8337707519531,0.25767216086387634,16,0.0,0.18219998478889465,1604249980,,,,0,,3,1.2999999523162842,19.700000762939453,0.0,0.0,0.0,0.0,C,813142014065655
Raw,1726560840000,12334721913,18,0.0,-1410596045665278208,0.0,10.014025688171387,-0.039406292140483856,0.0,0,8,0.0,51,16753912,28,24.700000762939453,-14.610932350158691,0.25767216086387634,16,0.0,0.18219998478889465,1561097980,,,,0,,5,1.2999999523162842,19.700000762939453,0.0,0.0,0.0,0.0,C,813142014065655
Raw,1726560840000,12334721913,18,0.0,-1410596045665278208,0.0,10.014025688171387,-0.039406292140483856,0.0,0,39,0.0,47,202443872754135,29,24.299999237060547,170.71859741210938,0.2684636116027832,16,0.0,0.18983061611652374,1561097980,,,,0,,5,1.2999999523162842,19.299999237060547,0.0,0.0,0.0,0.0,C,813142014065655
Raw,1726560840000,12334721913,18,0.0,-1410596045665278208,0.0,10.014025688171387,-0.039406292140483856,0.0,0,2,0.0,239,40439926474731,47,19.200000762939453,-100.63155364990234,0.4959333539009094,16,0.0,0.35067448019981384,1599750020,,,,0,,3,1.2999999523162842,14.199999809265137,0.0,0.0,0.0,0.0,C,813142014065655
Raw,1726560840000,12334721913,18,0.0,-1410596045665278208,0.0,10.014025688171387,-0.039406292140483856,0.0,0,30,0.0,47,202443915190009,35,22.200000762939453,385.5525817871094,0.33802053332328796,16,0.0,0.23901431262493134,1561097980,,,,0,,5,1.2999999523162842,17.200000762939453,0.0,0.0,0.0,0.0,C,813142014065655
Raw,1726560840000,12334721913,18,0.0,-1410596045665278208,0.0,10.014025688171387,-0.039406292140483856,0.0,0,19,0.0,47,202443915906399,41,20.600000381469727,-304.3443908691406,0.4109138548374176,16,0.0,0.2905571758747101,1561097980,,,,0,,5,1.2999999523162842,15.600000381469727,0.0,0.0,0.0,0.0,C,813142014065655
Raw,1726560840000,12334721913,18,0.0,-1410596045665278208,0.0,10.014025688171387,-0.039406292140483856,0.0,0,24,0.0,239,40439921802223,47,19.299999237060547,656.3544311523438,0.4890214502811432,16,0.0,0.34578707814216614,1603124990,,,,0,,3,1.2999999523162842,14.300000190734863,0.0,0.0,0.0,0.0,C,813142014065655
Raw,1726560841000,13334721913,18,0.0,-1410596045665278208,0.0,10.014025688171387,0.07011839747428894,0.0,0,32,0.0,15,202458921502525,18,30.399999618530273,170.87582397460938,0.15500031411647797,16,0.0,0.1096007227897644,1575420030,,,,0,,1,1.2999999523162842,25.399999618530273,0.0,0.0,0.0,0.0,C,813143130832592
Raw,1726560841000,13334721913,18,0.0,-1410596045665278208,0.0,10.014025688171387,0.07011839747428894,0.0,0,10,0.0,15,202458928093664,19,29.899999618530273,168.792236328125,0.16128772497177124,16,0.0,0.11404655128717422,1575420030,,,,0,,1,1.2999999523162842,24.899999618530273,0.0,0.0,0.0,0.0,C,813143130832592
Raw,1726560841000,13334721913,18,0.0,-1410596045665278208,0.0,10.014025688171387,0.07011839747428894,0.0,0,28,0.0,15,202458928664025,20,28.799999237060547,436.36273193359375,0.17654122412204742,16,0.0,0.12483230233192444,1575420030,,,,0,,1,1.2999999523162842,23.799999237060547,0.0,0.0,0.0,0.0,C,813143130832592
Raw,1726560841000,13334721913,18,0.0,-1410596045665278208,0.0,10.014025688171387,0.07011839747428894,0.0,0,21,0.0,15,202458924459512,22,27.5,-93.88221740722656,0.1975308656692505,16,0.0,0.1396740823984146,1575420030,,,,0,,1,1.2999999523162842,22.5,0.0,0.0,0.0,0.0,C,813143130832592
Raw,1726560841000,13334721913,18,0.0,-1410596045665278208,0.0,10.014025688171387,0.07011839747428894,0.0,0,26,0.0,15,202458928014341,27,25.0,-421.8286437988281,0.25,16,0.0,0.1767749935388565,1575420030,,,,0,,1,1.2999999523162842,20.0,0.0,0.0,0.0,0.0,C,813143130832592
Raw,1726560841000,13334721913,18,0.0,-1410596045665278208,0.0,10.014025688171387,0.07011839747428894,0.0,0,8,0.0,15,202458915292578,43,20.100000381469727,110.42958068847656,0.43857723474502563,16,0.0,0.3101179599761963,1575420030,,,,0,,1,1.2999999523162842,15.100000381469727,0.0,0.0,0.0,0.0,C,813143130832592
Raw,1726560841000,13334721913,18,0.0,-1410596045665278208,0.0,10.014025688171387,0.07011839747428894,0.0,0,31,0.0,15,202458932931566,44,19.899999618530273,8.798563003540039,0.4504301846027374,16,0.0,0.3184991776943207,1575420030,,,,0,,1,1.2999999523162842,14.899999618530273,0.0,0.0,0.0,0.0,C,813143130832592
Raw,1726560841000,13334721913,18,0.0,-1410596045665278208,0.0,10.014025688171387,0.07011839747428894,0.0,0,13,0.0,47,202444879959365,12,38.29999923706055,-68.84587860107422,0.09018027782440186,25,-28852.773545727367,0.0637664720416069,1561097980,,,,0,,5,1.2999999523162842,33.29999923706055,0.0,0.0,0.0,0.0,C,813143130832592
Raw,1726560841000,13334721913,18,0.0,-1410596045665278208,0.0,10.014025688171387,0.07011839747428894,0.0,0,26,0.0,3072,17872428,14,35.29999923706055,423.0836486816406,0.10892178863286972,25,-142942.4834593888,0.07701859623193741,1575420030,,,,0,,6,1.2999999523162842,30.299999237060547,0.0,0.0,0.0,0.0,C,813143130832592
Raw,1726560841000,13334721913,18,0.0,-1410596045665278208,0.0,10.014025688171387,0.07011839747428894,0.0,0,12,0.0,239,40440928387376,14,35.5,461.2530822753906,0.10749798268079758,16,0.0,0.07601182162761688,1601437440,,,,0,,3,1.2999999523162842,30.5,0.0,0.0,0.0,0.0,C,813143130832592
Raw,1726560841000,13334721913,18,0.0,-1410596045665278208,0.0,10.014025688171387,0.07011839747428894,0.0,0,36,0.0,47,202444919167500,15,34.20000076293945,-568.7998657226562,0.11728279292583466,25,-100505.14309448426,0.08293066173791885,1561097980,,,,0,,5,1.2999999523162842,29.200000762939453,0.0,0.0,0.0,0.0,C,813143130832592
Raw,1726560841000,13334721913,18,0.0,-1410596045665278208,0.0,10.014025688171387,0.07011839747428894,0.0,0,13,0.0,239,40440934531004,18,30.5,-153.86941528320312,0.15378700196743011,16,0.0,0.10874278843402863,1600875010,,,,0,,3,1.2999999523162842,25.5,0.0,0.0,0.0,0.0,C,813143130832592
Raw,1726560841000,13334721913,18,0.0,-1410596045665278208,0.0,10.014025688171387,0.07011839747428894,0.0,0,37,0.0,51,110611,21,28.200000762939453,395.5404357910156,0.18579070270061493,16,0.0,0.1313726007938385,1561097980,,,,0,,5,1.2999999523162842,23.200000762939453,0.0,0.0,0.0,0.0,C,813143130832592
Raw,1726560841000,13334721913,18,0.0,-1410596045665278208,0.0,10.014025688171387,0.07011839747428894,0.0,0,14,0.0,239,40440926257902,20,29.100000381469727,-755.4815063476562,0.17217335104942322,16,0.0,0.12174377590417862,1598062460,,,,0,,3,1.2999999523162842,24.100000381469727,0.0,0.0,0.0,0.0,C,813143130832592
Raw,1726560841000,13334721913,18,0.0,-1410596045665278208,0.0,10.014025688171387,0.07011839747428894,0.0,0,196,0.0,15,202458868334758,24,26.600000381469727,-261.59234619140625,0.21433469653129578,16,0.0,0.15155605971813202,1575420030,,,,0,,4,1.2999999523162842,21.600000381469727,0.0,0.0,0.0,0.0,C,813143130832592
Raw,1726560841000,13334721913,18,0.0,-1410596045665278208,0.0,10.014025688171387,0.07011839747428894,0.0,0,27,0.0,3072,14014774,31,23.399999618530273,-92.0277328491211,0.29536861181259155,16,0.0,0.20885515213012695,1575420030,,,,0,,6,1.2999999523162842,18.399999618530273,0.0,0.0,0.0,0.0,C,813143130832592
Raw,1726560841000,13334721913,18,0.0,-1410596045665278208,0.0,10.014025688171387,0.07011839747428894,0.0,0,38,0.0,47,202444874488076,25,26.100000381469727,50.452247619628906,0.22461310029029846,16,0.0,0.1588239222764969,1561097980,,,,0,,5,1.2999999523162842,21.100000381469727,0.0,0.0,0.0,0.0,C,813143130832592
Raw,1726560841000,13334721913,18,0.0,-1410596045665278208,0.0,10.014025688171387,0.07011839747428894,0.0,0,3,0.0,239,40440923533034,24,26.600000381469727,-242.20545959472656,0.21433469653129578,16,0.0,0.15155605971813202,1604812540,,,,0,,3,1.2999999523162842,21.600000381469727,0.0,0.0,0.0,0.0,C,813143130832592
Raw,1726560841000,13334721913,18,0.0,-1410596045665278208,0.0,10.014025688171387,0.07011839747428894,0.0,0,29,0.0,3072,16004550,26,25.600000381469727,96.76500701904297,0.235648974776268,16,0.0,0.16662739217281342,1575420030,,,,0,,6,1.2999999523162842,20.600000381469727,0.0,0.0,0.0,0.0,C,813143130832592
Raw,1726560841000,13334721913,18,0.0,-1410596045665278208,0.0,10.014025688171387,0.07011839747428894,0.0,0,29,0.0,51,18446867,26,25.700000762939453,248.3177947998047,0.23337766528129578,16,0.0,0.16502134501934052,1561097980,,,,0,,5,1.2999999523162842,20.700000762939453,0.0,0.0,0.0,0.0,C,813143130832592
Raw,1726560841000,13334721913,18,0.0,-1410596045665278208,0.0,10.014025688171387,0.07011839747428894,0.0,0,2,0.0,239,40440926475097,30,23.799999237060547,-101.11557006835938,0.28293347358703613,16,0.0,0.20006226003170013,1599750020,,,,0,,3,1.2999999523162842,18.799999237060547,0.0,0.0,0.0,0.0,C,813143130832592
Raw,1726560841000,13334721913,18,0.0,-1410596045665278208,0.0,10.014025688171387,0.07011839747428894,0.0,0,17,0.0,239,40440928676619,27,24.899999618530273,429.4903564453125,0.252518892288208,16,0.0,0.17855611443519592,1604249980,,,,0,,3,1.2999999523162842,19.899999618530273,0.0,0.0,0.0,0.0,C,813143130832592
Raw,1726560841000,13334721913,18,0.0,-1410596045665278208,0.0,10.014025688171387,0.07011839747428894,0.0,0,8,0.0,51,16753922,28,24.799999237060547,-14.858848571777344,0.25507602095603943,16,0.0,0.18036425113677979,1561097980,,,,0,,5,1.2999999523162842,19.799999237060547,0.0,0.0,0.0,0.0,C,813143130832592
Raw,1726560841000,13334721913,18,0.0,-1410596045665278208,0.0,10.014025688171387,0.07011839747428894,0.0,0,39,0.0,47,202444872753580,28,24.600000381469727,169.96714782714844,0.2603082060813904,16,0.0,0.18406392633914948,1561097980,,,,0,,5,1.2999999523162842,19.600000381469727,0.0,0.0,0.0,0.0,C,813143130832592
Raw,1726560841000,13334721913,18,0.0,-1410596045665278208,0.0,10.014025688171387,0.07011839747428894,0.0,0,19,0.0,47,202444915907375,41,20.600000381469727,-304.521728515625,0.4109138548374176,16,0.0,0.2905571758747101,1561097980,,,,0,,5,1.2999999523162842,15.600000381469727,0.0,0.0,0.0,0.0,C,813143130832592
Raw,1726560841000,13334721913,18,0.0,-1410596045665278208,0.0,10.014025688171387,0.07011839747428894,0.0,0,30,0.0,47,202444915188670,35,22.200000762939453,385.88458251953125,0.33802053332328796,16,0.0,0.23901431262493134,1561097980,,,,0,,5,1.2999999523162842,17.200000762939453,0.0,0.0,0.0,0.0,C,813143130832592
Raw,1726560841000,13334721913,18,0.0,-1410596045665278208,0.0,10.014025688171387,0.07011839747428894,0.0,0,24,0.0,239,40440921799778,47,19.299999237060547,656.1761474609375,0.4890214502811432,16,0.0,0.34578707814216614,1603124990,,,,0,,3,1.2999999523162842,14.300000190734863,0.0,0.0,0.0,0.0,C,813143130832592
Raw,1726560842000,14334721913,18,0.0,-1410596045665278208,0.0,10.014025688171387,-0.5029683709144592,0.0,0,32,0.0,15,202459921501971,18,30.399999618530273,169.9084014892578,0.15500031411647797,16,0.0,0.1096007227897644,1575420030,,,,0,,1,1.2999999523162842,25.399999618530273,0.0,0.0,0.0,0.0,C,813144116221291
Raw,1726560842000,14334721913,18,0.0,-1410596045665278208,0.0,10.014025688171387,-0.5029683709144592,0.0,0,28,0.0,15,202459928662609,20,28.899999618530273,435.6488342285156,0.1750669777393341,16,0.0,0.12378986179828644,1575420030,,,,0,,1,1.2999999523162842,23.899999618530273,0.0,0.0,0.0,0.0,C,813144116221291
Raw,1726560842000,14334721913,18,0.0,-1410596045665278208,0.0,10.014025688171387,-0.5029683709144592,0.0,0,10,0.0,15,202459928093151,19,29.799999237060547,168.31207275390625,0.16259105503559113,16,0.0,0.11496813595294952,1575420030,,,,0,,1,1.2999999523162842,24.799999237060547,0.0,0.0,0.0,0.0,C,813144116221291
Raw,1726560842000,14334721913,18,0.0,-1410596045665278208,0.0,10.014025688171387,-0.5029683709144592,0.0,0,21,0.0,15,202459924459823,22,27.5,-93.309814453125,0.1975308656692505,16,0.0,0.1396740823984146,1575420030,,,,0,,1,1.2999999523162842,22.5,0.0,0.0,0.0,0.0,C,813144116221291
Raw,1726560842000,14334721913,18,0.0,-1410596045665278208,0.0,10.014025688171387,-0.5029683709144592,0.0,0,26,0.0,15,202459928015710,27,25.0,-423.29547119140625,0.25,16,0.0,0.1767749935388565,1575420030,,,,0,,1,1.2999999523162842,20.0,0.0,0.0,0.0,0.0,C,813144116221291
Raw,1726560842000,14334721913,18,0.0,-1410596045665278208,0.0,10.014025688171387,-0.5029683709144592,0.0,0,31,0.0,15,202459932931667,44,19.899999618530273,9.515883445739746,0.4504301846027374,16,0.0,0.3184991776943207,1575420030,,,,0,,1,1.2999999523162842,14.899999618530273,0.0,0.0,0.0,0.0,C,813144116221291
Raw,1726560842000,14334721913,18,0.0,-1410596045665278208,0.0,10.014025688171387,-0.5029683709144592,0.0,0,16,0.0,15,202459920294765,46,19.5,-574.7536010742188,0.4756242632865906,16,0.0,0.3363139033317566,1575420030,,,,0,,1,1.2999999523162842,14.5,0.0,0.0,0.0,0.0,C,813144116221291
Raw,1726560842000,14334721913,18,0.0,-1410596045665278208,0.0,10.014025688171387,-0.5029683709144592,0.0,0,13,0.0,47,202445879959587,12,38.599998474121094,-68.91172790527344,0.08857710659503937,25,-28921.689948892017,0.06263287365436554,1561097980,,,,0,,5,1.2999999523162842,33.599998474121094,0.0,0.0,0.0,0.0,C,813144116221291
Raw,1726560842000,14334721913,18,0.0,-1410596045665278208,0.0,10.014025688171387,-0.5029683709144592,0.0,0,26,0.0,3072,17871052,14,35.5,422.9623718261719,0.10749798268079758,25,-142519.51612147427,0.07601182162761688,1575420030,,,,0,,6,1.2999999523162842,30.5,0.0,0.0,0.0,0.0,C,813144116221291
Raw,1726560842000,14334721913,18,0.0,-1410596045665278208,0.0,10.014025688171387,-0.5029683709144592,0.0,0,12,0.0,239,40441928385829,14,35.5,461.2167053222656,0.10749798268079758,16,0.0,0.07601182162761688,1601437440,,,,0,,3,1.2999999523162842,30.5,0.0,0.0,0.0,0.0,C,813144116221291
Raw,1726560842000,14334721913,18,0.0,-1410596045665278208,0.0,10.014025688171387,-0.5029683709144592,0.0,0,36,0.0,47,202445919169378,14,34.400001525878906,-568.870849609375,0.11569254100322723,25,-101074.01635343535,0.08180619776248932,1561097980,,,,0,,5,1.2999999523162842,29.399999618530273,0.0,0.0,0.0,0.0,C,813144116221291
Raw,1726560842000,14334721913,18,0.0,-1410596045665278208,0.0,10.014025688171387,-0.5029683709144592,0.0,0,13,0.0,239,40441934531567,18,30.5,-153.33863830566406,0.15378700196743011,16,0.0,0.10874278843402863,1600875010,,,,0,,3,1.2999999523162842,25.5,0.0,0.0,0.0,0.0,C,813144116221291
Raw,1726560842000,14334721913,18,0.0,-1410596045665278208,0.0,10.014025688171387,-0.5029683709144592,0.0,0,37,0.0,51,109314,21,28.399999618530273,395.5682678222656,0.18262839317321777,16,0.0,0.12913653254508972,1561097980,,,,0,,5,1.2999999523162842,23.399999618530273,0.0,0.0,0.0,0.0,C,813144116221291
Raw,1726560842000,14334721913,18,0.0,-1410596045665278208,0.0,10.014025688171387,-0.5029683709144592,0.0,0,14,0.0,239,40441926260334,20,29.0,-756.353515625,0.1736111044883728,16,0.0,0.12276041507720947,1598062460,,,,0,,3,1.2999999523162842,24.0,0.0,0.0,0.0,0.0,C,813144116221291
Raw,1726560842000,14334721913,18,0.0,-1410596045665278208,0.0,10.014025688171387,-0.5029683709144592,0.0,0,27,0.0,3072,14015075,25,26.100000381469727,-91.19047546386719,0.22461310029029846,16,0.0,0.1588239222764969,1575420030,,,,0,,6,1.2999999523162842,21.100000381469727,0.0,0.0,0.0,0.0,C,813144116221291
Raw,1726560842000,14334721913,18,0.0,-1410596045665278208,0.0,10.014025688171387,-0.5029683709144592,0.0,0,29,0.0,3072,16004202,25,26.0,98.08206176757812,0.22675736248493195,16,0.0,0.16034013032913208,1575420030,,,,0,,6,1.2999999523162842,21.0,0.0,0.0,0.0,0.0,C,813144116221291
Raw,1726560842000,14334721913,18,0.0,-1410596045665278208,0.0,10.014025688171387,-0.5029683709144592,0.0,0,38,0.0,47,202445874487930,24,26.299999237060547,51.18861770629883,0.22041483223438263,16,0.0,0.15585532784461975,1561097980,,,,0,,5,1.2999999523162842,21.299999237060547,0.0,0.0,0.0,0.0,C,813144116221291
Raw,1726560842000,14334721913,18,0.0,-1410596045665278208,0.0,10.014025688171387,-0.5029683709144592,0.0,0,196,0.0,15,202459868335666,24,26.799999237060547,-262.28277587890625,0.21042001247406006,16,0.0,0.1487879902124405,1575420030,,,,0,,4,1.2999999523162842,21.799999237060547,0.0,0.0,0.0,0.0,C,813144116221291
Raw,1726560842000,14334721913,18,0.0,-1410596045665278208,0.0,10.014025688171387,-0.5029683709144592,0.0,0,3,0.0,239,40441923533845,24,26.600000381469727,-242.3307647705078,0.21433469653129578,16,0.0,0.15155605971813202,1604812540,,,,0,,3,1.2999999523162842,21.600000381469727,0.0,0.0,0.0,0.0,C,813144116221291
Raw,1726560842000,14334721913,18,0.0,-1410596045665278208,0.0,10.014025688171387,-0.5029683709144592,0.0,0,2,0.0,239,40441926475432,28,24.700000762939453,-102.29873657226562,0.25767216086387634,16,0.0,0.18219998478889465,1599750020,,,,0,,3,1.2999999523162842,19.700000762939453,0.0,0.0,0.0,0.0,C,813144116221291
Raw,1726560842000,14334721913,18,0.0,-1410596045665278208,0.0,10.014025688171387,-0.5029683709144592,0.0,0,29,0.0,51,18446034,26,25.700000762939453,249.05650329589844,0.23337766528129578,16,0.0,0.16502134501934052,1561097980,,,,0,,5,1.2999999523162842,20.700000762939453,0.0,0.0,0.0,0.0,C,813144116221291
Raw,1726560842000,14334721913,18,0.0,-1410596045665278208,0.0,10.014025688171387,-0.5029683709144592,0.0,0,17,0.0,239,40441928675193,27,24.899999618530273,429.16705322265625,0.252518892288208,16,0.0,0.17855611443519592,1604249980,,,,0,,3,1.2999999523162842,19.899999618530273,0.0,0.0,0.0,0.0,C,813144116221291
Raw,1726560842000,14334721913,18,0.0,-1410596045665278208,0.0,10.014025688171387,-0.5029683709144592,0.0,0,39,0.0,47,202445872752988,28,24.799999237060547,169.7034912109375,0.25507602095603943,16,0.0,0.18036425113677979,1561097980,,,,0,,5,1.2999999523162842,19.799999237060547,0.0,0.0,0.0,0.0,C,813144116221291
Raw,1726560842000,14334721913,18,0.0,-1410596045665278208,0.0,10.014025688171387,-0.5029683709144592,0.0,0,8,0.0,51,16754011,27,25.0,-15.058920860290527,0.25,16,0.0,0.1767749935388565,1561097980,,,,0,,5,1.2999999523162842,20.0,0.0,0.0,0.0,0.0,C,813144116221291
Raw,1726560842000,14334721913,18,0.0,-1410596045665278208,0.0,10.014025688171387,-0.5029683709144592,0.0,0,30,0.0,47,202445915187426,35,22.200000762939453,385.8480224609375,0.33802053332328796,16,0.0,0.23901431262493134,1561097980,,,,0,,5,1.2999999523162842,17.200000762939453,0.0,0.0,0.0,0.0,C,813144116221291
Raw,1726560842000,14334721913,18,0.0,-1410596045665278208,0.0,10.014025688171387,-0.5029683709144592,0.0,0,19,0.0,47,202445915908325,35,22.0,-304.9676818847656,0.34602075815200806,16,0.0,0.2446712851524353,1561097980,,,,0,,5,1.2999999523162842,17.0,0.0,0.0,0.0,0.0,C,813144116221291
Raw,1726560842000,14334721913,18,0.0,-1410596045665278208,0.0,10.014025688171387,-0.5029683709144592,0.0,0,24,0.0,239,40441921797537,46,19.5,655.58056640625,0.4756242632865906,16,0.0,0.3363139033317566,1603124990,,,,0,,3,1.2999999523162842,14.5,0.0,0.0,0.0,0.0,C,813144116221291
Raw,1726560843000,15334721913,18,0.0,-1410596045665278208,0.0,10.014025688171387,-0.6398002505302429,0.0,0,32,0.0,15,202460921501419,18,30.399999618530273,169.46046447753906,0.15500031411647797,16,0.0,0.1096007227897644,1575420030,,,,0,,1,1.2999999523162842,25.399999618530273,0.0,0.0,0.0,0.0,C,813144974975169
