# 
# Header Description:
# 
# Version: v3.0.6.4 Platform: 14 Manufacturer: samsung Model: SM-M346B
# 
# Raw,utcTimeMillis,TimeNanos,LeapSecond,TimeUncertaintyNanos,FullBiasNanos,BiasNanos,BiasUncertaintyNanos,DriftNanosPerSecond,DriftUncertaintyNanosPerSecond,HardwareClockDiscontinuityCount,Svid,TimeOffsetNanos,State,ReceivedSvTimeNanos,ReceivedSvTimeUncertaintyNanos,Cn0DbHz,PseudorangeRateMetersPerSecond,PseudorangeRateUncertaintyMetersPerSecond,AccumulatedDeltaRangeState,AccumulatedDeltaRangeMeters,AccumulatedDeltaRangeUncertaintyMeters,CarrierFrequencyHz,CarrierCycles,CarrierPhase,CarrierPhaseUncertainty,MultipathIndicator,SnrInDb,ConstellationType,AgcDb,BasebandCn0DbHz,FullInterSignalBiasNanos,FullInterSignalBiasUncertaintyNanos,SatelliteInterSignalBiasNanos,SatelliteInterSignalBiasUncertaintyNanos,CodeType,ChipsetElapsedRealtimeNanos
# 
# UncalAccel,utcTimeMillis,elapsedRealtimeNanos,UncalAccelXMps2,UncalAccelYMps2,UncalAccelZMps2,BiasXMps2,BiasYMps2,BiasZMps2
# 
# Accel,utcTimeMillis,elapsedRealtimeNanos,AccelXMps2,AccelYMps2,AccelZMps2
# 
# UncalGyro,utcTimeMillis,elapsedRealtimeNanos,UncalGyroXRadPerSec,UncalGyroYRadPerSec,UncalGyroZRadPerSec,DriftXRadPerSec,DriftYRadPerSec,DriftZRadPerSec
# 
# Gyro,utcTimeMillis,elapsedRealtimeNanos,GyroXRadPerSec,GyroYRadPerSec,GyroZRadPerSec
# 
# UncalMag,utcTimeMillis,elapsedRealtimeNanos,UncalMagXMicroT,UncalMagYMicroT,UncalMagZMicroT,BiasXMicroT,BiasYMicroT,BiasZMicroT
# 
# Mag,utcTimeMillis,elapsedRealtimeNanos,MagXMicroT,MagYMicroT,MagZMicroT
# 
# OrientationDeg,utcTimeMillis,elapsedRealtimeNanos,yawDeg,rollDeg,pitchDeg
# 
# Fix,Provider,LatitudeDegrees,LongitudeDegrees,AltitudeMeters,SpeedMps,AccuracyMeters,BearingDegrees,UnixTimeMillis,SpeedAccuracyMps,BearingAccuracyDegrees,elapsedRealtimeNanos,VerticalAccuracyMeters,MockLocation,NumberOfUsedSignals,VerticalSpeedAccuracyMps,SolutionType
# 
# Nav,Svid,Type,Status,MessageId,Sub-messageId,Data(Bytes)
# 
# Status,UnixTimeMillis,SignalCount,SignalIndex,ConstellationType,Svid,CarrierFrequencyHz,Cn0DbHz,AzimuthDegrees,ElevationDegrees,UsedInFix,HasAlmanacData,HasEphemerisData,BasebandCn0DbHz
# 
# Agc,utcTimeMillis,TimeNanos,LeapSecond,TimeUncertaintyNanos,FullBiasNanos,BiasNanos,BiasUncertaintyNanos,DriftNanosPerSecond,DriftUncertaintyNanosPerSecond,HardwareClockDiscontinuityCount,AgcDb,CarrierFrequencyHz,ConstellationType
# 
Fix,FLP,12.9370839000,77.5409975000,792.0999755859375,0.05480441,3.206,,1726561817956,0.08060592,,683055650355636,1.0227035,0,,,
Status,,36,0,1,31,1575420030,36.70,322.7,73.7,1,0,1,31.7
Status,,36,1,1,26,1575420030,36.30,141.5,49.2,1,0,1,31.3
Status,,36,2,1,28,1575420030,35.70,20.6,44.3,1,0,1,30.7
Status,,36,3,1,10,1575420030,28.20,111.2,41.1,1,0,1,23.2
Status,,36,4,1,21,1575420030,36.60,272.9,40.6,1,0,1,31.6
Status,,36,5,1,2,1575420030,40.80,290.8,30.5,1,0,1,35.8
Status,,36,6,1,16,1575420030,23.80,176.7,24.9,1,0,1,18.8
Status,,36,7,1,32,1575420030,27.40,46.2,22.9,1,0,1,22.4
Status,,36,8,1,27,1575420030,17.60,194.0,8.4,1,0,1,12.6
Status,,36,9,3,13,1600875010,32.90,84.5,66.2,1,0,1,27.9
Status,,36,10,3,14,1598062460,35.80,186.4,33.7,1,0,1,30.8
Status,,36,11,3,17,1604249980,22.40,228.8,27.8,0,0,1,17.4
Status,,36,12,3,12,1601437440,33.10,37.5,27.1,0,0,1,28.1
Status,,36,13,3,18,1600312450,33.80,282.6,24.0,1,0,1,28.8
Status,,36,14,6,33,1575420030,32.90,265.9,54.1,1,0,1,27.9
Status,,36,15,6,26,1575420030,28.90,186.2,41.5,1,0,1,23.9
Status,,36,16,6,21,1575420030,33.50,150.8,39.5,1,0,1,28.5
Status,,36,17,6,29,1575420030,34.80,7.6,37.8,1,0,1,29.8
Status,,36,18,6,27,1575420030,29.80,82.4,33.6,1,0,1,24.8
Status,,36,19,6,19,1575420030,22.50,312.5,29.8,1,0,1,17.5
Status,,36,20,5,2,1561097980,36.30,148.2,75.2,0,0,1,31.3
Status,,36,21,5,13,1561097980,39.40,107.6,66.9,1,0,1,34.4
Status,,36,22,5,9,1561097980,38.50,3.4,62.0,1,0,1,33.5
Status,,36,23,5,8,1561097980,27.60,121.7,52.5,1,0,1,22.6
Status,,36,24,5,38,1561097980,29.00,131.0,39.1,1,0,1,24.0
Status,,36,25,5,36,1561097980,34.60,205.3,34.6,1,0,1,29.6
Status,,36,26,5,39,1561097980,31.60,25.6,34.5,1,0,1,26.6
Status,,36,27,5,37,1561097980,41.10,43.2,30.8,1,0,1,36.1
Status,,36,28,5,19,1561097980,27.60,332.0,24.9,1,0,1,22.6
Status,,36,29,5,10,1561097980,22.00,152.3,21.8,1,0,1,17.0
Status,,36,30,5,7,1561097980,22.50,139.8,20.2,1,0,1,17.5
Status,,36,31,4,196,1575420030,24.20,86.3,31.9,1,0,1,19.2
Status,,36,32,4,199,1575420030,19.60,100.6,31.8,1,0,1,14.6
Status,,36,33,5,29,,22.80,234.5,22.8,0,0,1,17.8
Status,,36,34,5,30,,12.30,179.8,13.5,0,1,1,7.3
Status,,36,35,3,3,,22.20,341.4,19.5,0,1,1,17.2
Raw,1726561819000,96279064879,18,0.0,-1410596940720935168,0.0,10.024064064025879,-18.72813606262207,0.0,0,2,0.0,15,203436922588695,10,40.79999923706055,-204.59222412109375,0.07802503556013107,25,-29249.12810617018,0.05517150089144707,1575420030,,,,0,,1,1.2999999523162842,35.79999923706055,0.0,0.0,0.0,0.0,C,814122148453684
Raw,1726561819000,96279064879,18,0.0,-1410596940720935168,0.0,10.024064064025879,-18.72813606262207,0.0,0,21,0.0,15,203436924636208,13,36.599998474121094,-20.282360076904297,0.10014420747756958,25,-26276.046318752073,0.07081197202205658,1575420030,,,,0,,1,1.2999999523162842,31.600000381469727,0.0,0.0,0.0,0.0,C,814122148453684
Raw,1726561819000,96279064879,18,0.0,-1410596940720935168,0.0,10.024064064025879,-18.72813606262207,0.0,0,31,0.0,15,203436932708370,13,36.599998474121094,117.37113952636719,0.10014420747756958,25,1505.74266563938,0.07081197202205658,1575420030,,,,0,,1,1.2999999523162842,31.600000381469727,0.0,0.0,0.0,0.0,C,814122148453684
Raw,1726561819000,96279064879,18,0.0,-1410596940720935168,0.0,10.024064064025879,-18.72813606262207,0.0,0,28,0.0,15,203436927151602,13,35.70000076293945,482.3965759277344,0.10610191524028778,25,40577.488704214105,0.07502466440200806,1575420030,,,,0,,1,1.2999999523162842,30.700000762939453,0.0,0.0,0.0,0.0,C,814122148453684
Raw,1726561819000,96279064879,18,0.0,-1410596940720935168,0.0,10.024064064025879,-18.72813606262207,0.0,0,26,0.0,15,203436929290507,13,36.20000076293945,-362.2142028808594,0.1027284637093544,25,-42512.418373267945,0.07263929396867752,1575420030,,,,0,,1,1.2999999523162842,31.200000762939453,0.0,0.0,0.0,0.0,C,814122148453684
Raw,1726561819000,96279064879,18,0.0,-1410596940720935168,0.0,10.024064064025879,-18.72813606262207,0.0,0,10,0.0,15,203436927390169,21,28.100000381469727,256.2019348144531,0.18740276992321014,16,0.0,0.13251249492168427,1575420030,,,,0,,1,1.2999999523162842,23.100000381469727,0.0,0.0,0.0,0.0,C,814122148453684
Raw,1726561819000,96279064879,18,0.0,-1410596940720935168,0.0,10.024064064025879,-18.72813606262207,0.0,0,32,0.0,15,203436920980994,23,27.299999237060547,144.26560974121094,0.20108991861343384,16,0.0,0.14219067990779877,1575420030,,,,0,,1,1.2999999523162842,22.299999237060547,0.0,0.0,0.0,0.0,C,814122148453684
Raw,1726561819000,96279064879,18,0.0,-1410596940720935168,0.0,10.024064064025879,-18.72813606262207,0.0,0,16,0.0,15,203436922199950,30,23.700000762939453,-596.8937377929688,0.28596755862236023,16,0.0,0.20220765471458435,1575420030,,,,0,,1,1.2999999523162842,18.700000762939453,0.0,0.0,0.0,0.0,C,814122148453684
Raw,1726561819000,96279064879,18,0.0,-1410596940720935168,0.0,10.024064064025879,-18.72813606262207,0.0,0,27,0.0,15,203436916068189,57,17.600000381469727,36.6537971496582,0.6298815608024597,16,0.0,0.4453892409801483,1575420030,,,,0,,1,1.2999999523162842,12.600000381469727,0.0,0.0,0.0,0.0,C,814122148453684
Raw,1726561819000,96279064879,18,0.0,-1410596940720935168,0.0,10.024064064025879,-18.72813606262207,0.0,0,37,0.0,47,203422918709640,10,41.099998474121094,455.58917236328125,0.07673361152410507,25,-190705.5251800937,0.05425833538174629,1561097980,,,,0,,5,1.2999999523162842,36.099998474121094,0.0,0.0,0.0,0.0,C,814122148453684
Raw,1726561819000,96279064879,18,0.0,-1410596940720935168,0.0,10.024064064025879,-18.72813606262207,0.0,0,13,0.0,47,203422880131826,11,39.400001525878906,-42.1226806640625,0.08450513333082199,25,-11636.012662772322,0.059753578156232834,1561097980,,,,0,,5,1.2999999523162842,34.400001525878906,0.0,0.0,0.0,0.0,C,814122148453684
Raw,1726561819000,96279064879,18,0.0,-1410596940720935168,0.0,10.024064064025879,-18.72813606262207,0.0,0,9,0.0,47,203422876333970,12,38.5,140.97589111328125,0.08910670876502991,25,6024.018568926258,0.06300735473632812,1561097980,,,,0,,5,1.2999999523162842,33.5,0.0,0.0,0.0,0.0,C,814122148453684
Raw,1726561819000,96279064879,18,0.0,-1410596940720935168,0.0,10.024064064025879,-18.72813606262207,0.0,0,2,0.0,305,837457,13,36.29999923706055,-2.6276872158050537,0.10207311064004898,19,-1750688.4772019298,0.16819563508033752,1561097980,,,,0,,5,1.2999999523162842,31.299999237060547,0.0,0.0,0.0,0.0,C,814122148453684
Raw,1726561819000,96279064879,18,0.0,-1410596940720935168,0.0,10.024064064025879,-18.72813606262207,0.0,0,14,0.0,239,41418928652687,13,35.79999923706055,-714.05224609375,0.10541407018899918,16,0.0,0.07453829050064087,1598062460,,,,0,,3,1.2999999523162842,30.799999237060547,0.0,0.0,0.0,0.0,C,814122148453684
Raw,1726561819000,96279064879,18,0.0,-1410596940720935168,0.0,10.024064064025879,-18.72813606262207,0.0,0,29,0.0,3072,15720804,14,34.79999923706055,69.92105865478516,0.11260754615068436,25,-4273.961709266761,0.07962479442358017,1575420030,,,,0,,6,1.2999999523162842,29.799999237060547,0.0,0.0,0.0,0.0,C,814122148453684
Raw,1726561819000,96279064879,18,0.0,-1410596940720935168,0.0,10.024064064025879,-18.72813606262207,0.0,0,36,0.0,47,203422920964424,14,34.599998474121094,-536.2063598632812,0.11413440108299255,25,-59075.53963476894,0.08070443570613861,1561097980,,,,0,,5,1.2999999523162842,29.600000381469727,0.0,0.0,0.0,0.0,C,814122148453684
Raw,1726561819000,96279064879,18,0.0,-1410596940720935168,0.0,10.024064064025879,-18.72813606262207,0.0,0,21,0.0,3072,15600160,15,33.5,-391.55535888671875,0.12311480194330215,25,-48622.31290983362,0.08705447614192963,1575420030,,,,0,,6,1.2999999523162842,28.5,0.0,0.0,0.0,0.0,C,814122148453684
Raw,1726561819000,96279064879,18,0.0,-1410596940720935168,0.0,10.024064064025879,-18.72813606262207,0.0,0,18,0.0,239,41418925911467,15,33.79999923706055,49.362606048583984,0.12056328356266022,16,0.0,0.08525029569864273,1600312450,,,,0,,3,1.2999999523162842,28.799999237060547,0.0,0.0,0.0,0.0,C,814122148453684
Raw,1726561819000,96279064879,18,0.0,-1410596940720935168,0.0,10.024064064025879,-18.72813606262207,0.0,0,33,0.0,3072,19338777,16,32.900001525878906,74.85609436035156,0.12846700847148895,25,-290622.47840880416,0.09083902090787888,1575420030,,,,0,,6,1.2999999523162842,27.899999618530273,0.0,0.0,0.0,0.0,C,814122148453684
Raw,1726561819000,96279064879,18,0.0,-1410596940720935168,0.0,10.024064064025879,-18.72813606262207,0.0,0,12,0.0,239,41418926692299,16,33.0,568.9700927734375,0.12755101919174194,16,0.0,0.0901913270354271,1601437440,,,,0,,3,1.2999999523162842,28.0,0.0,0.0,0.0,0.0,C,814122148453684
Raw,1726561819000,96279064879,18,0.0,-1410596940720935168,0.0,10.024064064025879,-18.72813606262207,0.0,0,39,0.0,47,203422872205990,17,31.600000381469727,158.80397033691406,0.1413307636976242,16,0.0,0.09993498027324677,1561097980,,,,0,,5,1.2999999523162842,26.600000381469727,0.0,0.0,0.0,0.0,C,814122148453684
Raw,1726561819000,96279064879,18,0.0,-1410596940720935168,0.0,10.024064064025879,-18.72813606262207,0.0,0,13,0.0,239,41418934776521,16,32.70000076293945,-0.9670475721359253,0.13032881915569305,16,0.0,0.09215550869703293,1600875010,,,,0,,3,1.2999999523162842,27.700000762939453,0.0,0.0,0.0,0.0,C,814122148453684
Raw,1726561819000,96279064879,18,0.0,-1410596940720935168,0.0,10.024064064025879,-18.72813606262207,0.0,0,38,0.0,47,203422874269901,20,28.899999618530273,76.3886489868164,0.1750669777393341,16,0.0,0.12378986179828644,1561097980,,,,0,,5,1.2999999523162842,23.899999618530273,0.0,0.0,0.0,0.0,C,814122148453684
Raw,1726561819000,96279064879,18,0.0,-1410596940720935168,0.0,10.024064064025879,-18.72813606262207,0.0,0,19,0.0,47,203422916945974,22,27.600000381469727,-337.2052307128906,0.19578666985034943,16,0.0,0.13844075798988342,1561097980,,,,0,,5,1.2999999523162842,22.600000381469727,0.0,0.0,0.0,0.0,C,814122148453684
Raw,1726561819000,96279064879,18,0.0,-1410596940720935168,0.0,10.024064064025879,-18.72813606262207,0.0,0,27,0.0,3072,14207925,19,29.5,-32.62926483154297,0.16659724712371826,16,0.0,0.11780091375112534,1575420030,,,,0,,6,1.2999999523162842,24.5,0.0,0.0,0.0,0.0,C,814122148453684
Raw,1726561819000,96279064879,18,0.0,-1410596940720935168,0.0,10.024064064025879,-18.72813606262207,0.0,0,8,0.0,47,203422876744980,23,27.399999618530273,14.216793060302734,0.19929847121238708,16,0.0,0.14092394709587097,1561097980,,,,0,,5,1.2999999523162842,22.399999618530273,0.0,0.0,0.0,0.0,C,814122148453684
Raw,1726561819000,96279064879,18,0.0,-1410596940720935168,0.0,10.024064064025879,-18.72813606262207,0.0,0,196,0.0,15,203436869188640,29,24.200000762939453,-268.0070495605469,0.2712673544883728,16,0.0,0.1918131411075592,1575420030,,,,0,,4,1.2999999523162842,19.200000762939453,0.0,0.0,0.0,0.0,C,814122148453684
Raw,1726561819000,96279064879,18,0.0,-1410596940720935168,0.0,10.024064064025879,-18.72813606262207,0.0,0,26,0.0,3072,16425755,21,28.5,455.2060852050781,0.18107740581035614,16,0.0,0.12803983688354492,1575420030,,,,0,,6,1.2999999523162842,23.5,0.0,0.0,0.0,0.0,C,814122148453684
Raw,1726561819000,96279064879,18,0.0,-1410596940720935168,0.0,10.024064064025879,-18.72813606262207,0.0,0,17,0.0,239,41418927170852,34,22.399999618530273,482.9316101074219,0.3302946388721466,16,0.0,0.23355133831501007,1604249980,,,,0,,3,1.2999999523162842,17.399999618530273,0.0,0.0,0.0,0.0,C,814122148453684
Raw,1726561819000,96279064879,18,0.0,-1410596940720935168,0.0,10.024064064025879,-18.72813606262207,0.0,0,7,0.0,47,203422867757417,34,22.5,-184.9099578857422,0.3265306055545807,16,0.0,0.23088979721069336,1561097980,,,,0,,5,1.2999999523162842,17.5,0.0,0.0,0.0,0.0,C,814122148453684
Raw,1726561819000,96279064879,18,0.0,-1410596940720935168,0.0,10.024064064025879,-18.72813606262207,0.0,0,19,0.0,3072,14214508,34,22.5,-38.16187286376953,0.3265306055545807,16,0.0,0.23088979721069336,1575420030,,,,0,,6,1.2999999523162842,17.5,0.0,0.0,0.0,0.0,C,814122148453684
Raw,1726561819000,96279064879,18,0.0,-1410596940720935168,0.0,10.024064064025879,-18.72813606262207,0.0,0,10,0.0,47,203422868767446,35,22.0,-137.624267578125,0.34602075815200806,16,0.0,0.2446712851524353,1561097980,,,,0,,5,1.2999999523162842,17.0,0.0,0.0,0.0,0.0,C,814122148453684
Raw,1726561819000,96279064879,18,0.0,-1410596940720935168,0.0,10.024064064025879,-18.72813606262207,0.0,0,199,0.0,15,203436871756435,46,19.5,-7.148810863494873,0.4756242632865906,16,0.0,0.3363139033317566,1575420030,,,,0,,4,1.2999999523162842,14.5,0.0,0.0,0.0,0.0,C,814122148453684
Fix,GPS,12.9370894795,77.5409952924,787.0,0.0,2.5,,1726561819000,0.04,,683056653316713,5.0,0,,,
Fix,FLP,12.9370840000,77.5409969000,792.0999755859375,0.05345524,3.248,,1726561818958,0.081664905,,683056653316713,1.0327332,0,,,
Status,1726561819000,35,0,1,31,1575420030,36.50,322.7,73.7,1,0,1,31.5
Status,1726561819000,35,1,1,26,1575420030,36.20,141.5,49.2,1,0,1,31.2
Status,1726561819000,35,2,1,28,1575420030,35.70,20.6,44.3,1,0,1,30.7
Status,1726561819000,35,3,1,10,1575420030,28.00,111.2,41.1,1,0,1,23.0
Status,1726561819000,35,4,1,21,1575420030,36.60,272.9,40.6,1,0,1,31.6
Status,1726561819000,35,5,1,2,1575420030,40.80,290.8,30.5,1,0,1,35.8
Status,1726561819000,35,6,1,16,1575420030,23.60,176.7,24.9,1,0,1,18.6
Status,1726561819000,35,7,1,32,1575420030,27.20,46.2,22.9,1,0,1,22.2
Status,1726561819000,35,8,1,27,1575420030,17.60,194.0,8.4,1,0,1,12.6
Status,1726561819000,35,9,3,13,1600875010,32.50,84.5,66.2,1,0,1,27.5
Status,1726561819000,35,10,3,14,1598062460,36.00,186.4,33.7,1,0,1,31.0
Status,1726561819000,35,11,3,17,1604249980,22.70,228.8,27.8,1,0,1,17.7
Status,1726561819000,35,12,3,12,1601437440,32.90,37.5,27.1,0,0,1,27.9
Status,1726561819000,35,13,3,18,1600312450,33.80,282.6,24.0,1,0,1,28.8
Status,1726561819000,35,14,6,33,1575420030,32.90,265.9,54.1,1,0,1,27.9
Status,1726561819000,35,15,6,26,1575420030,28.20,186.2,41.5,1,0,1,23.2
Status,1726561819000,35,16,6,21,1575420030,33.70,150.8,39.5,1,0,1,28.7
Status,1726561819000,35,17,6,29,1575420030,34.90,7.6,37.8,1,0,1,29.9
Status,1726561819000,35,18,6,27,1575420030,29.30,82.4,33.6,1,0,1,24.3
Status,1726561819000,35,19,6,19,1575420030,22.50,312.5,29.8,0,0,1,17.5
Status,1726561819000,35,20,5,2,1561097980,36.60,148.2,75.2,1,0,1,31.6
Status,1726561819000,35,21,5,13,1561097980,39.80,107.6,66.9,1,0,1,34.8
Status,1726561819000,35,22,5,9,1561097980,38.40,3.4,62.0,1,0,1,33.4
Status,1726561819000,35,23,5,8,1561097980,27.30,121.7,52.5,1,0,1,22.3
Status,1726561819000,35,24,5,38,1561097980,28.80,131.0,39.1,1,0,1,23.8
Status,1726561819000,35,25,5,36,1561097980,34.60,205.3,34.6,1,0,1,29.6
Status,1726561819000,35,26,5,39,1561097980,31.70,25.6,34.5,1,0,1,26.7
Status,1726561819000,35,27,5,37,1561097980,41.00,43.2,30.8,1,0,1,36.0
Status,1726561819000,35,28,5,19,1561097980,27.60,332.0,24.9,1,0,1,22.6
Status,1726561819000,35,29,5,10,1561097980,21.90,152.3,21.8,1,0,1,16.9
Status,1726561819000,35,30,5,7,1561097980,22.50,139.8,20.2,1,0,1,17.5
Status,1726561819000,35,31,4,196,1575420030,24.20,86.3,31.9,1,0,1,19.2
Status,1726561819000,35,32,4,199,1575420030,19.40,100.6,31.8,1,0,1,14.4
Status,1726561819000,35,33,5,29,,19.80,234.5,22.8,0,0,1,14.8
Status,1726561819000,35,34,3,3,,19.20,341.4,19.5,0,1,1,14.2
Raw,1726561820000,97279064879,18,0.0,-1410596940720935168,0.0,10.024064064025879,-18.76125144958496,0.0,0,2,0.0,15,203437922589396,10,40.79999923706055,-204.32546997070312,0.07802503556013107,25,-29453.539888084713,0.05517150089144707,1575420030,,,,0,,1,1.2999999523162842,35.79999923706055,0.0,0.0,0.0,0.0,C,814123510130764
Raw,1726561820000,97279064879,18,0.0,-1410596940720935168,0.0,10.024064064025879,-18.76125144958496,0.0,0,21,0.0,15,203437924636294,13,36.599998474121094,-20.04003143310547,0.10014420747756958,25,-26296.165446127845,0.07081197202205658,1575420030,,,,0,,1,1.2999999523162842,31.600000381469727,0.0,0.0,0.0,0.0,C,814123510130764
Raw,1726561820000,97279064879,18,0.0,-1410596940720935168,0.0,10.024064064025879,-18.76125144958496,0.0,0,31,0.0,15,203437932707961,13,36.5,117.66629791259766,0.10078105330467224,25,1623.3086520486977,0.07126228511333466,1575420030,,,,0,,1,1.2999999523162842,31.5,0.0,0.0,0.0,0.0,C,814123510130764
Raw,1726561820000,97279064879,18,0.0,-1410596940720935168,0.0,10.024064064025879,-18.76125144958496,0.0,0,28,0.0,15,203437927149959,13,35.70000076293945,482.593505859375,0.10610191524028778,25,41060.02368310862,0.07502466440200806,1575420030,,,,0,,1,1.2999999523162842,30.700000762939453,0.0,0.0,0.0,0.0,C,814123510130764
Raw,1726561820000,97279064879,18,0.0,-1410596940720935168,0.0,10.024064064025879,-18.76125144958496,0.0,0,26,0.0,15,203437929291711,13,36.099998474121094,-361.8608093261719,0.1033901646733284,25,-42874.384065143146,0.07310718297958374,1575420030,,,,0,,1,1.2999999523162842,31.100000381469727,0.0,0.0,0.0,0.0,C,814123510130764
Raw,1726561820000,97279064879,18,0.0,-1410596940720935168,0.0,10.024064064025879,-18.76125144958496,0.0,0,10,0.0,15,203437927389300,22,27.899999618530273,256.7738952636719,0.19069050252437592,16,0.0,0.13483725488185883,1575420030,,,,0,,1,1.2999999523162842,22.899999618530273,0.0,0.0,0.0,0.0,C,814123510130764
Raw,1726561820000,97279064879,18,0.0,-1410596940720935168,0.0,10.024064064025879,-18.76125144958496,0.0,0,32,0.0,15,203437920980497,23,27.100000381469727,145.72499084472656,0.20474600791931152,16,0.0,0.1447758972644806,1575420030,,,,0,,1,1.2999999523162842,22.100000381469727,0.0,0.0,0.0,0.0,C,814123510130764
Raw,1726561820000,97279064879,18,0.0,-1410596940720935168,0.0,10.024064064025879,-18.76125144958496,0.0,0,16,0.0,15,203437922201952,31,23.5,-597.4104614257812,0.29218408465385437,16,0.0,0.20660336315631866,1575420030,,,,0,,1,1.2999999523162842,18.5,0.0,0.0,0.0,0.0,C,814123510130764
Raw,1726561820000,97279064879,18,0.0,-1410596940720935168,0.0,10.024064064025879,-18.76125144958496,0.0,0,27,0.0,15,203437916068048,57,17.600000381469727,36.14176940917969,0.6298815608024597,16,0.0,0.4453892409801483,1575420030,,,,0,,1,1.2999999523162842,12.600000381469727,0.0,0.0,0.0,0.0,C,814123510130764
Raw,1726561820000,97279064879,18,0.0,-1410596940720935168,0.0,10.024064064025879,-18.76125144958496,0.0,0,37,0.0,47,203423918708120,10,41.0,455.8045654296875,0.07716049253940582,25,-190249.78715230734,0.054560184478759766,1561097980,,,,0,,5,1.2999999523162842,36.0,0.0,0.0,0.0,0.0,C,814123510130764
Raw,1726561820000,97279064879,18,0.0,-1410596940720935168,0.0,10.024064064025879,-18.76125144958496,0.0,0,13,0.0,47,203423880131974,11,39.79999923706055,-41.91009521484375,0.08257365971803665,25,-11677.981750397477,0.05838783457875252,1561097980,,,,0,,5,1.2999999523162842,34.79999923706055,0.0,0.0,0.0,0.0,C,814123510130764
Raw,1726561820000,97279064879,18,0.0,-1410596940720935168,0.0,10.024064064025879,-18.76125144958496,0.0,0,9,0.0,47,203423876333500,12,38.400001525878906,141.16079711914062,0.08964107185602188,25,6165.133728234563,0.06338520348072052,1561097980,,,,0,,5,1.2999999523162842,33.400001525878906,0.0,0.0,0.0,0.0,C,814123510130764
Raw,1726561820000,97279064879,18,0.0,-1410596940720935168,0.0,10.024064064025879,-18.76125144958496,0.0,0,2,0.0,305,837466,13,36.599998474121094,-2.9957199096679688,0.10014420747756958,19,-1750690.885341941,0.16683171689510345,1561097980,,,,0,,5,1.2999999523162842,31.600000381469727,0.0,0.0,0.0,0.0,C,814123510130764
Raw,1726561820000,97279064879,18,0.0,-1410596940720935168,0.0,10.024064064025879,-18.76125144958496,0.0,0,14,0.0,239,41419928655108,13,36.0,-713.811767578125,0.10405827313661575,16,0.0,0.07357960194349289,1598062460,,,,0,,3,1.2999999523162842,31.0,0.0,0.0,0.0,0.0,C,814123510130764
Raw,1726561820000,97279064879,18,0.0,-1410596940720935168,0.0,10.024064064025879,-18.76125144958496,0.0,0,29,0.0,3072,15720562,14,34.900001525878906,70.0685043334961,0.11185558140277863,25,-4203.922329433495,0.0790930837392807,1575420030,,,,0,,6,1.2999999523162842,29.899999618530273,0.0,0.0,0.0,0.0,C,814123510130764
Raw,1726561820000,97279064879,18,0.0,-1410596940720935168,0.0,10.024064064025879,-18.76125144958496,0.0,0,36,0.0,47,203423920966221,14,34.599998474121094,-536.007568359375,0.11413440108299255,25,-59611.60500009483,0.08070443570613861,1561097980,,,,0,,5,1.2999999523162842,29.600000381469727,0.0,0.0,0.0,0.0,C,814123510130764
Raw,1726561820000,97279064879,18,0.0,-1410596940720935168,0.0,10.024064064025879,-18.76125144958496,0.0,0,21,0.0,3072,15601470,15,33.70000076293945,-391.3230895996094,0.12140488624572754,25,-49013.69958423707,0.08584539592266083,1575420030,,,,0,,6,1.2999999523162842,28.700000762939453,0.0,0.0,0.0,0.0,C,814123510130764
Raw,1726561820000,97279064879,18,0.0,-1410596940720935168,0.0,10.024064064025879,-18.76125144958496,0.0,0,18,0.0,239,41419925911290,15,33.70000076293945,49.758056640625,0.12140488624572754,16,0.0,0.08584539592266083,1600312450,,,,0,,3,1.2999999523162842,28.700000762939453,0.0,0.0,0.0,0.0,C,814123510130764
Raw,1726561820000,97279064879,18,0.0,-1410596940720935168,0.0,10.024064064025879,-18.76125144958496,0.0,0,33,0.0,3072,19338524,16,32.900001525878906,75.1225814819336,0.12846700847148895,25,-290547.4396482622,0.09083902090787888,1575420030,,,,0,,6,1.2999999523162842,27.899999618530273,0.0,0.0,0.0,0.0,C,814123510130764
Raw,1726561820000,97279064879,18,0.0,-1410596940720935168,0.0,10.024064064025879,-18.76125144958496,0.0,0,39,0.0,47,203423872205446,17,31.700000762939453,159.17672729492188,0.14027409255504608,16,0.0,0.09918781369924545,1561097980,,,,0,,5,1.2999999523162842,26.700000762939453,0.0,0.0,0.0,0.0,C,814123510130764
Raw,1726561820000,97279064879,18,0.0,-1410596940720935168,0.0,10.024064064025879,-18.76125144958496,0.0,0,12,0.0,239,41419926690334,16,32.79999923706055,569.3460693359375,0.12939289212226868,16,0.0,0.09149371087551117,1601437440,,,,0,,3,1.2999999523162842,27.799999237060547,0.0,0.0,0.0,0.0,C,814123510130764
Raw,1726561820000,97279064879,18,0.0,-1410596940720935168,0.0,10.024064064025879,-18.76125144958496,0.0,0,13,0.0,239,41419934776557,16,32.400001525878906,-0.7819922566413879,0.13319836556911469,16,0.0,0.09418456256389618,1600875010,,,,0,,3,1.2999999523162842,27.399999618530273,0.0,0.0,0.0,0.0,C,814123510130764
Raw,1726561820000,97279064879,18,0.0,-1410596940720935168,0.0,10.024064064025879,-18.76125144958496,0.0,0,38,0.0,47,203423874269649,21,28.700000762939453,76.99726867675781,0.17803412675857544,16,0.0,0.125887930393219,1561097980,,,,0,,5,1.2999999523162842,23.700000762939453,0.0,0.0,0.0,0.0,C,814123510130764
Raw,1726561820000,97279064879,18,0.0,-1410596940720935168,0.0,10.024064064025879,-18.76125144958496,0.0,0,19,0.0,47,203423916947102,22,27.600000381469727,-336.9440002441406,0.19578666985034943,16,0.0,0.13844075798988342,1561097980,,,,0,,5,1.2999999523162842,22.600000381469727,0.0,0.0,0.0,0.0,C,814123510130764
Raw,1726561820000,97279064879,18,0.0,-1410596940720935168,0.0,10.024064064025879,-18.76125144958496,0.0,0,27,0.0,3072,14208020,20,29.100000381469727,-30.489883422851562,0.17217335104942322,16,0.0,0.12174377590417862,1575420030,,,,0,,6,1.2999999523162842,24.100000381469727,0.0,0.0,0.0,0.0,C,814123510130764
Raw,1726561820000,97279064879,18,0.0,-1410596940720935168,0.0,10.024064064025879,-18.76125144958496,0.0,0,8,0.0,47,203423876744909,23,27.100000381469727,14.479297637939453,0.20474600791931152,16,0.0,0.1447758972644806,1561097980,,,,0,,5,1.2999999523162842,22.100000381469727,0.0,0.0,0.0,0.0,C,814123510130764
Raw,1726561820000,97279064879,18,0.0,-1410596940720935168,0.0,10.024064064025879,-18.76125144958496,0.0,0,26,0.0,3072,16424185,22,27.799999237060547,455.5169982910156,0.19236689805984497,16,0.0,0.1360226273536682,1575420030,,,,0,,6,1.2999999523162842,22.799999237060547,0.0,0.0,0.0,0.0,C,814123510130764
Raw,1726561820000,97279064879,18,0.0,-1410596940720935168,0.0,10.024064064025879,-18.76125144958496,0.0,0,196,0.0,15,203437869189494,29,24.200000762939453,-267.1942138671875,0.2712673544883728,16,0.0,0.1918131411075592,1575420030,,,,0,,4,1.2999999523162842,19.200000762939453,0.0,0.0,0.0,0.0,C,814123510130764
Raw,1726561820000,97279064879,18,0.0,-1410596940720935168,0.0,10.024064064025879,-18.76125144958496,0.0,0,17,0.0,239,41419927169178,33,22.700000762939453,483.6324157714844,0.319193035364151,16,0.0,0.22570139169692993,1604249980,,,,0,,3,1.2999999523162842,17.700000762939453,0.0,0.0,0.0,0.0,C,814123510130764
Raw,1726561820000,97279064879,18,0.0,-1410596940720935168,0.0,10.024064064025879,-18.76125144958496,0.0,0,19,0.0,3072,14214591,34,22.5,-39.464385986328125,0.3265306055545807,16,0.0,0.23088979721069336,1575420030,,,,0,,6,1.2999999523162842,17.5,0.0,0.0,0.0,0.0,C,814123510130764
Raw,1726561820000,97279064879,18,0.0,-1410596940720935168,0.0,10.024064064025879,-18.76125144958496,0.0,0,7,0.0,47,203423867757970,34,22.5,-185.43405151367188,0.3265306055545807,16,0.0,0.23088979721069336,1561097980,,,,0,,5,1.2999999523162842,17.5,0.0,0.0,0.0,0.0,C,814123510130764
Raw,1726561820000,97279064879,18,0.0,-1410596940720935168,0.0,10.024064064025879,-18.76125144958496,0.0,0,10,0.0,47,203423868767877,36,21.899999618530273,-136.78846740722656,0.35012781620025635,16,0.0,0.24757537245750427,1561097980,,,,0,,5,1.2999999523162842,16.899999618530273,0.0,0.0,0.0,0.0,C,814123510130764
Raw,1726561820000,97279064879,18,0.0,-1410596940720935168,0.0,10.024064064025879,-18.76125144958496,0.0,0,199,0.0,15,203437871756510,47,19.299999237060547,-6.969381332397461,0.4890214502811432,16,0.0,0.34578707814216614,1575420030,,,,0,,4,1.2999999523162842,14.300000190734863,0.0,0.0,0.0,0.0,C,814123510130764
Fix,GPS,12.9370894795,77.5409952924,787.0,0.0,2.5,,1726561820000,0.04,,683057661777404,5.0,0,,,
Fix,FLP,12.9370847000,77.5409967000,792.0999755859375,0.05747546,3.254,,1726561819967,0.0839159,,683057661777404,1.0428178,0,,,
Status,1726561820000,35,0,1,31,1575420030,36.40,322.7,73.7,1,0,1,31.4
Status,1726561820000,35,1,1,26,1575420030,36.00,141.5,49.2,1,0,1,31.0
Status,1726561820000,35,2,1,28,1575420030,35.70,20.6,44.3,1,0,1,30.7
Status,1726561820000,35,3,1,10,1575420030,27.80,111.2,41.1,1,0,1,22.8
Status,1726561820000,35,4,1,21,1575420030,36.60,272.9,40.6,1,0,1,31.6
Status,1726561820000,35,5,1,2,1575420030,40.80,290.8,30.5,1,0,1,35.8
Status,1726561820000,35,6,1,16,1575420030,23.40,176.7,24.9,0,0,1,18.4
Status,1726561820000,35,7,1,32,1575420030,27.00,46.2,22.9,1,0,1,22.0
Status,1726561820000,35,8,1,27,1575420030,17.60,194.0,8.4,1,0,1,12.6
Status,1726561820000,35,9,3,13,1600875010,32.20,84.5,66.2,1,0,1,27.2
Status,1726561820000,35,10,3,14,1598062460,36.20,186.4,33.7,1,0,1,31.2
Status,1726561820000,35,11,3,17,1604249980,22.80,228.8,27.8,1,0,1,17.8
Status,1726561820000,35,12,3,12,1601437440,32.70,37.5,27.1,0,0,1,27.7
Status,1726561820000,35,13,3,18,1600312450,33.70,282.6,24.0,1,0,1,28.7
Status,1726561820000,35,14,6,33,1575420030,32.90,265.9,54.1,1,0,1,27.9
Status,1726561820000,35,15,6,26,1575420030,27.60,186.2,41.5,1,0,1,22.6
Status,1726561820000,35,16,6,21,1575420030,33.90,150.8,39.5,1,0,1,28.9
Status,1726561820000,35,17,6,29,1575420030,35.10,7.6,37.8,1,0,1,30.1
Status,1726561820000,35,18,6,27,1575420030,28.90,82.4,33.6,1,0,1,23.9
Status,1726561820000,35,19,6,19,1575420030,22.70,312.5,29.8,1,0,1,17.7
Status,1726561820000,35,20,5,2,1561097980,36.60,148.2,75.2,1,0,1,31.6
Status,1726561820000,35,21,5,13,1561097980,40.20,107.9,66.9,1,0,1,35.2
Status,1726561820000,35,22,5,9,1561097980,38.40,3.4,62.0,1,0,1,33.4
Status,1726561820000,35,23,5,8,1561097980,27.00,121.7,52.5,1,0,1,22.0
Status,1726561820000,35,24,5,38,1561097980,28.70,131.0,39.1,1,0,1,23.7
Status,1726561820000,35,25,5,36,1561097980,34.50,205.3,34.6,1,0,1,29.5
Status,1726561820000,35,26,5,39,1561097980,31.70,25.6,34.5,1,0,1,26.7
Status,1726561820000,35,27,5,37,1561097980,40.90,43.2,30.8,1,0,1,35.9
Status,1726561820000,35,28,5,19,1561097980,27.60,332.0,24.9,1,0,1,22.6
Status,1726561820000,35,29,5,10,1561097980,21.90,152.3,21.8,1,0,1,16.9
Status,1726561820000,35,30,5,7,1561097980,22.40,139.8,20.2,1,0,1,17.4
Status,1726561820000,35,31,4,196,1575420030,24.20,86.3,31.9,0,0,1,19.2
Status,1726561820000,35,32,4,199,1575420030,19.20,100.6,31.8,1,0,1,14.2
Status,1726561820000,35,33,5,29,,16.80,234.5,22.8,0,0,1,11.8
Status,1726561820000,35,34,3,3,,16.20,341.4,19.5,0,1,1,11.2
Raw,1726561820999,98279064818,18,0.0,-1410596940720935168,0.0,10.024064064025879,-18.66143035888672,0.0,0,2,0.0,15,203438922590023,10,40.79999923706055,-204.16986083984375,0.07802503556013107,25,-29657.790378523838,0.05517150089144707,1575420030,,,,0,,1,1.2999999523162842,35.79999923706055,0.0,0.0,0.0,0.0,C,814124929760454
Raw,1726561820999,98279064818,18,0.0,-1410596940720935168,0.0,10.024064064025879,-18.66143035888672,0.0,0,21,0.0,15,203438924636292,13,36.599998474121094,-19.8710880279541,0.10014420747756958,25,-26316.119213037506,0.07081197202205658,1575420030,,,,0,,1,1.2999999523162842,31.600000381469727,0.0,0.0,0.0,0.0,C,814124929760454
Raw,1726561820999,98279064818,18,0.0,-1410596940720935168,0.0,10.024064064025879,-18.66143035888672,0.0,0,28,0.0,15,203438927148319,13,35.70000076293945,482.69610595703125,0.10610191524028778,25,41542.66605156171,0.07502466440200806,1575420030,,,,0,,1,1.2999999523162842,30.700000762939453,0.0,0.0,0.0,0.0,C,814124929760454
Raw,1726561820999,98279064818,18,0.0,-1410596940720935168,0.0,10.024064064025879,-18.66143035888672,0.0,0,31,0.0,15,203438932707518,13,36.29999923706055,117.78623962402344,0.10207311064004898,25,1741.0214678833727,0.07217589765787125,1575420030,,,,0,,1,1.2999999523162842,31.299999237060547,0.0,0.0,0.0,0.0,C,814124929760454
Raw,1726561820999,98279064818,18,0.0,-1410596940720935168,0.0,10.024064064025879,-18.66143035888672,0.0,0,26,0.0,15,203438929292861,13,36.0,-361.77227783203125,0.10405827313661575,25,-43236.220783509394,0.07357960194349289,1575420030,,,,0,,1,1.2999999523162842,31.0,0.0,0.0,0.0,0.0,C,814124929760454
Raw,1726561820999,98279064818,18,0.0,-1410596940720935168,0.0,10.024064064025879,-18.66143035888672,0.0,0,10,0.0,15,203438927388386,22,27.700000762939453,257.96063232421875,0.19406546652317047,16,0.0,0.13722369074821472,1575420030,,,,0,,1,1.2999999523162842,22.700000762939453,0.0,0.0,0.0,0.0,C,814124929760454
Raw,1726561820999,98279064818,18,0.0,-1410596940720935168,0.0,10.024064064025879,-18.66143035888672,0.0,0,32,0.0,15,203438920979937,23,26.899999618530273,144.89395141601562,0.20850275456905365,16,0.0,0.14743229746818542,1575420030,,,,0,,1,1.2999999523162842,21.899999618530273,0.0,0.0,0.0,0.0,C,814124929760454
Raw,1726561820999,98279064818,18,0.0,-1410596940720935168,0.0,10.024064064025879,-18.66143035888672,0.0,0,16,0.0,15,203438922203856,31,23.399999618530273,-598.1931762695312,0.29536861181259155,16,0.0,0.20885515213012695,1575420030,,,,0,,1,1.2999999523162842,18.399999618530273,0.0,0.0,0.0,0.0,C,814124929760454
Raw,1726561820999,98279064818,18,0.0,-1410596940720935168,0.0,10.024064064025879,-18.66143035888672,0.0,0,27,0.0,15,203438916067879,57,17.600000381469727,35.779212951660156,0.6298815608024597,16,0.0,0.4453892409801483,1575420030,,,,0,,1,1.2999999523162842,12.600000381469727,0.0,0.0,0.0,0.0,C,814124929760454
Raw,1726561820999,98279064818,18,0.0,-1410596940720935168,0.0,10.024064064025879,-18.66143035888672,0.0,0,37,0.0,47,203424918706537,10,40.900001525878906,455.9313049316406,0.0775909498333931,25,-189793.92029085732,0.054864559322595596,1561097980,,,,0,,5,1.2999999523162842,35.900001525878906,0.0,0.0,0.0,0.0,C,814124929760454
Raw,1726561820999,98279064818,18,0.0,-1410596940720935168,0.0,10.024064064025879,-18.66143035888672,0.0,0,13,0.0,47,203424880132048,11,40.20000076293945,-41.82455062866211,0.08070763945579529,25,-11719.854477341985,0.057068370282649994,1561097980,,,,0,,5,1.2999999523162842,35.20000076293945,0.0,0.0,0.0,0.0,C,814124929760454
Raw,1726561820999,98279064818,18,0.0,-1410596940720935168,0.0,10.024064064025879,-18.66143035888672,0.0,0,9,0.0,47,203424876332965,12,38.29999923706055,141.24569702148438,0.09018027782440186,25,6306.335909094196,0.0637664720416069,1561097980,,,,0,,5,1.2999999523162842,33.29999923706055,0.0,0.0,0.0,0.0,C,814124929760454
Raw,1726561820999,98279064818,18,0.0,-1410596940720935168,0.0,10.024064064025879,-18.66143035888672,0.0,0,2,0.0,801,280837414,13,36.599998474121094,-1.2272785902023315,0.10014420747756958,16,0.0,0.07081197202205658,1561097980,,,,0,,5,1.2999999523162842,31.600000381469727,0.0,0.0,0.0,0.0,C,814124929760454
Raw,1726561820999,98279064818,18,0.0,-1410596940720935168,0.0,10.024064064025879,-18.66143035888672,0.0,0,14,0.0,239,41420928657398,13,36.20000076293945,-713.6724853515625,0.1027284637093544,16,0.0,0.07263929396867752,1598062460,,,,0,,3,1.2999999523162842,31.200000762939453,0.0,0.0,0.0,0.0,C,814124929760454
Raw,1726561820999,98279064818,18,0.0,-1410596940720935168,0.0,10.024064064025879,-18.66143035888672,0.0,0,29,0.0,3072,15720281,14,35.099998474121094,70.09625244140625,0.11037405580282211,25,-4133.845038422616,0.07804549485445023,1575420030,,,,0,,6,1.2999999523162842,30.100000381469727,0.0,0.0,0.0,0.0,C,814124929760454
Raw,1726561820999,98279064818,18,0.0,-1410596940720935168,0.0,10.024064064025879,-18.66143035888672,0.0,0,36,0.0,47,203424920967918,14,34.5,-535.8689575195312,0.11490950733423233,25,-60147.53941365573,0.08125251531600952,1561097980,,,,0,,5,1.2999999523162842,29.5,0.0,0.0,0.0,0.0,C,814124929760454
Raw,1726561820999,98279064818,18,0.0,-1410596940720935168,0.0,10.024064064025879,-18.66143035888672,0.0,0,21,0.0,3072,15602716,15,33.900001525878906,-391.25714111328125,0.1197303757071495,25,-49404.99987559626,0.08466134965419769,1575420030,,,,0,,6,1.2999999523162842,28.899999618530273,0.0,0.0,0.0,0.0,C,814124929760454
Raw,1726561820999,98279064818,18,0.0,-1410596940720935168,0.0,10.024064064025879,-18.66143035888672,0.0,0,18,0.0,239,41420925911047,15,33.70000076293945,49.88539123535156,0.12140488624572754,16,0.0,0.08584539592266083,1600312450,,,,0,,3,1.2999999523162842,28.700000762939453,0.0,0.0,0.0,0.0,C,814124929760454
Raw,1726561820999,98279064818,18,0.0,-1410596940720935168,0.0,10.024064064025879,-18.66143035888672,0.0,0,33,0.0,3072,19338183,16,32.79999923706055,75.26377868652344,0.12939289212226868,25,-290472.2508819478,0.09149371087551117,1575420030,,,,0,,6,1.2999999523162842,27.799999237060547,0.0,0.0,0.0,0.0,C,814124929760454
Raw,1726561820999,98279064818,18,0.0,-1410596940720935168,0.0,10.024064064025879,-18.66143035888672,0.0,0,39,0.0,47,203424872204853,17,31.700000762939453,159.3927459716797,0.14027409255504608,16,0.0,0.09918781369924545,1561097980,,,,0,,5,1.2999999523162842,26.700000762939453,0.0,0.0,0.0,0.0,C,814124929760454
Raw,1726561820999,98279064818,18,0.0,-1410596940720935168,0.0,10.024064064025879,-18.66143035888672,0.0,0,12,0.0,239,41420926688466,16,32.599998474121094,570.894775390625,0.13127493858337402,16,0.0,0.09282451122999191,1601437440,,,,0,,3,1.2999999523162842,27.600000381469727,0.0,0.0,0.0,0.0,C,814124929760454
Raw,1726561820999,98279064818,18,0.0,-1410596940720935168,0.0,10.024064064025879,-18.66143035888672,0.0,0,13,0.0,239,41420934776430,17,32.0,-0.30738022923469543,0.13717420399188995,16,0.0,0.09699588268995285,1600875010,,,,0,,3,1.2999999523162842,27.0,0.0,0.0,0.0,0.0,C,814124929760454
Raw,1726561820999,98279064818,18,0.0,-1410596940720935168,0.0,10.024064064025879,-18.66143035888672,0.0,0,38,0.0,47,203424874269333,21,28.600000381469727,77.50891876220703,0.17954610288143158,16,0.0,0.12695704400539398,1561097980,,,,0,,5,1.2999999523162842,23.600000381469727,0.0,0.0,0.0,0.0,C,814124929760454
Raw,1726561820999,98279064818,18,0.0,-1410596940720935168,0.0,10.024064064025879,-18.66143035888672,0.0,0,19,0.0,47,203424916948176,22,27.600000381469727,-338.0413818359375,0.19578666985034943,16,0.0,0.13844075798988342,1561097980,,,,0,,5,1.2999999523162842,22.600000381469727,0.0,0.0,0.0,0.0,C,814124929760454
Raw,1726561820999,98279064818,18,0.0,-1410596940720935168,0.0,10.024064064025879,-18.66143035888672,0.0,0,27,0.0,3072,14208054,20,28.799999237060547,-29.747425079345703,0.17654122412204742,16,0.0,0.12483230233192444,1575420030,,,,0,,6,1.2999999523162842,23.799999237060547,0.0,0.0,0.0,0.0,C,814124929760454
Raw,1726561820999,98279064818,18,0.0,-1410596940720935168,0.0,10.024064064025879,-18.66143035888672,0.0,0,26,0.0,3072,16422611,23,27.399999618530273,456.2329406738281,0.19929847121238708,16,0.0,0.14092394709587097,1575420030,,,,0,,6,1.2999999523162842,22.399999618530273,0.0,0.0,0.0,0.0,C,814124929760454
Raw,1726561820999,98279064818,18,0.0,-1410596940720935168,0.0,10.024064064025879,-18.66143035888672,0.0,0,8,0.0,47,203424876744790,23,26.899999618530273,13.290489196777344,0.20850275456905365,16,0.0,0.14743229746818542,1561097980,,,,0,,5,1.2999999523162842,21.899999618530273,0.0,0.0,0.0,0.0,C,814124929760454
Raw,1726561820999,98279064818,18,0.0,-1410596940720935168,0.0,10.024064064025879,-18.66143035888672,0.0,0,196,0.0,15,203438869190271,29,24.200000762939453,-267.7557678222656,0.2712673544883728,16,0.0,0.1918131411075592,1575420030,,,,0,,4,1.2999999523162842,19.200000762939453,0.0,0.0,0.0,0.0,C,814124929760454
Raw,1726561820999,98279064818,18,0.0,-1410596940720935168,0.0,10.024064064025879,-18.66143035888672,0.0,0,19,0.0,3072,14214677,33,22.700000762939453,-39.82786560058594,0.319193035364151,16,0.0,0.22570139169692993,1575420030,,,,0,,6,1.2999999523162842,17.700000762939453,0.0,0.0,0.0,0.0,C,814124929760454
Raw,1726561820999,98279064818,18,0.0,-1410596940720935168,0.0,10.024064064025879,-18.66143035888672,0.0,0,17,0.0,239,41420927167524,33,22.799999237060547,483.6844482421875,0.31561675667762756,16,0.0,0.2231726050376892,1604249980,,,,0,,3,1.2999999523162842,17.799999237060547,0.0,0.0,0.0,0.0,C,814124929760454
Raw,1726561820999,98279064818,18,0.0,-1410596940720935168,0.0,10.024064064025879,-18.66143035888672,0.0,0,7,0.0,47,203424867758533,34,22.399999618530273,-185.8897247314453,0.3302946388721466,16,0.0,0.23355133831501007,1561097980,,,,0,,5,1.2999999523162842,17.399999618530273,0.0,0.0,0.0,0.0,C,814124929760454
Raw,1726561820999,98279064818,18,0.0,-1410596940720935168,0.0,10.024064064025879,-18.66143035888672,0.0,0,10,0.0,47,203424868768272,36,21.799999237060547,-136.5750732421875,0.35430842638015747,16,0.0,0.25053149461746216,1561097980,,,,0,,5,1.2999999523162842,16.799999237060547,0.0,0.0,0.0,0.0,C,814124929760454
Raw,1726561820999,98279064818,18,0.0,-1410596940720935168,0.0,10.024064064025879,-18.66143035888672,0.0,0,199,0.0,15,203438871756609,48,19.100000381469727,-6.520813465118408,0.5029927492141724,16,0.0,0.3556661605834961,1575420030,,,,0,,4,1.2999999523162842,14.100000381469727,0.0,0.0,0.0,0.0,C,814124929760454
Fix,GPS,12.9370894795,77.5409952924,787.0,0.0,2.5,,1726561821000,0.03,,683058663780403,5.0,0,,,
Fix,FLP,12.9370858000,77.5409962000,792.0999755859375,0.011463767,3.338,,1726561820968,0.035379,,683058663780403,1.0528378,0,,,
Status,1726561821000,35,0,1,31,1575420030,36.30,322.7,73.7,1,0,1,31.3
Status,1726561821000,35,1,1,26,1575420030,35.90,141.5,49.2,1,0,1,30.9
Status,1726561821000,35,2,1,28,1575420030,35.70,20.6,44.3,1,0,1,30.7
Status,1726561821000,35,3,1,10,1575420030,27.60,111.2,41.1,1,0,1,22.6
Status,1726561821000,35,4,1,21,1575420030,36.60,272.9,40.6,1,0,1,31.6
Status,1726561821000,35,5,1,2,1575420030,40.80,290.8,30.5,1,0,1,35.8
Status,1726561821000,35,6,1,16,1575420030,23.30,176.7,24.9,1,0,1,18.3
Status,1726561821000,35,7,1,32,1575420030,26.80,46.2,22.9,1,0,1,21.8
Status,1726561821000,35,8,1,27,1575420030,17.60,194.0,8.4,1,0,1,12.6
Status,1726561821000,35,9,3,13,1600875010,31.90,84.5,66.2,1,0,1,26.9
Status,1726561821000,35,10,3,14,1598062460,36.30,186.4,33.7,1,0,1,31.3
Status,1726561821000,35,11,3,17,1604249980,23.10,228.8,27.8,0,0,1,18.1
Status,1726561821000,35,12,3,12,1601437440,32.50,37.5,27.1,0,0,1,27.5
Status,1726561821000,35,13,3,18,1600312450,33.70,282.6,24.0,1,0,1,28.7
Status,1726561821000,35,14,6,33,1575420030,32.80,265.9,54.1,1,0,1,27.8
Status,1726561821000,35,15,6,26,1575420030,27.30,186.2,41.5,1,0,1,22.3
Status,1726561821000,35,16,6,21,1575420030,34.00,150.8,39.5,1,0,1,29.0
Status,1726561821000,35,17,6,29,1575420030,35.10,7.6,37.8,1,0,1,30.1
Status,1726561821000,35,18,6,27,1575420030,28.70,82.4,33.6,1,0,1,23.7
Status,1726561821000,35,19,6,19,1575420030,23.20,312.5,29.8,1,0,1,18.2
Status,1726561821000,35,20,5,2,1561097980,36.60,148.2,75.2,1,0,1,31.6
Status,1726561821000,35,21,5,13,1561097980,40.50,107.9,66.9,1,0,1,35.5
Status,1726561821000,35,22,5,9,1561097980,38.30,3.4,62.0,1,0,1,33.3
Status,1726561821000,35,23,5,8,1561097980,26.70,121.7,52.5,1,0,1,21.7
Status,1726561821000,35,24,5,38,1561097980,28.60,131.0,39.1,1,0,1,23.6
Status,1726561821000,35,25,5,36,1561097980,34.50,205.3,34.6,1,0,1,29.5
Status,1726561821000,35,26,5,39,1561097980,31.70,25.6,34.5,1,0,1,26.7
Status,1726561821000,35,27,5,37,1561097980,40.90,43.2,30.8,1,0,1,35.9
Status,1726561821000,35,28,5,19,1561097980,27.70,332.0,24.9,1,0,1,22.7
Status,1726561821000,35,29,5,10,1561097980,21.80,152.3,21.8,1,0,1,16.8
Status,1726561821000,35,30,5,7,1561097980,22.40,139.7,20.3,1,0,1,17.4
Status,1726561821000,35,31,4,196,1575420030,24.20,86.3,31.9,1,0,1,19.2
Status,1726561821000,35,32,4,199,1575420030,19.00,100.6,31.8,1,0,1,14.0
Status,1726561821000,35,33,5,29,,13.80,234.5,22.8,0,0,1,8.8
Status,1726561821000,35,34,3,3,,13.90,341.4,19.5,0,1,1,8.9
Raw,1726561821999,99279064818,18,0.0,-1410596940720935168,0.0,10.024064064025879,-18.733722686767578,0.0,0,2,0.0,15,203439922590699,10,40.79999923706055,-204.14944458007812,0.07802503556013107,25,-29861.97351268943,0.05517150089144707,1575420030,,,,0,,1,1.2999999523162842,35.79999923706055,0.0,0.0,0.0,0.0,C,814126252463013
Raw,1726561821999,99279064818,18,0.0,-1410596940720935168,0.0,10.024064064025879,-18.733722686767578,0.0,0,21,0.0,15,203439924636342,13,36.599998474121094,-19.871248245239258,0.10014420747756958,25,-26336.01796803259,0.07081197202205658,1575420030,,,,0,,1,1.2999999523162842,31.600000381469727,0.0,0.0,0.0,0.0,C,814126252463013
Raw,1726561821999,99279064818,18,0.0,-1410596940720935168,0.0,10.024064064025879,-18.733722686767578,0.0,0,28,0.0,15,203439927146733,13,35.70000076293945,482.7047119140625,0.10610191524028778,25,42025.34999887529,0.07502466440200806,1575420030,,,,0,,1,1.2999999523162842,30.700000762939453,0.0,0.0,0.0,0.0,C,814126252463013
Raw,1726561821999,99279064818,18,0.0,-1410596940720935168,0.0,10.024064064025879,-18.733722686767578,0.0,0,31,0.0,15,203439932707132,13,36.20000076293945,117.89539337158203,0.1027284637093544,25,1858.8560030229855,0.07263929396867752,1575420030,,,,0,,1,1.2999999523162842,31.200000762939453,0.0,0.0,0.0,0.0,C,814126252463013
Raw,1726561821999,99279064818,18,0.0,-1410596940720935168,0.0,10.024064064025879,-18.733722686767578,0.0,0,26,0.0,15,203439929294063,13,35.79999923706055,-361.7483215332031,0.10541407018899918,25,-43597.998569033654,0.07453829050064087,1575420030,,,,0,,1,1.2999999523162842,30.799999237060547,0.0,0.0,0.0,0.0,C,814126252463013
Raw,1726561821999,99279064818,18,0.0,-1410596940720935168,0.0,10.024064064025879,-18.733722686767578,0.0,0,10,0.0,15,203439927387493,22,27.5,258.4667663574219,0.1975308656692505,16,0.0,0.1396740823984146,1575420030,,,,0,,1,1.2999999523162842,22.5,0.0,0.0,0.0,0.0,C,814126252463013
Raw,1726561821999,99279064818,18,0.0,-1410596940720935168,0.0,10.024064064025879,-18.733722686767578,0.0,0,32,0.0,15,203439920979507,24,26.700000762939453,143.94078063964844,0.21236379444599152,16,0.0,0.1501624435186386,1575420030,,,,0,,1,1.2999999523162842,21.700000762939453,0.0,0.0,0.0,0.0,C,814126252463013
Raw,1726561821999,99279064818,18,0.0,-1410596940720935168,0.0,10.024064064025879,-18.733722686767578,0.0,0,16,0.0,15,203439922205829,32,23.200000762939453,-598.6593017578125,0.3018958866596222,16,0.0,0.21347057819366455,1575420030,,,,0,,1,1.2999999523162842,18.200000762939453,0.0,0.0,0.0,0.0,C,814126252463013
Raw,1726561821999,99279064818,18,0.0,-1410596940720935168,0.0,10.024064064025879,-18.733722686767578,0.0,0,27,0.0,15,203439916067748,57,17.600000381469727,35.79010772705078,0.6298815608024597,16,0.0,0.4453892409801483,1575420030,,,,0,,1,1.2999999523162842,12.600000381469727,0.0,0.0,0.0,0.0,C,814126252463013
Raw,1726561821999,99279064818,18,0.0,-1410596940720935168,0.0,10.024064064025879,-18.733722686767578,0.0,0,37,0.0,47,203425918705014,10,40.900001525878906,455.9523620605469,0.0775909498333931,25,-189337.9964230745,0.054864559322595596,1561097980,,,,0,,5,1.2999999523162842,35.900001525878906,0.0,0.0,0.0,0.0,C,814126252463013
Raw,1726561821999,99279064818,18,0.0,-1410596940720935168,0.0,10.024064064025879,-18.733722686767578,0.0,0,13,0.0,47,203425880132189,11,40.5,-41.8331298828125,0.0793493390083313,25,-11761.700807903428,0.05610791593790054,1561097980,,,,0,,5,1.2999999523162842,35.5,0.0,0.0,0.0,0.0,C,814126252463013
Raw,1726561821999,99279064818,18,0.0,-1410596940720935168,0.0,10.024064064025879,-18.733722686767578,0.0,0,9,0.0,47,203425876332512,12,38.20000076293945,141.18087768554688,0.09072434157133102,25,6447.523887567921,0.06415118277072906,1561097980,,,,0,,5,1.2999999523162842,33.20000076293945,0.0,0.0,0.0,0.0,C,814126252463013
Raw,1726561821999,99279064818,18,0.0,-1410596940720935168,0.0,10.024064064025879,-18.733722686767578,0.0,0,2,0.0,801,80837430,13,36.5,-2.39432692527771,0.10078105330467224,16,0.0,0.07126228511333466,1561097980,,,,0,,5,1.2999999523162842,31.5,0.0,0.0,0.0,0.0,C,814126252463013
Raw,1726561821999,99279064818,18,0.0,-1410596940720935168,0.0,10.024064064025879,-18.733722686767578,0.0,0,14,0.0,239,41421928659777,13,36.29999923706055,-713.6722412109375,0.10207311064004898,16,0.0,0.07217589765787125,1598062460,,,,0,,3,1.2999999523162842,31.299999237060547,0.0,0.0,0.0,0.0,C,814126252463013
Raw,1726561821999,99279064818,18,0.0,-1410596940720935168,0.0,10.024064064025879,-18.733722686767578,0.0,0,29,0.0,3072,15720035,14,35.099998474121094,70.03446960449219,0.11037405580282211,25,-4063.796294738073,0.07804549485445023,1575420030,,,,0,,6,1.2999999523162842,30.100000381469727,0.0,0.0,0.0,0.0,C,814126252463013
Raw,1726561821999,99279064818,18,0.0,-1410596940720935168,0.0,10.024064064025879,-18.733722686767578,0.0,0,36,0.0,47,203425920969708,14,34.400001525878906,-535.8790893554688,0.11569254100322723,25,-60683.43697030502,0.08180619776248932,1561097980,,,,0,,5,1.2999999523162842,29.399999618530273,0.0,0.0,0.0,0.0,C,814126252463013
Raw,1726561821999,99279064818,18,0.0,-1410596940720935168,0.0,10.024064064025879,-18.733722686767578,0.0,0,21,0.0,3072,15604022,15,34.0,-391.2793884277344,0.11890606582164764,25,-49796.28624918545,0.08407847583293915,1575420030,,,,0,,6,1.2999999523162842,29.0,0.0,0.0,0.0,0.0,C,814126252463013
Raw,1726561821999,99279064818,18,0.0,-1410596940720935168,0.0,10.024064064025879,-18.733722686767578,0.0,0,18,0.0,239,41421925910894,15,33.599998474121094,49.98993682861328,0.1222553625702858,16,0.0,0.08644676953554153,1600312450,,,,0,,3,1.2999999523162842,28.600000381469727,0.0,0.0,0.0,0.0,C,814126252463013
Raw,1726561821999,99279064818,18,0.0,-1410596940720935168,0.0,10.024064064025879,-18.733722686767578,0.0,0,33,0.0,3072,19337944,16,32.79999923706055,75.3077621459961,0.12939289212226868,25,-290396.98278257507,0.09149371087551117,1575420030,,,,0,,6,1.2999999523162842,27.799999237060547,0.0,0.0,0.0,0.0,C,814126252463013
Raw,1726561821999,99279064818,18,0.0,-1410596940720935168,0.0,10.024064064025879,-18.733722686767578,0.0,0,39,0.0,47,203425872204317,17,31.700000762939453,158.81097412109375,0.14027409255504608,16,0.0,0.09918781369924545,1561097980,,,,0,,5,1.2999999523162842,26.700000762939453,0.0,0.0,0.0,0.0,C,814126252463013
Raw,1726561821999,99279064818,18,0.0,-1410596940720935168,0.0,10.024064064025879,-18.733722686767578,0.0,0,12,0.0,239,41421926686624,16,32.400001525878906,569.6261596679688,0.13319836556911469,16,0.0,0.09418456256389618,1601437440,,,,0,,3,1.2999999523162842,27.399999618530273,0.0,0.0,0.0,0.0,C,814126252463013
Raw,1726561821999,99279064818,18,0.0,-1410596940720935168,0.0,10.024064064025879,-18.733722686767578,0.0,0,13,0.0,239,41421934776426,17,31.700000762939453,-0.3843387961387634,0.14027409255504608,16,0.0,0.09918781369924545,1600875010,,,,0,,3,1.2999999523162842,26.700000762939453,0.0,0.0,0.0,0.0,C,814126252463013
Raw,1726561821999,99279064818,18,0.0,-1410596940720935168,0.0,10.024064064025879,-18.733722686767578,0.0,0,38,0.0,47,203425874269072,21,28.600000381469727,76.9738540649414,0.17954610288143158,16,0.0,0.12695704400539398,1561097980,,,,0,,5,1.2999999523162842,23.600000381469727,0.0,0.0,0.0,0.0,C,814126252463013
Raw,1726561821999,99279064818,18,0.0,-1410596940720935168,0.0,10.024064064025879,-18.733722686767578,0.0,0,19,0.0,47,203425916949306,22,27.700000762939453,-337.60076904296875,0.19406546652317047,16,0.0,0.13722369074821472,1561097980,,,,0,,5,1.2999999523162842,22.700000762939453,0.0,0.0,0.0,0.0,C,814126252463013
Raw,1726561821999,99279064818,18,0.0,-1410596940720935168,0.0,10.024064064025879,-18.733722686767578,0.0,0,27,0.0,3072,14208144,21,28.600000381469727,-30.767335891723633,0.17954610288143158,16,0.0,0.12695704400539398,1575420030,,,,0,,6,1.2999999523162842,23.600000381469727,0.0,0.0,0.0,0.0,C,814126252463013
Raw,1726561821999,99279064818,18,0.0,-1410596940720935168,0.0,10.024064064025879,-18.733722686767578,0.0,0,26,0.0,3072,16421112,23,27.200000762939453,455.81256103515625,0.2029055953025818,16,0.0,0.1434745490550995,1575420030,,,,0,,6,1.2999999523162842,22.200000762939453,0.0,0.0,0.0,0.0,C,814126252463013
Raw,1726561821999,99279064818,18,0.0,-1410596940720935168,0.0,10.024064064025879,-18.733722686767578,0.0,0,8,0.0,47,203425876744731,24,26.600000381469727,12.907496452331543,0.21433469653129578,16,0.0,0.15155605971813202,1561097980,,,,0,,5,1.2999999523162842,21.600000381469727,0.0,0.0,0.0,0.0,C,814126252463013
Raw,1726561821999,99279064818,18,0.0,-1410596940720935168,0.0,10.024064064025879,-18.733722686767578,0.0,0,196,0.0,15,203439869191187,29,24.200000762939453,-267.336181640625,0.2712673544883728,16,0.0,0.1918131411075592,1575420030,,,,0,,4,1.2999999523162842,19.200000762939453,0.0,0.0,0.0,0.0,C,814126252463013
Raw,1726561821999,99279064818,18,0.0,-1410596940720935168,0.0,10.024064064025879,-18.733722686767578,0.0,0,19,0.0,3072,14214809,32,23.200000762939453,-38.78782272338867,0.3018958866596222,16,0.0,0.21347057819366455,1575420030,,,,0,,6,1.2999999523162842,18.200000762939453,0.0,0.0,0.0,0.0,C,814126252463013
Raw,1726561821999,99279064818,18,0.0,-1410596940720935168,0.0,10.024064064025879,-18.733722686767578,0.0,0,17,0.0,239,41421927165786,32,23.100000381469727,483.8372497558594,0.3052409589290619,16,0.0,0.21583588421344757,1604249980,,,,0,,3,1.2999999523162842,18.100000381469727,0.0,0.0,0.0,0.0,C,814126252463013
Raw,1726561821999,99279064818,18,0.0,-1410596940720935168,0.0,10.024064064025879,-18.733722686767578,0.0,0,7,0.0,47,203425867759174,34,22.399999618530273,-186.38430786132812,0.3302946388721466,16,0.0,0.23355133831501007,1561097980,,,,0,,5,1.2999999523162842,17.399999618530273,0.0,0.0,0.0,0.0,C,814126252463013
Raw,1726561821999,99279064818,18,0.0,-1410596940720935168,0.0,10.024064064025879,-18.733722686767578,0.0,0,10,0.0,47,203425868768736,36,21.799999237060547,-136.98228454589844,0.35430842638015747,16,0.0,0.25053149461746216,1561097980,,,,0,,5,1.2999999523162842,16.799999237060547,0.0,0.0,0.0,0.0,C,814126252463013
Raw,1726561821999,99279064818,18,0.0,-1410596940720935168,0.0,10.024064064025879,-18.733722686767578,0.0,0,199,0.0,15,203439871756655,49,18.899999618530273,-6.172957420349121,0.5175715684890747,16,0.0,0.3659748435020447,1575420030,,,,0,,4,1.2999999523162842,13.899999618530273,0.0,0.0,0.0,0.0,C,814126252463013
Fix,GPS,12.9370894795,77.5409952924,787.0,0.0,2.5,,1726561822000,0.02,,683059664415787,5.0,0,,,
Fix,FLP,12.9370862000,77.5409959000,792.0999755859375,0.014457755,3.287,,1726561821969,0.045117218,,683059664415787,1.0628442,0,,,
Status,1726561822000,35,0,1,31,1575420030,36.10,322.7,73.7,1,0,1,31.1
Status,1726561822000,35,1,1,26,1575420030,35.80,141.5,49.2,1,0,1,30.8
Status,1726561822000,35,2,1,28,1575420030,35.80,20.6,44.3,1,0,1,30.8
Status,1726561822000,35,3,1,10,1575420030,27.40,111.2,41.1,1,0,1,22.4
Status,1726561822000,35,4,1,21,1575420030,36.50,272.9,40.6,1,0,1,31.5
Status,1726561822000,35,5,1,2,1575420030,40.70,290.8,30.5,1,0,1,35.7
Status,1726561822000,35,6,1,16,1575420030,23.20,176.7,24.9,1,0,1,18.2
Status,1726561822000,35,7,1,32,1575420030,26.60,46.2,22.9,1,0,1,21.6
Status,1726561822000,35,8,1,27,1575420030,17.60,194.0,8.4,1,0,1,12.6
Status,1726561822000,35,9,3,13,1600875010,31.60,84.5,66.2,1,0,1,26.6
Status,1726561822000,35,10,3,14,1598062460,36.30,186.4,33.7,1,0,1,31.3
Status,1726561822000,35,11,3,17,1604249980,23.60,228.8,27.8,1,0,1,18.6
Status,1726561822000,35,12,3,12,1601437440,32.30,37.5,27.1,0,0,1,27.3
Status,1726561822000,35,13,3,18,1600312450,33.60,282.6,24.0,1,0,1,28.6
Status,1726561822000,35,14,6,33,1575420030,32.80,265.9,54.1,1,0,1,27.8
Status,1726561822000,35,15,6,26,1575420030,27.10,186.2,41.5,1,0,1,22.1
Status,1726561822000,35,16,6,21,1575420030,34.20,150.8,39.5,1,0,1,29.2
Status,1726561822000,35,17,6,29,1575420030,35.10,7.6,37.8,1,0,1,30.1
Status,1726561822000,35,18,6,27,1575420030,28.50,82.4,33.6,1,0,1,23.5
Status,1726561822000,35,19,6,19,1575420030,23.60,312.5,29.8,1,0,1,18.6
Status,1726561822000,35,20,5,2,1561097980,36.50,148.2,75.2,1,0,1,31.5
Status,1726561822000,35,21,5,13,1561097980,40.70,107.9,66.9,1,0,1,35.7
Status,1726561822000,35,22,5,9,1561097980,38.20,3.3,61.9,1,0,1,33.2
Status,1726561822000,35,23,5,8,1561097980,26.50,122.0,52.4,1,0,1,21.5
Status,1726561822000,35,24,5,38,1561097980,28.70,131.0,39.1,1,0,1,23.7
Status,1726561822000,35,25,5,36,1561097980,34.40,205.3,34.6,1,0,1,29.4
Status,1726561822000,35,26,5,39,1561097980,31.70,25.6,34.5,1,0,1,26.7
Status,1726561822000,35,27,5,37,1561097980,40.90,43.2,30.8,1,0,1,35.9
Status,1726561822000,35,28,5,19,1561097980,27.70,332.0,24.9,1,0,1,22.7
Status,1726561822000,35,29,5,10,1561097980,21.80,152.3,21.8,1,0,1,16.8
Status,1726561822000,35,30,5,7,1561097980,22.30,139.7,20.3,1,0,1,17.3
Status,1726561822000,35,31,4,196,1575420030,24.20,86.3,31.9,1,0,1,19.2
Status,1726561822000,35,32,4,199,1575420030,18.80,100.6,31.8,1,0,1,13.8
Status,1726561822000,35,33,5,29,,12.40,234.5,22.8,0,0,1,7.4
Status,1726561822000,35,34,3,3,,12.60,341.4,19.5,0,1,1,7.6
Raw,1726561822999,100279064818,18,0.0,-1410596940720935168,0.0,10.024064064025879,-18.578125,0.0,0,2,0.0,15,203440922591367,10,40.70000076293945,-203.94932556152344,0.07846274971961975,25,-30066.00077924699,0.05548100918531418,1575420030,,,,0,,1,1.2999999523162842,35.70000076293945,0.0,0.0,0.0,0.0,C,814127396516683
Raw,1726561822999,100279064818,18,0.0,-1410596940720935168,0.0,10.024064064025879,-18.578125,0.0,0,21,0.0,15,203440924636432,13,36.5,-19.712059020996094,0.10078105330467224,25,-26355.792259236412,0.07126228511333466,1575420030,,,,0,,1,1.2999999523162842,31.5,0.0,0.0,0.0,0.0,C,814127396516683
Raw,1726561822999,100279064818,18,0.0,-1410596940720935168,0.0,10.024064064025879,-18.578125,0.0,0,28,0.0,15,203440927145091,13,35.79999923706055,482.84478759765625,0.10541407018899918,25,42508.14117267146,0.07453829050064087,1575420030,,,,0,,1,1.2999999523162842,30.799999237060547,0.0,0.0,0.0,0.0,C,814127396516683
Raw,1726561822999,100279064818,18,0.0,-1410596940720935168,0.0,10.024064064025879,-18.578125,0.0,0,31,0.0,15,203440932706696,13,36.099998474121094,118.0687026977539,0.1033901646733284,25,1976.8466519485228,0.07310718297958374,1575420030,,,,0,,1,1.2999999523162842,31.100000381469727,0.0,0.0,0.0,0.0,C,814127396516683
Raw,1726561822999,100279064818,18,0.0,-1410596940720935168,0.0,10.024064064025879,-18.578125,0.0,0,26,0.0,15,203440929295291,13,35.70000076293945,-361.5671691894531,0.10610191524028778,25,-43959.63593603702,0.07502466440200806,1575420030,,,,0,,1,1.2999999523162842,30.700000762939453,0.0,0.0,0.0,0.0,C,814127396516683
Raw,1726561822999,100279064818,18,0.0,-1410596940720935168,0.0,10.024064064025879,-18.578125,0.0,0,10,0.0,15,203440927386669,23,27.299999237060547,258.06805419921875,0.20108991861343384,16,0.0,0.14219067990779877,1575420030,,,,0,,1,1.2999999523162842,22.299999237060547,0.0,0.0,0.0,0.0,C,814127396516683
Raw,1726561822999,100279064818,18,0.0,-1410596940720935168,0.0,10.024064064025879,-18.578125,0.0,0,32,0.0,15,203440920979021,24,26.5,144.90687561035156,0.21633315086364746,16,0.0,0.15296916663646698,1575420030,,,,0,,1,1.2999999523162842,21.5,0.0,0.0,0.0,0.0,C,814127396516683
Raw,1726561822999,100279064818,18,0.0,-1410596940720935168,0.0,10.024064064025879,-18.578125,0.0,0,16,0.0,15,203440922207781,32,23.200000762939453,-598.8477783203125,0.3018958866596222,16,0.0,0.21347057819366455,1575420030,,,,0,,1,1.2999999523162842,18.200000762939453,0.0,0.0,0.0,0.0,C,814127396516683
Raw,1726561822999,100279064818,18,0.0,-1410596940720935168,0.0,10.024064064025879,-18.578125,0.0,0,27,0.0,15,203440916067652,57,17.600000381469727,35.201148986816406,0.6298815608024597,16,0.0,0.4453892409801483,1575420030,,,,0,,1,1.2999999523162842,12.600000381469727,0.0,0.0,0.0,0.0,C,814127396516683
Raw,1726561822999,100279064818,18,0.0,-1410596940720935168,0.0,10.024064064025879,-18.578125,0.0,0,37,0.0,47,203426918703499,10,40.900001525878906,456.0985107421875,0.0775909498333931,25,-188881.9561199583,0.054864559322595596,1561097980,,,,0,,5,1.2999999523162842,35.900001525878906,0.0,0.0,0.0,0.0,C,814127396516683
Raw,1726561822999,100279064818,18,0.0,-1410596940720935168,0.0,10.024064064025879,-18.578125,0.0,0,13,0.0,47,203426880132327,10,40.70000076293945,-41.70742416381836,0.07846274971961975,25,-11803.454535208875,0.05548100918531418,1561097980,,,,0,,5,1.2999999523162842,35.70000076293945,0.0,0.0,0.0,0.0,C,814127396516683
Raw,1726561822999,100279064818,18,0.0,-1410596940720935168,0.0,10.024064064025879,-18.578125,0.0,0,9,0.0,47,203426876332039,12,38.099998474121094,141.3028564453125,0.09127336740493774,25,6588.788452294655,0.06453939527273178,1561097980,,,,0,,5,1.2999999523162842,33.099998474121094,0.0,0.0,0.0,0.0,C,814127396516683
