# 
# Header Description:
# 
# Version: v3.0.6.4 Platform: 13 Manufacturer: OPPO Model: CPH2371
# 
# Raw,utcTimeMillis,TimeNanos,LeapSecond,TimeUncertaintyNanos,FullBiasNanos,BiasNanos,BiasUncertaintyNanos,DriftNanosPerSecond,DriftUncertaintyNanosPerSecond,HardwareClockDiscontinuityCount,Svid,TimeOffsetNanos,State,ReceivedSvTimeNanos,ReceivedSvTimeUncertaintyNanos,Cn0DbHz,PseudorangeRateMetersPerSecond,PseudorangeRateUncertaintyMetersPerSecond,AccumulatedDeltaRangeState,AccumulatedDeltaRangeMeters,AccumulatedDeltaRangeUncertaintyMeters,CarrierFrequencyHz,CarrierCycles,CarrierPhase,CarrierPhaseUncertainty,MultipathIndicator,SnrInDb,ConstellationType,AgcDb,BasebandCn0DbHz,FullInterSignalBiasNanos,FullInterSignalBiasUncertaintyNanos,SatelliteInterSignalBiasNanos,SatelliteInterSignalBiasUncertaintyNanos,CodeType,ChipsetElapsedRealtimeNanos
# 
# UncalAccel,utcTimeMillis,elapsedRealtimeNanos,UncalAccelXMps2,UncalAccelYMps2,UncalAccelZMps2,BiasXMps2,BiasYMps2,BiasZMps2
# 
# Accel,utcTimeMillis,elapsedRealtimeNanos,AccelXMps2,AccelYMps2,AccelZMps2
# 
# UncalGyro,utcTimeMillis,elapsedRealtimeNanos,UncalGyroXRadPerSec,UncalGyroYRadPerSec,UncalGyroZRadPerSec,DriftXRadPerSec,DriftYRadPerSec,DriftZRadPerSec
# 
# Gyro,utcTimeMillis,elapsedRealtimeNanos,GyroXRadPerSec,GyroYRadPerSec,GyroZRadPerSec
# 
# UncalMag,utcTimeMillis,elapsedRealtimeNanos,UncalMagXMicroT,UncalMagYMicroT,UncalMagZMicroT,BiasXMicroT,BiasYMicroT,BiasZMicroT
# 
# Mag,utcTimeMillis,elapsedRealtimeNanos,MagXMicroT,MagYMicroT,MagZMicroT
# 
# OrientationDeg,utcTimeMillis,elapsedRealtimeNanos,yawDeg,rollDeg,pitchDeg
# 
# Fix,Provider,LatitudeDegrees,LongitudeDegrees,AltitudeMeters,SpeedMps,AccuracyMeters,BearingDegrees,UnixTimeMillis,SpeedAccuracyMps,BearingAccuracyDegrees,elapsedRealtimeNanos,VerticalAccuracyMeters,MockLocation,NumberOfUsedSignals,VerticalSpeedAccuracyMps,SolutionType
# 
# Nav,Svid,Type,Status,MessageId,Sub-messageId,Data(Bytes)
# 
# Status,UnixTimeMillis,SignalCount,SignalIndex,ConstellationType,Svid,CarrierFrequencyHz,Cn0DbHz,AzimuthDegrees,ElevationDegrees,UsedInFix,HasAlmanacData,HasEphemerisData,BasebandCn0DbHz
# 
# Agc,utcTimeMillis,TimeNanos,LeapSecond,TimeUncertaintyNanos,FullBiasNanos,BiasNanos,BiasUncertaintyNanos,DriftNanosPerSecond,DriftUncertaintyNanosPerSecond,HardwareClockDiscontinuityCount,AgcDb,CarrierFrequencyHz,ConstellationType
# 
Status,,53,0,1,31,1575420030,0.00,353.0,60.0,0,0,0,0.0
Status,,53,1,1,26,1575420030,25.50,116.0,59.0,0,0,0,25.5
Status,,53,2,1,21,1575420030,0.00,252.0,38.0,0,0,0,0.0
Status,,53,3,1,16,1575420030,0.00,168.0,38.0,0,0,0,0.0
Status,,53,4,1,2,1575420030,0.00,272.0,32.0,0,0,0,0.0
Status,,53,5,1,10,1575420030,0.00,129.0,31.0,0,0,0,0.0
Status,,53,6,1,28,1575420030,0.00,26.0,30.0,0,0,0,0.0
Status,,53,7,1,32,1575420030,0.00,61.0,19.0,0,0,0,0.0
Status,,53,8,1,3,1575420030,0.00,329.0,18.0,0,0,0,0.0
Status,,53,9,1,4,1575420030,0.00,294.0,8.0,0,0,0,0.0
Status,,53,10,1,27,1575420030,0.00,181.0,8.0,0,0,0,0.0
Status,,53,11,1,8,1575420030,0.00,211.0,3.0,0,0,0,0.0
Status,,53,12,3,13,1602000000,0.00,43.0,58.0,0,0,0,0.0
Status,,53,13,3,14,1602000000,0.00,189.0,53.0,0,0,0,0.0
Status,,53,14,3,2,1602000000,0.00,58.0,30.0,0,0,0,0.0
Status,,53,15,3,3,1602000000,0.00,358.0,27.0,0,0,0,0.0
Status,,53,16,3,18,1602000000,0.00,263.0,20.0,0,0,0,0.0
Status,,53,17,3,17,1602000000,0.00,213.0,16.0,0,0,0,0.0
Status,,53,18,3,12,1602000000,0.00,29.0,13.0,0,0,0,0.0
Status,,53,19,3,19,1602000000,0.00,303.0,8.0,0,0,0,0.0
Status,,53,20,3,1,1602000000,0.00,103.0,7.0,0,0,0,0.0
Status,,53,21,3,15,1602000000,0.00,202.0,4.0,0,0,0,0.0
Status,,53,22,5,56,1561097980,0.00,43.0,76.0,0,0,0,0.0
Status,,53,23,5,2,1561097980,0.00,149.0,75.0,0,0,0,0.0
Status,,53,24,5,46,1561097980,0.00,48.0,75.0,0,0,0,0.0
Status,,53,25,5,60,1561097980,0.00,169.0,75.0,0,0,0,0.0
Status,,53,26,5,13,1561097980,0.00,133.0,66.0,0,0,0,0.0
Status,,53,27,5,5,1561097980,0.00,240.0,65.0,0,0,0,0.0
Status,,53,28,5,9,1561097980,0.00,2.0,56.0,0,0,0,0.0
Status,,53,29,5,8,1561097980,0.00,138.0,51.0,0,0,0,0.0
Status,,53,30,5,3,1561097980,0.00,109.0,49.0,0,0,0,0.0
Status,,53,31,5,20,1561097980,0.00,49.0,49.0,0,0,0,0.0
Status,,53,32,5,36,1561097980,0.00,212.0,49.0,0,0,0,0.0
Status,,53,33,5,61,1561097980,0.00,109.0,48.0,0,0,0,0.0
Status,,53,34,5,6,1561097980,0.00,16.0,45.0,0,0,0,0.0
Status,,53,35,5,16,1561097980,0.00,22.0,38.0,0,0,0,0.0
Status,,53,36,5,38,1561097980,0.00,141.0,36.0,0,0,0,0.0
Status,,53,37,5,19,1561097980,0.00,343.0,33.0,0,0,0,0.0
Status,,53,38,5,39,1561097980,0.00,27.0,31.0,0,0,0,0.0
Status,,53,39,5,10,1561097980,0.00,149.0,26.0,0,0,0,0.0
Status,,53,40,5,7,1561097980,0.00,136.0,25.0,0,0,0,0.0
Status,,53,41,5,37,1561097980,0.00,38.0,19.0,0,0,0,0.0
Status,,53,42,5,59,1561097980,0.00,96.0,18.0,0,0,0,0.0
Status,,53,43,5,29,1561097980,0.00,221.0,17.0,0,0,0,0.0
Status,,53,44,5,32,1561097980,0.00,105.0,16.0,0,0,0,0.0
Status,,53,45,5,1,1561097980,0.00,96.0,14.0,0,0,0,0.0
Status,,53,46,5,40,1561097980,0.00,128.0,14.0,0,0,0,0.0
Status,,53,47,5,30,1561097980,0.00,169.0,8.0,0,0,0,0.0
Status,,53,48,5,35,1561097980,0.00,275.0,4.0,0,0,0,0.0
Status,,53,49,5,45,1561097980,0.00,215.0,1.0,0,0,0,0.0
Status,,53,50,4,196,1575420030,0.00,87.0,42.0,0,0,0,0.0
Status,,53,51,4,199,1575420030,0.00,61.0,20.0,0,0,0,0.0
Status,,53,52,4,194,1575420030,0.00,75.0,19.0,0,0,0,0.0
Status,,53,0,1,31,1575420030,0.00,353.0,60.0,0,0,0,0.0
Status,,53,1,1,26,1575420030,24.30,116.0,59.0,0,0,0,24.3
Status,,53,2,1,21,1575420030,0.00,252.0,38.0,0,0,0,0.0
Status,,53,3,1,16,1575420030,0.00,168.0,38.0,0,0,0,0.0
Status,,53,4,1,2,1575420030,0.00,272.0,32.0,0,0,0,0.0
Status,,53,5,1,10,1575420030,0.00,129.0,31.0,0,0,0,0.0
Status,,53,6,1,28,1575420030,0.00,26.0,30.0,0,0,0,0.0
Status,,53,7,1,32,1575420030,0.00,61.0,19.0,0,0,0,0.0
Status,,53,8,1,3,1575420030,0.00,329.0,18.0,0,0,0,0.0
Status,,53,9,1,4,1575420030,0.00,294.0,8.0,0,0,0,0.0
Status,,53,10,1,27,1575420030,0.00,181.0,8.0,0,0,0,0.0
Status,,53,11,1,8,1575420030,0.00,211.0,3.0,0,0,0,0.0
Status,,53,12,3,13,1602000000,0.00,43.0,58.0,0,0,0,0.0
Status,,53,13,3,14,1602000000,0.00,189.0,53.0,0,0,0,0.0
Status,,53,14,3,2,1602000000,0.00,58.0,30.0,0,0,0,0.0
Status,,53,15,3,3,1602000000,0.00,358.0,27.0,0,0,0,0.0
Status,,53,16,3,18,1602000000,0.00,263.0,20.0,0,0,0,0.0
Status,,53,17,3,17,1602000000,0.00,213.0,16.0,0,0,0,0.0
Status,,53,18,3,12,1602000000,0.00,29.0,13.0,0,0,0,0.0
Status,,53,19,3,19,1602000000,0.00,303.0,8.0,0,0,0,0.0
Status,,53,20,3,1,1602000000,0.00,103.0,7.0,0,0,0,0.0
Status,,53,21,3,15,1602000000,0.00,202.0,4.0,0,0,0,0.0
Status,,53,22,5,56,1561097980,0.00,43.0,76.0,0,0,0,0.0
Status,,53,23,5,2,1561097980,0.00,149.0,75.0,0,0,0,0.0
Status,,53,24,5,46,1561097980,0.00,48.0,75.0,0,0,0,0.0
Status,,53,25,5,60,1561097980,0.00,169.0,75.0,0,0,0,0.0
Status,,53,26,5,13,1561097980,0.00,133.0,66.0,0,0,0,0.0
Status,,53,27,5,5,1561097980,0.00,240.0,65.0,0,0,0,0.0
Status,,53,28,5,9,1561097980,0.00,2.0,56.0,0,0,0,0.0
Status,,53,29,5,8,1561097980,0.00,138.0,51.0,0,0,0,0.0
Status,,53,30,5,3,1561097980,0.00,109.0,49.0,0,0,0,0.0
Status,,53,31,5,20,1561097980,0.00,49.0,49.0,0,0,0,0.0
Status,,53,32,5,36,1561097980,0.00,212.0,49.0,0,0,0,0.0
Status,,53,33,5,61,1561097980,0.00,109.0,48.0,0,0,0,0.0
Status,,53,34,5,6,1561097980,0.00,16.0,45.0,0,0,0,0.0
Status,,53,35,5,16,1561097980,0.00,22.0,38.0,0,0,0,0.0
Status,,53,36,5,38,1561097980,0.00,141.0,36.0,0,0,0,0.0
Status,,53,37,5,19,1561097980,0.00,343.0,33.0,0,0,0,0.0
Status,,53,38,5,39,1561097980,0.00,27.0,31.0,0,0,0,0.0
Status,,53,39,5,10,1561097980,0.00,149.0,26.0,0,0,0,0.0
Status,,53,40,5,7,1561097980,0.00,136.0,25.0,0,0,0,0.0
Status,,53,41,5,37,1561097980,0.00,38.0,19.0,0,0,0,0.0
Status,,53,42,5,59,1561097980,0.00,96.0,18.0,0,0,0,0.0
Status,,53,43,5,29,1561097980,0.00,221.0,17.0,0,0,0,0.0
Status,,53,44,5,32,1561097980,0.00,105.0,16.0,0,0,0,0.0
Status,,53,45,5,1,1561097980,0.00,96.0,14.0,0,0,0,0.0
Status,,53,46,5,40,1561097980,0.00,128.0,14.0,0,0,0,0.0
Status,,53,47,5,30,1561097980,0.00,169.0,8.0,0,0,0,0.0
Status,,53,48,5,35,1561097980,0.00,275.0,4.0,0,0,0,0.0
Status,,53,49,5,45,1561097980,0.00,215.0,1.0,0,0,0,0.0
Status,,53,50,4,196,1575420030,0.00,87.0,42.0,0,0,0,0.0
Status,,53,51,4,199,1575420030,0.00,61.0,20.0,0,0,0,0.0
Status,,53,52,4,194,1575420030,0.00,75.0,19.0,0,0,0,0.0
Status,,53,0,1,31,1575420030,0.00,353.0,60.0,0,0,0,0.0
Status,,53,1,1,26,1575420030,27.80,116.0,59.0,0,0,0,27.8
Status,,53,2,1,21,1575420030,0.00,252.0,38.0,0,0,0,0.0
Status,,53,3,1,16,1575420030,0.00,168.0,38.0,0,0,0,0.0
Status,,53,4,1,2,1575420030,0.00,272.0,32.0,0,0,0,0.0
Status,,53,5,1,10,1575420030,20.60,129.0,31.0,0,0,0,20.6
Status,,53,6,1,28,1575420030,0.00,26.0,30.0,0,0,0,0.0
Status,,53,7,1,32,1575420030,0.00,61.0,19.0,0,0,0,0.0
Status,,53,8,1,3,1575420030,0.00,329.0,18.0,0,0,0,0.0
Status,,53,9,1,4,1575420030,0.00,295.0,8.0,0,0,0,0.0
Status,,53,10,1,27,1575420030,0.00,181.0,8.0,0,0,0,0.0
Status,,53,11,1,8,1575420030,0.00,211.0,3.0,0,0,0,0.0
Status,,53,12,3,13,1602000000,0.00,43.0,58.0,0,0,0,0.0
Status,,53,13,3,14,1602000000,0.00,189.0,53.0,0,0,0,0.0
Status,,53,14,3,2,1602000000,0.00,58.0,30.0,0,0,0,0.0
Status,,53,15,3,3,1602000000,0.00,358.0,27.0,0,0,0,0.0
Status,,53,16,3,18,1602000000,0.00,263.0,20.0,0,0,0,0.0
Status,,53,17,3,17,1602000000,0.00,213.0,16.0,0,0,0,0.0
Status,,53,18,3,12,1602000000,0.00,29.0,13.0,0,0,0,0.0
Status,,53,19,3,19,1602000000,0.00,303.0,8.0,0,0,0,0.0
Status,,53,20,3,1,1602000000,0.00,103.0,7.0,0,0,0,0.0
Status,,53,21,3,15,1602000000,0.00,202.0,4.0,0,0,0,0.0
Status,,53,22,5,56,1561097980,0.00,43.0,76.0,0,0,0,0.0
Status,,53,23,5,2,1561097980,0.00,149.0,75.0,0,0,0,0.0
Status,,53,24,5,46,1561097980,0.00,48.0,75.0,0,0,0,0.0
Status,,53,25,5,60,1561097980,0.00,169.0,75.0,0,0,0,0.0
Status,,53,26,5,13,1561097980,0.00,133.0,66.0,0,0,0,0.0
Status,,53,27,5,5,1561097980,0.00,240.0,65.0,0,0,0,0.0
Status,,53,28,5,9,1561097980,0.00,2.0,56.0,0,0,0,0.0
Status,,53,29,5,8,1561097980,0.00,138.0,51.0,0,0,0,0.0
Status,,53,30,5,3,1561097980,0.00,109.0,49.0,0,0,0,0.0
Status,,53,31,5,20,1561097980,0.00,49.0,49.0,0,0,0,0.0
Status,,53,32,5,36,1561097980,0.00,212.0,49.0,0,0,0,0.0
Status,,53,33,5,61,1561097980,0.00,109.0,48.0,0,0,0,0.0
Status,,53,34,5,6,1561097980,0.00,16.0,45.0,0,0,0,0.0
Status,,53,35,5,16,1561097980,0.00,22.0,38.0,0,0,0,0.0
Status,,53,36,5,38,1561097980,0.00,141.0,36.0,0,0,0,0.0
Status,,53,37,5,19,1561097980,0.00,343.0,33.0,0,0,0,0.0
Status,,53,38,5,39,1561097980,0.00,27.0,31.0,0,0,0,0.0
Status,,53,39,5,10,1561097980,0.00,149.0,26.0,0,0,0,0.0
Status,,53,40,5,7,1561097980,0.00,136.0,25.0,0,0,0,0.0
Status,,53,41,5,37,1561097980,0.00,38.0,19.0,0,0,0,0.0
Status,,53,42,5,59,1561097980,0.00,96.0,18.0,0,0,0,0.0
Status,,53,43,5,29,1561097980,0.00,221.0,17.0,0,0,0,0.0
Status,,53,44,5,32,1561097980,0.00,105.0,16.0,0,0,0,0.0
Status,,53,45,5,1,1561097980,0.00,96.0,14.0,0,0,0,0.0
Status,,53,46,5,40,1561097980,0.00,128.0,14.0,0,0,0,0.0
Status,,53,47,5,30,1561097980,0.00,169.0,8.0,0,0,0,0.0
Status,,53,48,5,35,1561097980,0.00,275.0,4.0,0,0,0,0.0
Status,,53,49,5,45,1561097980,0.00,215.0,1.0,0,0,0,0.0
Status,,53,50,4,196,1575420030,0.00,87.0,42.0,0,0,0,0.0
Status,,53,51,4,199,1575420030,0.00,61.0,20.0,0,0,0,0.0
Status,,53,52,4,194,1575420030,0.00,75.0,19.0,0,0,0,0.0
Status,,53,0,1,31,1575420030,0.00,353.0,60.0,0,0,0,0.0
Status,,53,1,1,26,1575420030,31.90,116.0,59.0,0,0,0,31.9
Status,,53,2,1,21,1575420030,0.00,252.0,38.0,0,0,0,0.0
Status,,53,3,1,16,1575420030,0.00,168.0,38.0,0,0,0,0.0
Status,,53,4,1,2,1575420030,0.00,272.0,32.0,0,0,0,0.0
Status,,53,5,1,10,1575420030,23.30,129.0,31.0,0,0,0,23.3
Status,,53,6,1,28,1575420030,0.00,26.0,30.0,0,0,0,0.0
Status,,53,7,1,32,1575420030,0.00,61.0,19.0,0,0,0,0.0
Status,,53,8,1,3,1575420030,0.00,329.0,18.0,0,0,0,0.0
Status,,53,9,1,4,1575420030,0.00,295.0,8.0,0,0,0,0.0
Status,,53,10,1,27,1575420030,0.00,181.0,8.0,0,0,0,0.0
Status,,53,11,1,8,1575420030,0.00,211.0,3.0,0,0,0,0.0
Status,,53,12,3,13,1602000000,0.00,43.0,58.0,0,0,0,0.0
Status,,53,13,3,14,1602000000,0.00,189.0,53.0,0,0,0,0.0
Status,,53,14,3,2,1602000000,0.00,58.0,30.0,0,0,0,0.0
Status,,53,15,3,3,1602000000,0.00,358.0,27.0,0,0,0,0.0
Status,,53,16,3,18,1602000000,0.00,263.0,20.0,0,0,0,0.0
Status,,53,17,3,17,1602000000,0.00,213.0,16.0,0,0,0,0.0
Status,,53,18,3,12,1602000000,0.00,29.0,13.0,0,0,0,0.0
Status,,53,19,3,19,1602000000,0.00,303.0,8.0,0,0,0,0.0
Status,,53,20,3,1,1602000000,0.00,103.0,7.0,0,0,0,0.0
Status,,53,21,3,15,1602000000,0.00,202.0,4.0,0,0,0,0.0
Status,,53,22,5,56,1561097980,0.00,43.0,76.0,0,0,0,0.0
Status,,53,23,5,2,1561097980,0.00,149.0,75.0,0,0,0,0.0
Status,,53,24,5,46,1561097980,0.00,48.0,75.0,0,0,0,0.0
Status,,53,25,5,60,1561097980,0.00,169.0,75.0,0,0,0,0.0
Status,,53,26,5,13,1561097980,0.00,133.0,66.0,0,0,0,0.0
Status,,53,27,5,5,1561097980,0.00,240.0,65.0,0,0,0,0.0
Status,,53,28,5,9,1561097980,0.00,2.0,56.0,0,0,0,0.0
Status,,53,29,5,8,1561097980,0.00,138.0,51.0,0,0,0,0.0
Status,,53,30,5,3,1561097980,0.00,109.0,49.0,0,0,0,0.0
Status,,53,31,5,20,1561097980,0.00,49.0,49.0,0,0,0,0.0
Status,,53,32,5,36,1561097980,0.00,212.0,49.0,0,0,0,0.0
Status,,53,33,5,61,1561097980,0.00,109.0,48.0,0,0,0,0.0
Status,,53,34,5,6,1561097980,0.00,16.0,45.0,0,0,0,0.0
Status,,53,35,5,16,1561097980,0.00,22.0,38.0,0,0,0,0.0
Status,,53,36,5,38,1561097980,0.00,141.0,36.0,0,0,0,0.0
Status,,53,37,5,19,1561097980,0.00,343.0,33.0,0,0,0,0.0
Status,,53,38,5,39,1561097980,0.00,27.0,31.0,0,0,0,0.0
Status,,53,39,5,10,1561097980,0.00,149.0,26.0,0,0,0,0.0
Status,,53,40,5,7,1561097980,0.00,136.0,25.0,0,0,0,0.0
Status,,53,41,5,37,1561097980,0.00,38.0,19.0,0,0,0,0.0
Status,,53,42,5,59,1561097980,0.00,96.0,18.0,0,0,0,0.0
Status,,53,43,5,29,1561097980,0.00,221.0,17.0,0,0,0,0.0
Status,,53,44,5,32,1561097980,0.00,105.0,16.0,0,0,0,0.0
Status,,53,45,5,1,1561097980,0.00,96.0,14.0,0,0,0,0.0
Status,,53,46,5,40,1561097980,0.00,128.0,14.0,0,0,0,0.0
Status,,53,47,5,30,1561097980,0.00,169.0,8.0,0,0,0,0.0
Status,,53,48,5,35,1561097980,0.00,275.0,4.0,0,0,0,0.0
Status,,53,49,5,45,1561097980,0.00,215.0,1.0,0,0,0,0.0
Status,,53,50,4,196,1575420030,0.00,87.0,42.0,0,0,0,0.0
Status,,53,51,4,199,1575420030,0.00,61.0,20.0,0,0,0,0.0
Status,,53,52,4,194,1575420030,0.00,75.0,19.0,0,0,0,0.0
Status,,53,0,1,31,1575420030,0.00,353.0,60.0,0,0,0,0.0
Status,,53,1,1,26,1575420030,29.30,116.0,59.0,0,0,0,29.3
Status,,53,2,1,21,1575420030,0.00,252.0,38.0,0,0,0,0.0
Status,,53,3,1,16,1575420030,0.00,168.0,38.0,0,0,0,0.0
Status,,53,4,1,2,1575420030,0.00,272.0,32.0,0,0,0,0.0
Status,,53,5,1,10,1575420030,24.40,129.0,31.0,0,0,0,24.4
Status,,53,6,1,28,1575420030,0.00,26.0,30.0,0,0,0,0.0
Status,,53,7,1,32,1575420030,0.00,61.0,19.0,0,0,0,0.0
Status,,53,8,1,3,1575420030,0.00,329.0,18.0,0,0,0,0.0
Status,,53,9,1,4,1575420030,0.00,295.0,8.0,0,0,0,0.0
Status,,53,10,1,27,1575420030,0.00,181.0,8.0,0,0,0,0.0
Status,,53,11,1,8,1575420030,0.00,211.0,3.0,0,0,0,0.0
Status,,53,12,3,13,1602000000,0.00,43.0,58.0,0,0,0,0.0
Status,,53,13,3,14,1602000000,0.00,189.0,53.0,0,0,0,0.0
Status,,53,14,3,2,1602000000,0.00,58.0,30.0,0,0,0,0.0
Status,,53,15,3,3,1602000000,0.00,358.0,27.0,0,0,0,0.0
Status,,53,16,3,18,1602000000,0.00,263.0,20.0,0,0,0,0.0
Status,,53,17,3,17,1602000000,0.00,213.0,16.0,0,0,0,0.0
Status,,53,18,3,12,1602000000,0.00,29.0,13.0,0,0,0,0.0
Status,,53,19,3,19,1602000000,0.00,303.0,8.0,0,0,0,0.0
Status,,53,20,3,1,1602000000,0.00,103.0,7.0,0,0,0,0.0
Status,,53,21,3,15,1602000000,0.00,202.0,4.0,0,0,0,0.0
Status,,53,22,5,56,1561097980,0.00,43.0,76.0,0,0,0,0.0
Status,,53,23,5,2,1561097980,0.00,149.0,75.0,0,0,0,0.0
Status,,53,24,5,46,1561097980,0.00,48.0,75.0,0,0,0,0.0
Status,,53,25,5,60,1561097980,0.00,169.0,75.0,0,0,0,0.0
Status,,53,26,5,13,1561097980,0.00,133.0,66.0,0,0,0,0.0
Status,,53,27,5,5,1561097980,0.00,240.0,65.0,0,0,0,0.0
Status,,53,28,5,9,1561097980,0.00,2.0,56.0,0,0,0,0.0
Status,,53,29,5,8,1561097980,0.00,138.0,51.0,0,0,0,0.0
Status,,53,30,5,3,1561097980,0.00,109.0,49.0,0,0,0,0.0
Status,,53,31,5,20,1561097980,0.00,49.0,49.0,0,0,0,0.0
Status,,53,32,5,36,1561097980,0.00,212.0,49.0,0,0,0,0.0
Status,,53,33,5,61,1561097980,0.00,109.0,48.0,0,0,0,0.0
Status,,53,34,5,6,1561097980,0.00,16.0,45.0,0,0,0,0.0
Status,,53,35,5,16,1561097980,0.00,22.0,38.0,0,0,0,0.0
Status,,53,36,5,38,1561097980,0.00,141.0,36.0,0,0,0,0.0
Status,,53,37,5,19,1561097980,0.00,343.0,33.0,0,0,0,0.0
Status,,53,38,5,39,1561097980,0.00,27.0,31.0,0,0,0,0.0
Status,,53,39,5,10,1561097980,0.00,149.0,26.0,0,0,0,0.0
Status,,53,40,5,7,1561097980,0.00,136.0,25.0,0,0,0,0.0
Status,,53,41,5,37,1561097980,0.00,38.0,19.0,0,0,0,0.0
Status,,53,42,5,59,1561097980,0.00,96.0,18.0,0,0,0,0.0
Status,,53,43,5,29,1561097980,0.00,221.0,17.0,0,0,0,0.0
Status,,53,44,5,32,1561097980,0.00,105.0,16.0,0,0,0,0.0
Status,,53,45,5,1,1561097980,0.00,96.0,14.0,0,0,0,0.0
Status,,53,46,5,40,1561097980,0.00,128.0,14.0,0,0,0,0.0
Status,,53,47,5,30,1561097980,0.00,169.0,8.0,0,0,0,0.0
Status,,53,48,5,35,1561097980,0.00,275.0,4.0,0,0,0,0.0
Status,,53,49,5,45,1561097980,0.00,215.0,1.0,0,0,0,0.0
Status,,53,50,4,196,1575420030,0.00,87.0,42.0,0,0,0,0.0
Status,,53,51,4,199,1575420030,0.00,61.0,20.0,0,0,0,0.0
Status,,53,52,4,194,1575420030,0.00,75.0,19.0,0,0,0,0.0
Status,,53,0,1,31,1575420030,0.00,353.0,60.0,0,0,0,0.0
Status,,53,1,1,26,1575420030,29.70,116.0,59.0,0,0,0,29.7
Status,,53,2,1,21,1575420030,0.00,252.0,38.0,0,0,0,0.0
Status,,53,3,1,16,1575420030,0.00,168.0,38.0,0,0,0,0.0
Status,,53,4,1,2,1575420030,0.00,272.0,32.0,0,0,0,0.0
Status,,53,5,1,10,1575420030,20.70,129.0,31.0,0,0,0,20.7
Status,,53,6,1,28,1575420030,0.00,26.0,30.0,0,0,0,0.0
Status,,53,7,1,32,1575420030,0.00,61.0,19.0,0,0,0,0.0
Status,,53,8,1,3,1575420030,0.00,329.0,18.0,0,0,0,0.0
Status,,53,9,1,4,1575420030,0.00,295.0,8.0,0,0,0,0.0
Status,,53,10,1,27,1575420030,0.00,181.0,8.0,0,0,0,0.0
Status,,53,11,1,8,1575420030,0.00,211.0,3.0,0,0,0,0.0
Status,,53,12,3,13,1602000000,0.00,43.0,58.0,0,0,0,0.0
Status,,53,13,3,14,1602000000,0.00,189.0,53.0,0,0,0,0.0
Status,,53,14,3,2,1602000000,0.00,58.0,30.0,0,0,0,0.0
Status,,53,15,3,3,1602000000,0.00,358.0,27.0,0,0,0,0.0
Status,,53,16,3,18,1602000000,0.00,263.0,20.0,0,0,0,0.0
Status,,53,17,3,17,1602000000,0.00,213.0,16.0,0,0,0,0.0
Status,,53,18,3,12,1602000000,0.00,29.0,13.0,0,0,0,0.0
Status,,53,19,3,19,1602000000,0.00,303.0,8.0,0,0,0,0.0
Status,,53,20,3,1,1602000000,0.00,103.0,7.0,0,0,0,0.0
Status,,53,21,3,15,1602000000,0.00,202.0,4.0,0,0,0,0.0
Status,,53,22,5,56,1561097980,0.00,43.0,76.0,0,0,0,0.0
Status,,53,23,5,2,1561097980,0.00,149.0,75.0,0,0,0,0.0
Status,,53,24,5,46,1561097980,0.00,48.0,75.0,0,0,0,0.0
Status,,53,25,5,60,1561097980,0.00,169.0,75.0,0,0,0,0.0
Status,,53,26,5,13,1561097980,0.00,133.0,66.0,0,0,0,0.0
Status,,53,27,5,5,1561097980,0.00,240.0,65.0,0,0,0,0.0
Status,,53,28,5,9,1561097980,0.00,2.0,56.0,0,0,0,0.0
Status,,53,29,5,8,1561097980,0.00,138.0,51.0,0,0,0,0.0
Status,,53,30,5,3,1561097980,0.00,109.0,49.0,0,0,0,0.0
Status,,53,31,5,20,1561097980,0.00,49.0,49.0,0,0,0,0.0
Status,,53,32,5,36,1561097980,0.00,212.0,49.0,0,0,0,0.0
Status,,53,33,5,61,1561097980,0.00,109.0,48.0,0,0,0,0.0
Status,,53,34,5,6,1561097980,0.00,16.0,45.0,0,0,0,0.0
Status,,53,35,5,16,1561097980,0.00,22.0,38.0,0,0,0,0.0
Status,,53,36,5,38,1561097980,0.00,141.0,36.0,0,0,0,0.0
Status,,53,37,5,19,1561097980,0.00,343.0,33.0,0,0,0,0.0
Status,,53,38,5,39,1561097980,0.00,27.0,31.0,0,0,0,0.0
Status,,53,39,5,10,1561097980,0.00,149.0,26.0,0,0,0,0.0
Status,,53,40,5,7,1561097980,0.00,136.0,25.0,0,0,0,0.0
Status,,53,41,5,37,1561097980,0.00,38.0,19.0,0,0,0,0.0
Status,,53,42,5,59,1561097980,0.00,96.0,18.0,0,0,0,0.0
Status,,53,43,5,29,1561097980,0.00,221.0,17.0,0,0,0,0.0
Status,,53,44,5,32,1561097980,0.00,105.0,16.0,0,0,0,0.0
Status,,53,45,5,1,1561097980,0.00,96.0,14.0,0,0,0,0.0
Status,,53,46,5,40,1561097980,0.00,128.0,14.0,0,0,0,0.0
Status,,53,47,5,30,1561097980,0.00,169.0,8.0,0,0,0,0.0
Status,,53,48,5,35,1561097980,0.00,275.0,4.0,0,0,0,0.0
Status,,53,49,5,45,1561097980,0.00,215.0,1.0,0,0,0,0.0
Status,,53,50,4,196,1575420030,0.00,87.0,42.0,0,0,0,0.0
Status,,53,51,4,199,1575420030,0.00,61.0,20.0,0,0,0,0.0
Status,,53,52,4,194,1575420030,0.00,75.0,19.0,0,0,0,0.0
Status,,53,0,1,31,1575420030,0.00,353.0,60.0,0,0,0,0.0
Status,,53,1,1,26,1575420030,28.30,116.0,59.0,0,0,0,28.3
Status,,53,2,1,21,1575420030,0.00,252.0,38.0,0,0,0,0.0
Status,,53,3,1,16,1575420030,0.00,168.0,38.0,0,0,0,0.0
Status,,53,4,1,2,1575420030,0.00,272.0,32.0,0,0,0,0.0
Status,,53,5,1,10,1575420030,20.70,129.0,31.0,0,0,0,20.7
Status,,53,6,1,28,1575420030,0.00,26.0,30.0,0,0,0,0.0
Status,,53,7,1,32,1575420030,0.00,61.0,19.0,0,0,0,0.0
Status,,53,8,1,3,1575420030,0.00,329.0,18.0,0,0,0,0.0
Status,,53,9,1,4,1575420030,0.00,295.0,8.0,0,0,0,0.0
Status,,53,10,1,27,1575420030,0.00,181.0,8.0,0,0,0,0.0
Status,,53,11,1,8,1575420030,0.00,211.0,3.0,0,0,0,0.0
Status,,53,12,3,13,1602000000,0.00,43.0,58.0,0,0,0,0.0
Status,,53,13,3,14,1602000000,0.00,189.0,53.0,0,0,0,0.0
Status,,53,14,3,2,1602000000,0.00,58.0,30.0,0,0,0,0.0
Status,,53,15,3,3,1602000000,0.00,358.0,27.0,0,0,0,0.0
Status,,53,16,3,18,1602000000,0.00,263.0,20.0,0,0,0,0.0
Status,,53,17,3,17,1602000000,0.00,213.0,16.0,0,0,0,0.0
Status,,53,18,3,12,1602000000,0.00,29.0,13.0,0,0,0,0.0
Status,,53,19,3,19,1602000000,0.00,303.0,8.0,0,0,0,0.0
Status,,53,20,3,1,1602000000,0.00,103.0,7.0,0,0,0,0.0
Status,,53,21,3,15,1602000000,0.00,202.0,4.0,0,0,0,0.0
Status,,53,22,5,56,1561097980,0.00,43.0,76.0,0,0,0,0.0
Status,,53,23,5,2,1561097980,0.00,149.0,75.0,0,0,0,0.0
Status,,53,24,5,46,1561097980,0.00,48.0,75.0,0,0,0,0.0
Status,,53,25,5,60,1561097980,0.00,169.0,75.0,0,0,0,0.0
Status,,53,26,5,13,1561097980,0.00,133.0,66.0,0,0,0,0.0
Status,,53,27,5,5,1561097980,0.00,240.0,65.0,0,0,0,0.0
Status,,53,28,5,9,1561097980,0.00,2.0,56.0,0,0,0,0.0
Status,,53,29,5,8,1561097980,0.00,138.0,51.0,0,0,0,0.0
Status,,53,30,5,3,1561097980,0.00,109.0,49.0,0,0,0,0.0
Status,,53,31,5,20,1561097980,0.00,49.0,49.0,0,0,0,0.0
Status,,53,32,5,36,1561097980,0.00,212.0,49.0,0,0,0,0.0
Status,,53,33,5,61,1561097980,0.00,109.0,48.0,0,0,0,0.0
Status,,53,34,5,6,1561097980,0.00,16.0,45.0,0,0,0,0.0
Status,,53,35,5,16,1561097980,0.00,22.0,38.0,0,0,0,0.0
Status,,53,36,5,38,1561097980,0.00,141.0,36.0,0,0,0,0.0
Status,,53,37,5,19,1561097980,0.00,343.0,33.0,0,0,0,0.0
Status,,53,38,5,39,1561097980,0.00,27.0,31.0,0,0,0,0.0
Status,,53,39,5,10,1561097980,0.00,149.0,26.0,0,0,0,0.0
Status,,53,40,5,7,1561097980,0.00,136.0,25.0,0,0,0,0.0
Status,,53,41,5,37,1561097980,0.00,38.0,19.0,0,0,0,0.0
Status,,53,42,5,59,1561097980,0.00,96.0,18.0,0,0,0,0.0
Status,,53,43,5,29,1561097980,0.00,221.0,17.0,0,0,0,0.0
Status,,53,44,5,32,1561097980,0.00,105.0,16.0,0,0,0,0.0
Status,,53,45,5,1,1561097980,0.00,96.0,14.0,0,0,0,0.0
Status,,53,46,5,40,1561097980,0.00,128.0,14.0,0,0,0,0.0
Status,,53,47,5,30,1561097980,0.00,169.0,8.0,0,0,0,0.0
Status,,53,48,5,35,1561097980,0.00,275.0,4.0,0,0,0,0.0
Status,,53,49,5,45,1561097980,0.00,215.0,1.0,0,0,0,0.0
Status,,53,50,4,196,1575420030,0.00,87.0,42.0,0,0,0,0.0
Status,,53,51,4,199,1575420030,0.00,61.0,20.0,0,0,0,0.0
Status,,53,52,4,194,1575420030,0.00,75.0,19.0,0,0,0,0.0
Status,,53,0,1,31,1575420030,0.00,353.0,60.0,0,0,0,0.0
Status,,53,1,1,26,1575420030,27.20,116.0,59.0,0,0,0,27.2
Status,,53,2,1,21,1575420030,20.50,252.0,38.0,0,0,0,20.5
Status,,53,3,1,16,1575420030,0.00,168.0,38.0,0,0,0,0.0
Status,,53,4,1,2,1575420030,0.00,272.0,32.0,0,0,0,0.0
Status,,53,5,1,10,1575420030,13.80,129.0,31.0,0,0,0,13.8
Status,,53,6,1,28,1575420030,0.00,26.0,30.0,0,0,0,0.0
Status,,53,7,1,32,1575420030,0.00,61.0,19.0,0,0,0,0.0
Status,,53,8,1,3,1575420030,0.00,329.0,18.0,0,0,0,0.0
Status,,53,9,1,4,1575420030,0.00,295.0,8.0,0,0,0,0.0
Status,,53,10,1,27,1575420030,0.00,181.0,8.0,0,0,0,0.0
Status,,53,11,1,8,1575420030,0.00,211.0,3.0,0,0,0,0.0
Status,,53,12,3,13,1602000000,0.00,43.0,58.0,0,0,0,0.0
Status,,53,13,3,14,1602000000,0.00,189.0,53.0,0,0,0,0.0
Status,,53,14,3,2,1602000000,0.00,58.0,30.0,0,0,0,0.0
Status,,53,15,3,3,1602000000,0.00,358.0,27.0,0,0,0,0.0
Status,,53,16,3,18,1602000000,0.00,263.0,20.0,0,0,0,0.0
Status,,53,17,3,17,1602000000,0.00,213.0,16.0,0,0,0,0.0
Status,,53,18,3,12,1602000000,0.00,29.0,13.0,0,0,0,0.0
Status,,53,19,3,19,1602000000,0.00,303.0,8.0,0,0,0,0.0
Status,,53,20,3,1,1602000000,0.00,103.0,7.0,0,0,0,0.0
Status,,53,21,3,15,1602000000,0.00,202.0,4.0,0,0,0,0.0
Status,,53,22,5,56,1561097980,0.00,43.0,76.0,0,0,0,0.0
Status,,53,23,5,2,1561097980,0.00,149.0,75.0,0,0,0,0.0
Status,,53,24,5,46,1561097980,0.00,48.0,75.0,0,0,0,0.0
Status,,53,25,5,60,1561097980,0.00,169.0,75.0,0,0,0,0.0
Status,,53,26,5,13,1561097980,0.00,133.0,66.0,0,0,0,0.0
Status,,53,27,5,5,1561097980,0.00,240.0,65.0,0,0,0,0.0
Status,,53,28,5,9,1561097980,0.00,2.0,56.0,0,0,0,0.0
Status,,53,29,5,8,1561097980,0.00,138.0,51.0,0,0,0,0.0
Status,,53,30,5,3,1561097980,0.00,109.0,49.0,0,0,0,0.0
Status,,53,31,5,20,1561097980,0.00,49.0,49.0,0,0,0,0.0
Status,,53,32,5,36,1561097980,0.00,212.0,49.0,0,0,0,0.0
Status,,53,33,5,61,1561097980,0.00,109.0,48.0,0,0,0,0.0
Status,,53,34,5,6,1561097980,0.00,16.0,45.0,0,0,0,0.0
Status,,53,35,5,16,1561097980,0.00,22.0,38.0,0,0,0,0.0
Status,,53,36,5,38,1561097980,0.00,141.0,36.0,0,0,0,0.0
Status,,53,37,5,19,1561097980,0.00,343.0,33.0,0,0,0,0.0
Status,,53,38,5,39,1561097980,0.00,27.0,31.0,0,0,0,0.0
Status,,53,39,5,10,1561097980,0.00,149.0,26.0,0,0,0,0.0
Status,,53,40,5,7,1561097980,0.00,136.0,25.0,0,0,0,0.0
Status,,53,41,5,37,1561097980,0.00,38.0,19.0,0,0,0,0.0
Status,,53,42,5,59,1561097980,0.00,96.0,18.0,0,0,0,0.0
Status,,53,43,5,29,1561097980,0.00,221.0,17.0,0,0,0,0.0
Status,,53,44,5,32,1561097980,0.00,105.0,16.0,0,0,0,0.0
Status,,53,45,5,1,1561097980,0.00,96.0,14.0,0,0,0,0.0
Status,,53,46,5,40,1561097980,0.00,128.0,14.0,0,0,0,0.0
Status,,53,47,5,30,1561097980,0.00,169.0,8.0,0,0,0,0.0
Status,,53,48,5,35,1561097980,0.00,275.0,4.0,0,0,0,0.0
Status,,53,49,5,45,1561097980,0.00,215.0,1.0,0,0,0,0.0
Status,,53,50,4,196,1575420030,0.00,87.0,42.0,0,0,0,0.0
Status,,53,51,4,199,1575420030,0.00,61.0,20.0,0,0,0,0.0
Status,,53,52,4,194,1575420030,0.00,75.0,19.0,0,0,0,0.0
Status,,53,0,1,31,1575420030,0.00,353.0,60.0,0,0,0,0.0
Status,,53,1,1,26,1575420030,29.80,116.0,59.0,0,0,0,29.8
Status,,53,2,1,21,1575420030,23.00,252.0,38.0,0,0,0,23.0
Status,,53,3,1,16,1575420030,0.00,168.0,38.0,0,0,0,0.0
Status,,53,4,1,2,1575420030,0.00,272.0,32.0,0,0,0,0.0
Status,,53,5,1,10,1575420030,13.80,129.0,31.0,0,0,0,13.8
Status,,53,6,1,28,1575420030,0.00,26.0,30.0,0,0,0,0.0
Status,,53,7,1,32,1575420030,0.00,61.0,19.0,0,0,0,0.0
Status,,53,8,1,3,1575420030,0.00,329.0,18.0,0,0,0,0.0
Status,,53,9,1,4,1575420030,0.00,295.0,8.0,0,0,0,0.0
Status,,53,10,1,27,1575420030,0.00,181.0,8.0,0,0,0,0.0
Status,,53,11,1,8,1575420030,0.00,211.0,3.0,0,0,0,0.0
Status,,53,12,3,13,1602000000,0.00,43.0,58.0,0,0,0,0.0
Status,,53,13,3,14,1602000000,29.50,189.0,53.0,0,0,0,29.5
Status,,53,14,3,2,1602000000,0.00,58.0,30.0,0,0,0,0.0
Status,,53,15,3,3,1602000000,0.00,358.0,27.0,0,0,0,0.0
Status,,53,16,3,18,1602000000,0.00,263.0,20.0,0,0,0,0.0
Status,,53,17,3,17,1602000000,0.00,213.0,16.0,0,0,0,0.0
Status,,53,18,3,12,1602000000,0.00,29.0,13.0,0,0,0,0.0
Status,,53,19,3,19,1602000000,0.00,303.0,8.0,0,0,0,0.0
Status,,53,20,3,1,1602000000,0.00,103.0,7.0,0,0,0,0.0
Status,,53,21,3,15,1602000000,0.00,202.0,4.0,0,0,0,0.0
Status,,53,22,5,56,1561097980,0.00,43.0,76.0,0,0,0,0.0
Status,,53,23,5,2,1561097980,0.00,149.0,75.0,0,0,0,0.0
Status,,53,24,5,46,1561097980,0.00,48.0,75.0,0,0,0,0.0
Status,,53,25,5,60,1561097980,0.00,169.0,75.0,0,0,0,0.0
Status,,53,26,5,13,1561097980,0.00,133.0,66.0,0,0,0,0.0
Status,,53,27,5,5,1561097980,0.00,240.0,65.0,0,0,0,0.0
Status,,53,28,5,9,1561097980,0.00,2.0,56.0,0,0,0,0.0
Status,,53,29,5,8,1561097980,0.00,138.0,51.0,0,0,0,0.0
Status,,53,30,5,3,1561097980,0.00,109.0,49.0,0,0,0,0.0
Status,,53,31,5,20,1561097980,0.00,49.0,49.0,0,0,0,0.0
Status,,53,32,5,36,1561097980,0.00,212.0,49.0,0,0,0,0.0
Status,,53,33,5,61,1561097980,0.00,109.0,48.0,0,0,0,0.0
Status,,53,34,5,6,1561097980,0.00,16.0,45.0,0,0,0,0.0
Status,,53,35,5,16,1561097980,0.00,22.0,38.0,0,0,0,0.0
Status,,53,36,5,38,1561097980,0.00,141.0,36.0,0,0,0,0.0
Status,,53,37,5,19,1561097980,0.00,343.0,33.0,0,0,0,0.0
Status,,53,38,5,39,1561097980,0.00,27.0,31.0,0,0,0,0.0
Status,,53,39,5,10,1561097980,0.00,149.0,26.0,0,0,0,0.0
Status,,53,40,5,7,1561097980,0.00,136.0,25.0,0,0,0,0.0
Status,,53,41,5,37,1561097980,0.00,38.0,19.0,0,0,0,0.0
Status,,53,42,5,59,1561097980,0.00,96.0,18.0,0,0,0,0.0
Status,,53,43,5,29,1561097980,0.00,221.0,17.0,0,0,0,0.0
Status,,53,44,5,32,1561097980,0.00,105.0,16.0,0,0,0,0.0
Status,,53,45,5,1,1561097980,0.00,96.0,14.0,0,0,0,0.0
Status,,53,46,5,40,1561097980,0.00,128.0,14.0,0,0,0,0.0
Status,,53,47,5,30,1561097980,0.00,169.0,8.0,0,0,0,0.0
Status,,53,48,5,35,1561097980,0.00,275.0,4.0,0,0,0,0.0
Status,,53,49,5,45,1561097980,0.00,215.0,1.0,0,0,0,0.0
Status,,53,50,4,196,1575420030,0.00,87.0,42.0,0,0,0,0.0
Status,,53,51,4,199,1575420030,0.00,61.0,20.0,0,0,0,0.0
Status,,53,52,4,194,1575420030,0.00,75.0,19.0,0,0,0,0.0
Status,,53,0,1,31,1575420030,0.00,353.0,60.0,0,0,0,0.0
Status,,53,1,1,26,1575420030,28.90,116.0,59.0,0,0,0,28.9
Status,,53,2,1,21,1575420030,24.90,252.0,38.0,0,0,0,24.9
Status,,53,3,1,16,1575420030,0.00,168.0,38.0,0,0,0,0.0
Status,,53,4,1,2,1575420030,0.00,272.0,32.0,0,0,0,0.0
Status,,53,5,1,10,1575420030,13.80,129.0,31.0,0,0,0,13.8
Status,,53,6,1,28,1575420030,0.00,26.0,30.0,0,0,0,0.0
Status,,53,7,1,32,1575420030,0.00,61.0,19.0,0,0,0,0.0
Status,,53,8,1,3,1575420030,0.00,329.0,18.0,0,0,0,0.0
Status,,53,9,1,4,1575420030,0.00,295.0,8.0,0,0,0,0.0
Status,,53,10,1,27,1575420030,0.00,181.0,8.0,0,0,0,0.0
Status,,53,11,1,8,1575420030,0.00,211.0,3.0,0,0,0,0.0
Status,,53,12,3,13,1602000000,0.00,43.0,58.0,0,0,0,0.0
Status,,53,13,3,14,1602000000,24.20,189.0,53.0,0,0,0,24.2
Status,,53,14,3,2,1602000000,0.00,58.0,30.0,0,0,0,0.0
Status,,53,15,3,3,1602000000,0.00,358.0,27.0,0,0,0,0.0
Status,,53,16,3,18,1602000000,0.00,263.0,20.0,0,0,0,0.0
Status,,53,17,3,17,1602000000,0.00,213.0,16.0,0,0,0,0.0
Status,,53,18,3,12,1602000000,0.00,29.0,13.0,0,0,0,0.0
Status,,53,19,3,19,1602000000,0.00,303.0,8.0,0,0,0,0.0
Status,,53,20,3,1,1602000000,0.00,103.0,7.0,0,0,0,0.0
Status,,53,21,3,15,1602000000,0.00,202.0,4.0,0,0,0,0.0
Status,,53,22,5,56,1561097980,0.00,43.0,76.0,0,0,0,0.0
Status,,53,23,5,2,1561097980,0.00,149.0,75.0,0,0,0,0.0
Status,,53,24,5,46,1561097980,0.00,48.0,75.0,0,0,0,0.0
Status,,53,25,5,60,1561097980,0.00,169.0,75.0,0,0,0,0.0
Status,,53,26,5,13,1561097980,0.00,133.0,66.0,0,0,0,0.0
Status,,53,27,5,5,1561097980,0.00,240.0,65.0,0,0,0,0.0
Status,,53,28,5,9,1561097980,0.00,2.0,56.0,0,0,0,0.0
Status,,53,29,5,8,1561097980,0.00,138.0,51.0,0,0,0,0.0
Status,,53,30,5,3,1561097980,0.00,109.0,49.0,0,0,0,0.0
Status,,53,31,5,20,1561097980,0.00,49.0,49.0,0,0,0,0.0
Status,,53,32,5,36,1561097980,0.00,212.0,49.0,0,0,0,0.0
Status,,53,33,5,61,1561097980,0.00,109.0,48.0,0,0,0,0.0
Status,,53,34,5,6,1561097980,0.00,16.0,45.0,0,0,0,0.0
Status,,53,35,5,16,1561097980,0.00,22.0,38.0,0,0,0,0.0
Status,,53,36,5,38,1561097980,0.00,141.0,36.0,0,0,0,0.0
Status,,53,37,5,19,1561097980,0.00,343.0,33.0,0,0,0,0.0
Status,,53,38,5,39,1561097980,0.00,27.0,31.0,0,0,0,0.0
Status,,53,39,5,10,1561097980,0.00,149.0,26.0,0,0,0,0.0
Status,,53,40,5,7,1561097980,0.00,136.0,25.0,0,0,0,0.0
Status,,53,41,5,37,1561097980,0.00,38.0,19.0,0,0,0,0.0
Status,,53,42,5,59,1561097980,0.00,96.0,18.0,0,0,0,0.0
Status,,53,43,5,29,1561097980,0.00,221.0,17.0,0,0,0,0.0
Status,,53,44,5,32,1561097980,0.00,105.0,16.0,0,0,0,0.0
Status,,53,45,5,1,1561097980,0.00,96.0,14.0,0,0,0,0.0
Status,,53,46,5,40,1561097980,0.00,128.0,14.0,0,0,0,0.0
Status,,53,47,5,30,1561097980,0.00,169.0,8.0,0,0,0,0.0
Status,,53,48,5,35,1561097980,0.00,275.0,4.0,0,0,0,0.0
Status,,53,49,5,45,1561097980,0.00,215.0,1.0,0,0,0,0.0
Status,,53,50,4,196,1575420030,0.00,87.0,42.0,0,0,0,0.0
Status,,53,51,4,199,1575420030,0.00,61.0,20.0,0,0,0,0.0
Status,,53,52,4,194,1575420030,0.00,75.0,19.0,0,0,0,0.0
Status,,53,0,1,31,1575420030,0.00,353.0,60.0,0,0,0,0.0
Status,,53,1,1,26,1575420030,26.10,116.0,59.0,0,0,0,26.1
Status,,53,2,1,21,1575420030,23.60,252.0,38.0,0,0,0,23.6
Status,,53,3,1,16,1575420030,0.00,168.0,38.0,0,0,0,0.0
Status,,53,4,1,2,1575420030,0.00,272.0,32.0,0,0,0,0.0
Status,,53,5,1,10,1575420030,21.70,129.0,31.0,0,0,0,21.7
Status,,53,6,1,28,1575420030,0.00,26.0,30.0,0,0,0,0.0
Status,,53,7,1,32,1575420030,0.00,61.0,19.0,0,0,0,0.0
Status,,53,8,1,3,1575420030,0.00,329.0,18.0,0,0,0,0.0
Status,,53,9,1,4,1575420030,0.00,295.0,8.0,0,0,0,0.0
Status,,53,10,1,27,1575420030,0.00,181.0,8.0,0,0,0,0.0
Status,,53,11,1,8,1575420030,0.00,211.0,3.0,0,0,0,0.0
Status,,53,12,3,13,1602000000,0.00,43.0,58.0,0,0,0,0.0
Status,,53,13,3,14,1602000000,28.00,189.0,53.0,0,0,0,28.0
Status,,53,14,3,2,1602000000,0.00,58.0,30.0,0,0,0,0.0
Status,,53,15,3,3,1602000000,0.00,358.0,27.0,0,0,0,0.0
Status,,53,16,3,18,1602000000,0.00,263.0,20.0,0,0,0,0.0
Status,,53,17,3,17,1602000000,0.00,213.0,16.0,0,0,0,0.0
Status,,53,18,3,12,1602000000,0.00,29.0,13.0,0,0,0,0.0
Status,,53,19,3,19,1602000000,0.00,303.0,8.0,0,0,0,0.0
Status,,53,20,3,1,1602000000,0.00,103.0,7.0,0,0,0,0.0
Status,,53,21,3,15,1602000000,0.00,202.0,4.0,0,0,0,0.0
Status,,53,22,5,56,1561097980,0.00,43.0,76.0,0,0,0,0.0
Status,,53,23,5,2,1561097980,0.00,149.0,75.0,0,0,0,0.0
Status,,53,24,5,46,1561097980,0.00,48.0,75.0,0,0,0,0.0
Status,,53,25,5,60,1561097980,0.00,169.0,75.0,0,0,0,0.0
Status,,53,26,5,13,1561097980,0.00,133.0,66.0,0,0,0,0.0
Status,,53,27,5,5,1561097980,0.00,240.0,65.0,0,0,0,0.0
Status,,53,28,5,9,1561097980,0.00,2.0,56.0,0,0,0,0.0
Status,,53,29,5,8,1561097980,0.00,138.0,51.0,0,0,0,0.0
Status,,53,30,5,3,1561097980,0.00,109.0,49.0,0,0,0,0.0
Status,,53,31,5,20,1561097980,0.00,49.0,49.0,0,0,0,0.0
Status,,53,32,5,36,1561097980,0.00,212.0,49.0,0,0,0,0.0
Status,,53,33,5,61,1561097980,0.00,109.0,48.0,0,0,0,0.0
Status,,53,34,5,6,1561097980,0.00,16.0,45.0,0,0,0,0.0
Status,,53,35,5,16,1561097980,0.00,22.0,38.0,0,0,0,0.0
Status,,53,36,5,38,1561097980,0.00,141.0,36.0,0,0,0,0.0
Status,,53,37,5,19,1561097980,0.00,343.0,33.0,0,0,0,0.0
Status,,53,38,5,39,1561097980,0.00,27.0,31.0,0,0,0,0.0
Status,,53,39,5,10,1561097980,0.00,149.0,26.0,0,0,0,0.0
Status,,53,40,5,7,1561097980,0.00,136.0,25.0,0,0,0,0.0
Status,,53,41,5,37,1561097980,0.00,38.0,19.0,0,0,0,0.0
Status,,53,42,5,59,1561097980,0.00,96.0,18.0,0,0,0,0.0
Status,,53,43,5,29,1561097980,0.00,221.0,17.0,0,0,0,0.0
Status,,53,44,5,32,1561097980,0.00,105.0,16.0,0,0,0,0.0
Status,,53,45,5,1,1561097980,0.00,96.0,14.0,0,0,0,0.0
Status,,53,46,5,40,1561097980,0.00,128.0,14.0,0,0,0,0.0
Status,,53,47,5,30,1561097980,0.00,169.0,8.0,0,0,0,0.0
Status,,53,48,5,35,1561097980,0.00,275.0,4.0,0,0,0,0.0
Status,,53,49,5,45,1561097980,0.00,215.0,1.0,0,0,0,0.0
Status,,53,50,4,196,1575420030,0.00,87.0,42.0,0,0,0,0.0
Status,,53,51,4,199,1575420030,0.00,61.0,20.0,0,0,0,0.0
Status,,53,52,4,194,1575420030,0.00,75.0,19.0,0,0,0,0.0
Status,,54,0,2,128,1575420030,0.00,156.0,73.0,0,0,0,0.0
Status,,54,1,1,31,1575420030,0.00,353.0,60.0,0,0,0,0.0
Status,,54,2,1,26,1575420030,24.70,116.0,59.0,1,0,0,24.7
Status,,54,3,1,21,1575420030,21.90,252.0,38.0,1,0,0,21.9
Status,,54,4,1,16,1575420030,0.00,168.0,38.0,0,0,0,0.0
Status,,54,5,1,2,1575420030,0.00,272.0,32.0,0,0,0,0.0
Status,,54,6,1,10,1575420030,24.80,129.0,31.0,1,0,0,24.8
Status,,54,7,1,28,1575420030,0.00,26.0,30.0,0,0,0,0.0
Status,,54,8,1,32,1575420030,0.00,61.0,19.0,0,0,0,0.0
Status,,54,9,1,3,1575420030,0.00,329.0,18.0,0,0,0,0.0
Status,,54,10,1,4,1575420030,0.00,295.0,8.0,0,0,0,0.0
Status,,54,11,1,27,1575420030,0.00,181.0,8.0,0,0,0,0.0
Status,,54,12,1,8,1575420030,0.00,211.0,3.0,0,0,0,0.0
Status,,54,13,3,13,1602000000,0.00,43.0,58.0,0,0,0,0.0
Status,,54,14,3,14,1602000000,22.50,189.0,53.0,1,0,0,22.5
Status,,54,15,3,2,1602000000,0.00,58.0,30.0,0,0,0,0.0
Status,,54,16,3,3,1602000000,0.00,358.0,27.0,0,0,0,0.0
Status,,54,17,3,18,1602000000,0.00,263.0,20.0,0,0,0,0.0
Status,,54,18,3,17,1602000000,0.00,213.0,16.0,0,0,0,0.0
Status,,54,19,3,12,1602000000,0.00,29.0,13.0,0,0,0,0.0
Status,,54,20,3,19,1602000000,0.00,303.0,8.0,0,0,0,0.0
Status,,54,21,3,1,1602000000,0.00,103.0,7.0,0,0,0,0.0
Status,,54,22,3,15,1602000000,0.00,202.0,4.0,0,0,0,0.0
Status,,54,23,5,56,1561097980,0.00,43.0,76.0,0,0,0,0.0
Status,,54,24,5,2,1561097980,0.00,149.0,75.0,0,0,0,0.0
Status,,54,25,5,46,1561097980,0.00,48.0,75.0,0,0,0,0.0
Status,,54,26,5,60,1561097980,0.00,169.0,75.0,0,0,0,0.0
Status,,54,27,5,13,1561097980,0.00,133.0,66.0,0,0,0,0.0
Status,,54,28,5,5,1561097980,0.00,240.0,65.0,0,0,0,0.0
Status,,54,29,5,9,1561097980,0.00,2.0,56.0,0,0,0,0.0
Status,,54,30,5,8,1561097980,0.00,138.0,51.0,0,0,0,0.0
Status,,54,31,5,3,1561097980,0.00,109.0,49.0,0,0,0,0.0
Status,,54,32,5,20,1561097980,24.10,49.0,49.0,1,0,0,24.1
Status,,54,33,5,36,1561097980,0.00,212.0,49.0,0,0,0,0.0
Status,,54,34,5,61,1561097980,0.00,109.0,48.0,0,0,0,0.0
Status,,54,35,5,6,1561097980,0.00,16.0,45.0,0,0,0,0.0
Status,,54,36,5,16,1561097980,0.00,22.0,38.0,0,0,0,0.0
Status,,54,37,5,38,1561097980,0.00,141.0,36.0,0,0,0,0.0
Status,,54,38,5,19,1561097980,0.00,343.0,33.0,0,0,0,0.0
Status,,54,39,5,39,1561097980,0.00,27.0,31.0,0,0,0,0.0
Status,,54,40,5,10,1561097980,0.00,149.0,26.0,0,0,0,0.0
Status,,54,41,5,7,1561097980,0.00,136.0,25.0,0,0,0,0.0
Status,,54,42,5,37,1561097980,0.00,38.0,19.0,0,0,0,0.0
Status,,54,43,5,59,1561097980,0.00,96.0,18.0,0,0,0,0.0
Status,,54,44,5,29,1561097980,0.00,221.0,17.0,0,0,0,0.0
Status,,54,45,5,32,1561097980,0.00,105.0,16.0,0,0,0,0.0
Status,,54,46,5,1,1561097980,0.00,96.0,14.0,0,0,0,0.0
Status,,54,47,5,40,1561097980,0.00,128.0,14.0,0,0,0,0.0
Status,,54,48,5,30,1561097980,0.00,169.0,8.0,0,0,0,0.0
Status,,54,49,5,35,1561097980,0.00,275.0,4.0,0,0,0,0.0
Status,,54,50,5,45,1561097980,0.00,215.0,1.0,0,0,0,0.0
Status,,54,51,4,196,1575420030,0.00,87.0,42.0,0,0,0,0.0
Status,,54,52,4,199,1575420030,0.00,61.0,20.0,0,0,0,0.0
Status,,54,53,4,194,1575420030,0.00,75.0,19.0,0,0,0,0.0
Fix,GPS,12.9365533333,77.5415983333,784.4,0.0,9.7,0.0,1726563864310,6.7,94.8,126471088000000,68.4,0,,,
Raw,1726563864311,10012000000,18,996887.257417263,-1410599072299000064,0.0,214.97711208499823,-2629.9304014837426,0.0,0,26,0.0,47,205482242485711,396,24.71500015258789,-946.3154752162487,0.14999,20,-9396.347024555484,0.004900000058114529,1575420030,,,,0,4.623258561711826,1,6.0,24.71500015258789,0.0,0.0,0.0,66.7128,C,
Raw,1726563864311,10012000000,18,996887.257417263,-1410599072299000064,0.0,214.97711208499823,-2629.9304014837426,0.0,0,10,0.0,47,205482236326065,316,24.78499984741211,-331.87801912079084,0.14999,17,-3634.5283423056567,0.002025000052526593,1575420030,,,,0,4.72961772296374,1,6.0,24.78499984741211,0.0,0.0,0.0,66.7128,C,
Raw,1726563864311,10012000000,18,996887.257417263,-1410599072299000064,0.0,214.97711208499823,-2629.9304014837426,0.0,0,21,0.0,47,205482235618960,487,21.899999618530273,-657.9011627970649,0.14999,16,-7113.043288724936,0.009999999776482582,1575420030,,,,0,0.3861031039077325,1,6.0,21.899999618530273,0.0,0.0,0.0,66.7128,C,
Raw,1726563864311,10012000000,18,996887.257417263,-1410599072299000064,0.0,214.97711208499823,-2629.9304014837426,0.0,0,20,0.0,47,205468234371612,316,24.100000381469727,-926.3334350585938,0.14999,16,-8169.1919446925585,0.002025000052526593,1561097980,,,,0,4.991772350957692,5,6.0,24.100000381469727,0.0,0.0,1.5364461966655105,66.7128,I,
Raw,1726563864311,10012000000,18,996887.257417263,-1410599072299000064,0.0,214.97711208499823,-2629.9304014837426,0.0,0,14,0.0,17,303672,396,0.0,-1305.75889538225,0.14999,20,-9674.210706410562,0.004900000058114529,1598062460,,,,0,2.78529182199406,3,6.0,22.0,0.0,0.0,-47.11785653811192,66.7128,C,
Status,1726563864310,63,0,2,128,1575420030,0.00,156.0,73.0,0,0,0,0.0
Status,1726563864310,63,1,1,31,1575420030,0.00,353.0,60.0,0,0,0,0.0
Status,1726563864310,63,2,1,26,1575420030,27.20,116.0,59.0,1,0,0,27.2
Status,1726563864310,63,3,1,21,1575420030,21.90,252.0,38.0,1,0,0,21.9
Status,1726563864310,63,4,1,16,1575420030,0.00,168.0,38.0,0,0,0,0.0
Status,1726563864310,63,5,1,2,1575420030,0.00,272.0,32.0,0,0,0,0.0
Status,1726563864310,63,6,1,10,1575420030,24.80,129.0,31.0,1,0,0,24.8
Status,1726563864310,63,7,1,28,1575420030,0.00,26.0,30.0,0,0,0,0.0
Status,1726563864310,63,8,1,32,1575420030,0.00,61.0,19.0,0,0,0,0.0
Status,1726563864310,63,9,1,3,1575420030,0.00,329.0,18.0,0,0,0,0.0
Status,1726563864310,63,10,1,4,1575420030,0.00,295.0,8.0,0,0,0,0.0
Status,1726563864310,63,11,1,27,1575420030,0.00,181.0,8.0,0,0,0,0.0
Status,1726563864310,63,12,1,8,1575420030,0.00,211.0,3.0,0,0,0,0.0
Status,1726563864310,63,13,3,13,1602000000,0.00,43.0,58.0,0,0,0,0.0
Status,1726563864310,63,14,3,14,1602000000,25.30,189.0,53.0,1,0,0,25.3
Status,1726563864310,63,15,3,2,1602000000,0.00,58.0,30.0,0,0,0,0.0
Status,1726563864310,63,16,3,3,1602000000,0.00,358.0,27.0,0,0,0,0.0
Status,1726563864310,63,17,3,18,1602000000,0.00,263.0,20.0,0,0,0,0.0
Status,1726563864310,63,18,3,17,1602000000,0.00,213.0,16.0,0,0,0,0.0
Status,1726563864310,63,19,3,12,1602000000,0.00,29.0,13.0,0,0,0,0.0
Status,1726563864310,63,20,3,19,1602000000,0.00,303.0,8.0,0,0,0,0.0
Status,1726563864310,63,21,3,1,1602000000,0.00,103.0,7.0,0,0,0,0.0
Status,1726563864310,63,22,3,15,1602000000,0.00,202.0,4.0,0,0,0,0.0
Status,1726563864310,63,23,6,21,1575420030,0.00,138.0,50.0,0,0,0,0.0
Status,1726563864310,63,24,6,33,1575420030,0.00,244.0,48.0,0,0,0,0.0
Status,1726563864310,63,25,6,29,1575420030,0.00,22.0,36.0,0,0,0,0.0
Status,1726563864310,63,26,6,27,1575420030,0.00,66.0,32.0,0,0,0,0.0
Status,1726563864310,63,27,6,19,1575420030,0.00,326.0,31.0,0,0,0,0.0
Status,1726563864310,63,28,6,26,1575420030,0.00,182.0,29.0,0,0,0,0.0
Status,1726563864310,63,29,6,12,1575420030,0.00,304.0,21.0,0,0,0,0.0
Status,1726563864310,63,30,6,7,1575420030,0.00,71.0,9.0,0,0,0,0.0
Status,1726563864310,63,31,6,10,1575420030,0.00,319.0,3.0,0,0,0,0.0
Status,1726563864310,63,32,5,56,1561097980,0.00,43.0,76.0,0,0,0,0.0
Status,1726563864310,63,33,5,2,1561097980,0.00,149.0,75.0,0,0,0,0.0
Status,1726563864310,63,34,5,46,1561097980,0.00,48.0,75.0,0,0,0,0.0
Status,1726563864310,63,35,5,60,1561097980,0.00,169.0,75.0,0,0,0,0.0
Status,1726563864310,63,36,5,13,1561097980,0.00,133.0,66.0,0,0,0,0.0
Status,1726563864310,63,37,5,5,1561097980,0.00,240.0,65.0,0,0,0,0.0
Status,1726563864310,63,38,5,9,1561097980,0.00,2.0,56.0,0,0,0,0.0
Status,1726563864310,63,39,5,8,1561097980,0.00,138.0,51.0,0,0,0,0.0
Status,1726563864310,63,40,5,3,1561097980,0.00,109.0,49.0,0,0,0,0.0
Status,1726563864310,63,41,5,20,1561097980,0.00,49.0,49.0,0,0,0,0.0
Status,1726563864310,63,42,5,36,1561097980,0.00,212.0,49.0,0,0,0,0.0
Status,1726563864310,63,43,5,61,1561097980,0.00,109.0,48.0,0,0,0,0.0
Status,1726563864310,63,44,5,6,1561097980,0.00,16.0,45.0,0,0,0,0.0
Status,1726563864310,63,45,5,16,1561097980,0.00,22.0,38.0,0,0,0,0.0
Status,1726563864310,63,46,5,38,1561097980,0.00,141.0,36.0,0,0,0,0.0
Status,1726563864310,63,47,5,19,1561097980,0.00,343.0,33.0,0,0,0,0.0
Status,1726563864310,63,48,5,39,1561097980,0.00,27.0,31.0,0,0,0,0.0
Status,1726563864310,63,49,5,10,1561097980,0.00,149.0,26.0,0,0,0,0.0
Status,1726563864310,63,50,5,7,1561097980,0.00,136.0,25.0,0,0,0,0.0
Status,1726563864310,63,51,5,37,1561097980,0.00,38.0,19.0,0,0,0,0.0
Status,1726563864310,63,52,5,59,1561097980,0.00,96.0,18.0,0,0,0,0.0
Status,1726563864310,63,53,5,29,1561097980,0.00,221.0,17.0,0,0,0,0.0
Status,1726563864310,63,54,5,32,1561097980,0.00,105.0,16.0,0,0,0,0.0
Status,1726563864310,63,55,5,1,1561097980,0.00,96.0,14.0,0,0,0,0.0
Status,1726563864310,63,56,5,40,1561097980,0.00,128.0,14.0,0,0,0,0.0
Status,1726563864310,63,57,5,30,1561097980,0.00,169.0,8.0,0,0,0,0.0
Status,1726563864310,63,58,5,35,1561097980,0.00,275.0,4.0,0,0,0,0.0
Status,1726563864310,63,59,5,45,1561097980,0.00,215.0,1.0,0,0,0,0.0
Status,1726563864310,63,60,4,196,1575420030,0.00,87.0,42.0,0,0,0,0.0
Status,1726563864310,63,61,4,199,1575420030,0.00,61.0,20.0,0,0,0,0.0
Status,1726563864310,63,62,4,194,1575420030,0.00,75.0,19.0,0,0,0,0.0
Fix,GPS,12.9365883333,77.5415900000,784.3000000000001,0.0,9.0,0.0,1726563865310,5.1,105.0,126472088000000,67.8,0,,,
Raw,1726563865311,11012000000,18,705983.8730999697,-1410599072299000064,0.0,197.53719567551056,-2619.850413163609,0.0,0,26,0.0,47,205483242488864,235,27.23699951171875,-943.2411359819325,0.14999,17,-10341.185244699347,0.0008999999845400453,1575420030,,,,0,8.054777831076127,1,6.0,27.23699951171875,0.0,0.0,0.0,66.7128,C,
Raw,1726563865311,11012000000,18,705983.8730999697,-1410599072299000064,0.0,197.53719567551056,-2619.850413163609,0.0,0,10,0.0,47,205483236327154,316,24.843000411987305,-329.04154697747265,0.14999,21,-3964.9092308628765,0.002025000052526593,1575420030,,,,0,5.460025441274753,1,6.0,24.843000411987305,0.0,0.0,0.0,66.7128,C,
Raw,1726563865311,11012000000,18,705983.8730999697,-1410599072299000064,0.0,197.53719567551056,-2619.850413163609,0.0,0,21,0.0,47,205483235621152,487,21.899999618530273,-655.8090938566882,0.14999,16,-7770.093432670926,0.009999999776482582,1575420030,,,,0,0.3861031039077325,1,6.0,21.899999618530273,0.0,0.0,0.0,66.7128,C,
Raw,1726563865311,11012000000,18,705983.8730999697,-1410599072299000064,0.0,197.53719567551056,-2619.850413163609,0.0,0,14,0.0,17,308025,316,0.0,-1303.1242869828588,0.14999,17,-10978.833251763588,0.002025000052526593,1598062460,,,,0,6.515582110002791,3,6.0,24.0,0.0,0.0,-47.11785653811192,66.7128,C,
Fix,FLP,12.9365863000,77.5415924000,784.3000000000001,0.13865946,9.0,0.0,1726563865954,5.1,105.0,126472088000000,67.8,0,,,
Status,1726563865310,63,0,2,128,1575420030,0.00,156.0,73.0,0,0,0,0.0
Status,1726563865310,63,1,1,31,1575420030,0.00,353.0,60.0,0,0,0,0.0
Status,1726563865310,63,2,1,26,1575420030,24.30,116.0,59.0,1,0,0,24.3
Status,1726563865310,63,3,1,21,1575420030,21.80,252.0,38.0,1,0,0,21.8
Status,1726563865310,63,4,1,16,1575420030,25.60,168.0,38.0,1,0,0,25.6
Status,1726563865310,63,5,1,2,1575420030,0.00,272.0,32.0,0,0,0,0.0
Status,1726563865310,63,6,1,10,1575420030,20.90,129.0,31.0,1,0,0,20.9
Status,1726563865310,63,7,1,28,1575420030,0.00,26.0,30.0,0,0,0,0.0
Status,1726563865310,63,8,1,32,1575420030,0.00,61.0,19.0,0,0,0,0.0
Status,1726563865310,63,9,1,3,1575420030,0.00,329.0,18.0,0,0,0,0.0
Status,1726563865310,63,10,1,4,1575420030,0.00,295.0,8.0,0,0,0,0.0
Status,1726563865310,63,11,1,27,1575420030,0.00,181.0,8.0,0,0,0,0.0
Status,1726563865310,63,12,1,8,1575420030,0.00,211.0,3.0,0,0,0,0.0
Status,1726563865310,63,13,3,13,1602000000,0.00,43.0,58.0,0,0,0,0.0
Status,1726563865310,63,14,3,14,1602000000,29.90,189.0,53.0,1,0,0,29.9
Status,1726563865310,63,15,3,2,1602000000,0.00,58.0,30.0,0,0,0,0.0
Status,1726563865310,63,16,3,3,1602000000,0.00,358.0,27.0,0,0,0,0.0
Status,1726563865310,63,17,3,18,1602000000,0.00,263.0,20.0,0,0,0,0.0
Status,1726563865310,63,18,3,17,1602000000,0.00,213.0,16.0,0,0,0,0.0
Status,1726563865310,63,19,3,12,1602000000,0.00,29.0,13.0,0,0,0,0.0
Status,1726563865310,63,20,3,19,1602000000,0.00,303.0,8.0,0,0,0,0.0
Status,1726563865310,63,21,3,1,1602000000,0.00,103.0,7.0,0,0,0,0.0
Status,1726563865310,63,22,3,15,1602000000,0.00,202.0,4.0,0,0,0,0.0
Status,1726563865310,63,23,6,21,1575420030,0.00,138.0,50.0,0,0,0,0.0
Status,1726563865310,63,24,6,33,1575420030,0.00,244.0,48.0,0,0,0,0.0
Status,1726563865310,63,25,6,29,1575420030,0.00,22.0,36.0,0,0,0,0.0
Status,1726563865310,63,26,6,27,1575420030,0.00,66.0,32.0,0,0,0,0.0
Status,1726563865310,63,27,6,19,1575420030,0.00,326.0,31.0,0,0,0,0.0
Status,1726563865310,63,28,6,26,1575420030,0.00,182.0,29.0,0,0,0,0.0
Status,1726563865310,63,29,6,12,1575420030,0.00,304.0,21.0,0,0,0,0.0
Status,1726563865310,63,30,6,7,1575420030,0.00,71.0,9.0,0,0,0,0.0
Status,1726563865310,63,31,6,10,1575420030,0.00,319.0,3.0,0,0,0,0.0
Status,1726563865310,63,32,5,56,1561097980,0.00,43.0,76.0,0,0,0,0.0
Status,1726563865310,63,33,5,2,1561097980,0.00,149.0,75.0,0,0,0,0.0
Status,1726563865310,63,34,5,46,1561097980,0.00,48.0,75.0,0,0,0,0.0
Status,1726563865310,63,35,5,60,1561097980,0.00,169.0,75.0,0,0,0,0.0
Status,1726563865310,63,36,5,13,1561097980,0.00,133.0,66.0,0,0,0,0.0
Status,1726563865310,63,37,5,5,1561097980,0.00,240.0,65.0,0,0,0,0.0
Status,1726563865310,63,38,5,9,1561097980,0.00,2.0,56.0,0,0,0,0.0
Status,1726563865310,63,39,5,8,1561097980,0.00,138.0,51.0,0,0,0,0.0
Status,1726563865310,63,40,5,3,1561097980,0.00,109.0,49.0,0,0,0,0.0
Status,1726563865310,63,41,5,20,1561097980,0.00,49.0,49.0,0,0,0,0.0
Status,1726563865310,63,42,5,36,1561097980,0.00,212.0,49.0,0,0,0,0.0
Status,1726563865310,63,43,5,61,1561097980,0.00,109.0,48.0,0,0,0,0.0
Status,1726563865310,63,44,5,6,1561097980,0.00,16.0,45.0,0,0,0,0.0
Status,1726563865310,63,45,5,16,1561097980,0.00,22.0,38.0,0,0,0,0.0
Status,1726563865310,63,46,5,38,1561097980,0.00,141.0,36.0,0,0,0,0.0
Status,1726563865310,63,47,5,19,1561097980,0.00,343.0,33.0,0,0,0,0.0
Status,1726563865310,63,48,5,39,1561097980,0.00,27.0,31.0,0,0,0,0.0
Status,1726563865310,63,49,5,10,1561097980,0.00,149.0,26.0,0,0,0,0.0
Status,1726563865310,63,50,5,7,1561097980,0.00,136.0,25.0,0,0,0,0.0
Status,1726563865310,63,51,5,37,1561097980,0.00,38.0,19.0,0,0,0,0.0
Status,1726563865310,63,52,5,59,1561097980,0.00,96.0,18.0,0,0,0,0.0
Status,1726563865310,63,53,5,29,1561097980,0.00,221.0,17.0,0,0,0,0.0
Status,1726563865310,63,54,5,32,1561097980,0.00,105.0,16.0,0,0,0,0.0
Status,1726563865310,63,55,5,1,1561097980,0.00,96.0,14.0,0,0,0,0.0
Status,1726563865310,63,56,5,40,1561097980,0.00,128.0,14.0,0,0,0,0.0
Status,1726563865310,63,57,5,30,1561097980,0.00,169.0,8.0,0,0,0,0.0
Status,1726563865310,63,58,5,35,1561097980,0.00,275.0,4.0,0,0,0,0.0
Status,1726563865310,63,59,5,45,1561097980,0.00,215.0,1.0,0,0,0,0.0
Status,1726563865310,63,60,4,196,1575420030,0.00,87.0,42.0,0,0,0,0.0
Status,1726563865310,63,61,4,199,1575420030,0.00,61.0,20.0,0,0,0,0.0
Status,1726563865310,63,62,4,194,1575420030,0.00,75.0,19.0,0,0,0,0.0
Fix,GPS,12.9366250000,77.5416016667,784.2,0.0,8.7,0.0,1726563867000,4.2,65.5,126473777000000,68.5,0,,,
Raw,1726563867000,12701000000,18,193.57033241554203,-1410599072299000064,0.0,193.57033241554203,-2599.575658926304,0.0,0,26,0.0,16431,205484931494168,316,24.341999053955078,-937.2321115124291,0.14999,20,-11935.572646877888,0.002025000052526593,1575420030,,,,0,4.067306878446865,1,6.0,24.341999053955078,0.0,0.0,0.0,66.7128,C,
Raw,1726563867000,12701000000,18,193.57033241554203,-1410599072299000064,0.0,193.57033241554203,-2599.575658926304,0.0,0,10,0.0,47,205484925329001,487,20.929000854492188,-323.12093287401785,0.14999,20,-4523.005549661362,0.009999999776482582,1575420030,,,,0,0.0,1,6.0,20.929000854492188,0.0,0.0,0.0,66.7128,C,
Raw,1726563867000,12701000000,18,193.57033241554203,-1410599072299000064,0.0,193.57033241554203,-2599.575658926304,0.0,0,16,0.0,47,205484926605102,316,25.64699935913086,-1342.6744310312995,0.14999,16,-11451.881587106966,0.002025000052526593,1575420030,,,,0,5.9296473582652105,1,6.0,25.64699935913086,0.0,0.0,0.0,66.7128,C,
Raw,1726563867000,12701000000,18,193.57033241554203,-1410599072299000064,0.0,193.57033241554203,-2599.575658926304,0.0,0,21,0.0,47,205484924624828,487,21.836999893188477,-649.674585205,0.14999,16,-8878.64732488944,0.009999999776482582,1575420030,,,,0,0.0,1,6.0,21.836999893188477,0.0,0.0,0.0,66.7128,C,
Raw,1726563867000,12701000000,18,193.57033241554203,-1410599072299000064,0.0,193.57033241554203,-2599.575658926304,0.0,0,14,0.0,17,315360,74,0.0,-1296.399266300775,0.14999,21,-13181.145317574303,0.0006249999860301614,1598062460,,,,0,11.907773398947723,3,6.0,30.0,0.0,0.0,-46.68296005817248,66.7128,C,
Fix,FLP,12.9366191000,77.5415997000,784.2,0.12182449,8.85,0.00000000000010177775,1726563867643,4.2,65.5,126473777000000,68.5,0,,,
Status,1726563867000,63,0,2,128,1575420030,0.00,156.0,73.0,0,0,0,0.0
Status,1726563867000,63,1,1,31,1575420030,27.20,353.0,60.0,1,0,0,27.2
Status,1726563867000,63,2,1,26,1575420030,26.80,116.0,59.0,1,0,0,26.8
Status,1726563867000,63,3,1,21,1575420030,19.10,252.0,38.0,1,0,0,19.1
Status,1726563867000,63,4,1,16,1575420030,25.30,168.0,38.0,1,0,0,25.3
Status,1726563867000,63,5,1,2,1575420030,0.00,272.0,32.0,0,0,0,0.0
Status,1726563867000,63,6,1,10,1575420030,21.00,129.0,31.0,1,0,0,21.0
Status,1726563867000,63,7,1,28,1575420030,0.00,26.0,30.0,0,0,0,0.0
Status,1726563867000,63,8,1,32,1575420030,0.00,61.0,19.0,0,0,0,0.0
Status,1726563867000,63,9,1,3,1575420030,0.00,329.0,18.0,0,0,0,0.0
Status,1726563867000,63,10,1,4,1575420030,0.00,295.0,8.0,0,0,0,0.0
Status,1726563867000,63,11,1,27,1575420030,0.00,181.0,8.0,0,0,0,0.0
Status,1726563867000,63,12,1,8,1575420030,0.00,211.0,3.0,0,0,0,0.0
Status,1726563867000,63,13,3,13,1602000000,0.00,43.0,58.0,0,0,0,0.0
Status,1726563867000,63,14,3,14,1602000000,29.80,189.0,53.0,1,0,0,29.8
Status,1726563867000,63,15,3,2,1602000000,0.00,58.0,30.0,0,0,0,0.0
Status,1726563867000,63,16,3,3,1602000000,19.10,358.0,27.0,1,0,0,19.1
Status,1726563867000,63,17,3,18,1602000000,0.00,263.0,20.0,0,0,0,0.0
Status,1726563867000,63,18,3,17,1602000000,0.00,213.0,16.0,0,0,0,0.0
Status,1726563867000,63,19,3,12,1602000000,0.00,29.0,13.0,0,0,0,0.0
Status,1726563867000,63,20,3,19,1602000000,0.00,303.0,8.0,0,0,0,0.0
Status,1726563867000,63,21,3,1,1602000000,0.00,103.0,7.0,0,0,0,0.0
Status,1726563867000,63,22,3,15,1602000000,0.00,202.0,4.0,0,0,0,0.0
Status,1726563867000,63,23,6,21,1575420030,0.00,138.0,50.0,0,0,0,0.0
Status,1726563867000,63,24,6,33,1575420030,0.00,244.0,48.0,0,0,0,0.0
Status,1726563867000,63,25,6,29,1575420030,0.00,22.0,36.0,0,0,0,0.0
Status,1726563867000,63,26,6,27,1575420030,0.00,66.0,32.0,0,0,0,0.0
Status,1726563867000,63,27,6,19,1575420030,0.00,326.0,31.0,0,0,0,0.0
Status,1726563867000,63,28,6,26,1575420030,0.00,182.0,29.0,0,0,0,0.0
Status,1726563867000,63,29,6,12,1575420030,0.00,304.0,21.0,0,0,0,0.0
Status,1726563867000,63,30,6,7,1575420030,0.00,71.0,9.0,0,0,0,0.0
Status,1726563867000,63,31,6,10,1575420030,0.00,319.0,3.0,0,0,0,0.0
Status,1726563867000,63,32,5,56,1561097980,0.00,43.0,76.0,0,0,0,0.0
Status,1726563867000,63,33,5,2,1561097980,0.00,149.0,75.0,0,0,0,0.0
Status,1726563867000,63,34,5,46,1561097980,0.00,48.0,75.0,0,0,0,0.0
Status,1726563867000,63,35,5,60,1561097980,0.00,169.0,75.0,0,0,0,0.0
Status,1726563867000,63,36,5,13,1561097980,0.00,133.0,66.0,0,0,0,0.0
Status,1726563867000,63,37,5,5,1561097980,0.00,240.0,65.0,0,0,0,0.0
Status,1726563867000,63,38,5,9,1561097980,0.00,2.0,56.0,0,0,0,0.0
Status,1726563867000,63,39,5,8,1561097980,0.00,138.0,51.0,0,0,0,0.0
Status,1726563867000,63,40,5,3,1561097980,0.00,109.0,49.0,0,0,0,0.0
Status,1726563867000,63,41,5,20,1561097980,0.00,49.0,49.0,0,0,0,0.0
Status,1726563867000,63,42,5,36,1561097980,0.00,212.0,49.0,0,0,0,0.0
Status,1726563867000,63,43,5,61,1561097980,0.00,109.0,48.0,0,0,0,0.0
Status,1726563867000,63,44,5,6,1561097980,0.00,16.0,45.0,0,0,0,0.0
Status,1726563867000,63,45,5,16,1561097980,0.00,22.0,38.0,0,0,0,0.0
Status,1726563867000,63,46,5,38,1561097980,0.00,141.0,36.0,0,0,0,0.0
Status,1726563867000,63,47,5,19,1561097980,0.00,343.0,33.0,0,0,0,0.0
Status,1726563867000,63,48,5,39,1561097980,0.00,27.0,31.0,0,0,0,0.0
Status,1726563867000,63,49,5,10,1561097980,0.00,149.0,26.0,0,0,0,0.0
Status,1726563867000,63,50,5,7,1561097980,0.00,136.0,25.0,0,0,0,0.0
Status,1726563867000,63,51,5,37,1561097980,0.00,38.0,19.0,0,0,0,0.0
Status,1726563867000,63,52,5,59,1561097980,0.00,96.0,18.0,0,0,0,0.0
Status,1726563867000,63,53,5,29,1561097980,0.00,221.0,17.0,0,0,0,0.0
Status,1726563867000,63,54,5,32,1561097980,0.00,105.0,16.0,0,0,0,0.0
Status,1726563867000,63,55,5,1,1561097980,0.00,96.0,14.0,0,0,0,0.0
Status,1726563867000,63,56,5,40,1561097980,0.00,128.0,14.0,0,0,0,0.0
Status,1726563867000,63,57,5,30,1561097980,0.00,169.0,8.0,0,0,0,0.0
Status,1726563867000,63,58,5,35,1561097980,0.00,275.0,4.0,0,0,0,0.0
Status,1726563867000,63,59,5,45,1561097980,0.00,215.0,1.0,0,0,0,0.0
Status,1726563867000,63,60,4,196,1575420030,0.00,87.0,42.0,0,0,0,0.0
Status,1726563867000,63,61,4,199,1575420030,0.00,61.0,20.0,0,0,0,0.0
Status,1726563867000,63,62,4,194,1575420030,0.00,75.0,19.0,0,0,0,0.0
Fix,GPS,12.9365783333,77.5415983333,784.5,0.0,8.0,0.0,1726563868000,2.8,179.9,126474777000000,69.7,0,,,
Raw,1726563868000,13701000000,18,189.9088434811602,-1410599072299000064,0.0,189.9088434811602,-2586.761391893114,0.0,0,26,0.0,16431,205485931497285,316,26.805999755859375,-934.1321272323647,0.14999,17,-12866.1191340469,0.002025000052526593,1575420030,,,,0,7.48783773794496,1,6.0,26.805999755859375,0.0,0.0,0.0,66.7128,C,
Raw,1726563868000,13701000000,18,189.9088434811602,-1410599072299000064,0.0,189.9088434811602,-2586.761391893114,0.0,0,10,0.0,47,205485925330070,396,20.979999542236328,-319.7208272252334,0.14999,16,-4839.2393854627635,0.004900000058114529,1575420030,,,,0,0.469621916990458,1,6.0,20.979999542236328,0.0,0.0,0.0,66.7128,C,
Raw,1726563868000,13701000000,18,189.9088434811602,-1410599072299000064,0.0,189.9088434811602,-2586.761391893114,0.0,0,16,0.0,47,205485926609597,396,25.31399917602539,-1339.1344855497214,0.14999,16,-12788.04447348039,0.004900000058114529,1575420030,,,,0,5.460025441274753,1,6.0,25.31399917602539,0.0,0.0,0.0,66.7128,C,
Raw,1726563868000,13701000000,18,189.9088434811602,-1410599072299000064,0.0,189.9088434811602,-2586.761391893114,0.0,0,21,0.0,47,205485924626990,797,19.073999404907227,-645.5963725132065,0.14999,16,-9520.981285962775,0.02250000089406967,1575420030,,,,0,0.0,1,6.0,19.073999404907227,0.0,0.0,0.0,66.7128,C,
Raw,1726563868000,13701000000,18,189.9088434811602,-1410599072299000064,0.0,189.9088434811602,-2586.761391893114,0.0,0,14,0.0,17,319684,396,0.0,-1294.3643651954112,0.14999,17,-14471.448997825071,0.004900000058114529,1598062460,,,,0,9.181963011727797,3,6.0,23.0,0.0,0.0,-45.320494917464,66.7128,C,
Raw,1726563868000,13701000000,18,189.9088434811602,-1410599072299000064,0.0,189.9088434811602,-2586.761391893114,0.0,0,3,0.0,17,32055,487,0.0,-1134.7641693753176,0.14999,16,-11764.549250477936,0.009999999776482582,1604812540,,,,0,0.0,3,6.0,20.0,0.0,0.0,-45.320494917464,66.7128,C,
Raw,1726563868000,13701000000,18,189.9088434811602,-1410599072299000064,0.0,189.9088434811602,-2586.761391893114,0.0,0,31,0.0,47,205485931585026,235,27.187000274658203,-461.3633859431712,0.14999,17,-10457.806810838436,0.0008999999845400453,1575420030,,,,0,7.982894196208166,1,6.0,27.187000274658203,0.0,0.0,0.0,66.7128,C,
Fix,FLP,12.9365882000,77.5415987000,784.5,0.049986977,8.566,,1726563868643,2.8,,126474777000000,69.7,0,,,
Status,1726563868000,63,0,2,128,1575420030,0.00,156.0,73.0,0,0,0,0.0
Status,1726563868000,63,1,1,31,1575420030,29.40,353.0,60.0,1,0,0,29.4
Status,1726563868000,63,2,1,26,1575420030,24.00,116.0,59.0,1,0,0,24.0
Status,1726563868000,63,3,1,21,1575420030,19.10,252.0,38.0,1,0,0,19.1
Status,1726563868000,63,4,1,16,1575420030,21.00,168.0,38.0,1,0,0,21.0
Status,1726563868000,63,5,1,2,1575420030,21.70,272.0,32.0,1,0,0,21.7
Status,1726563868000,63,6,1,10,1575420030,28.90,129.0,31.0,1,0,0,28.9
Status,1726563868000,63,7,1,28,1575420030,0.00,26.0,30.0,0,0,0,0.0
Status,1726563868000,63,8,1,32,1575420030,16.00,61.0,19.0,1,0,0,16.0
Status,1726563868000,63,9,1,3,1575420030,0.00,329.0,18.0,0,0,0,0.0
Status,1726563868000,63,10,1,4,1575420030,0.00,295.0,8.0,0,0,0,0.0
Status,1726563868000,63,11,1,27,1575420030,0.00,181.0,8.0,0,0,0,0.0
Status,1726563868000,63,12,1,8,1575420030,0.00,211.0,3.0,0,0,0,0.0
Status,1726563868000,63,13,3,13,1602000000,0.00,43.0,58.0,0,0,0,0.0
Status,1726563868000,63,14,3,14,1602000000,23.60,189.0,53.0,1,0,0,23.6
Status,1726563868000,63,15,3,2,1602000000,0.00,58.0,30.0,0,0,0,0.0
Status,1726563868000,63,16,3,3,1602000000,19.70,358.0,27.0,1,0,0,19.7
Status,1726563868000,63,17,3,18,1602000000,0.00,263.0,20.0,0,0,0,0.0
Status,1726563868000,63,18,3,17,1602000000,0.00,213.0,16.0,0,0,0,0.0
Status,1726563868000,63,19,3,12,1602000000,0.00,29.0,13.0,0,0,0,0.0
Status,1726563868000,63,20,3,19,1602000000,0.00,303.0,8.0,0,0,0,0.0
Status,1726563868000,63,21,3,1,1602000000,0.00,103.0,7.0,0,0,0,0.0
Status,1726563868000,63,22,3,15,1602000000,0.00,202.0,4.0,0,0,0,0.0
Status,1726563868000,63,23,6,21,1575420030,0.00,138.0,50.0,0,0,0,0.0
Status,1726563868000,63,24,6,33,1575420030,0.00,244.0,48.0,0,0,0,0.0
Status,1726563868000,63,25,6,29,1575420030,0.00,22.0,36.0,0,0,0,0.0
Status,1726563868000,63,26,6,27,1575420030,0.00,66.0,32.0,0,0,0,0.0
Status,1726563868000,63,27,6,19,1575420030,0.00,326.0,31.0,0,0,0,0.0
Status,1726563868000,63,28,6,26,1575420030,0.00,182.0,29.0,0,0,0,0.0
Status,1726563868000,63,29,6,12,1575420030,0.00,304.0,21.0,0,0,0,0.0
Status,1726563868000,63,30,6,7,1575420030,0.00,71.0,9.0,0,0,0,0.0
Status,1726563868000,63,31,6,10,1575420030,0.00,319.0,3.0,0,0,0,0.0
