# 
# Header Description:
# 
# Version: v3.0.6.4 Platform: 13 Manufacturer: OPPO Model: CPH2371
# 
# Raw,utcTimeMillis,TimeNanos,LeapSecond,TimeUncertaintyNanos,FullBiasNanos,BiasNanos,BiasUncertaintyNanos,DriftNanosPerSecond,DriftUncertaintyNanosPerSecond,HardwareClockDiscontinuityCount,Svid,TimeOffsetNanos,State,ReceivedSvTimeNanos,ReceivedSvTimeUncertaintyNanos,Cn0DbHz,PseudorangeRateMetersPerSecond,PseudorangeRateUncertaintyMetersPerSecond,AccumulatedDeltaRangeState,AccumulatedDeltaRangeMeters,AccumulatedDeltaRangeUncertaintyMeters,CarrierFrequencyHz,CarrierCycles,CarrierPhase,CarrierPhaseUncertainty,MultipathIndicator,SnrInDb,ConstellationType,AgcDb,BasebandCn0DbHz,FullInterSignalBiasNanos,FullInterSignalBiasUncertaintyNanos,SatelliteInterSignalBiasNanos,SatelliteInterSignalBiasUncertaintyNanos,CodeType,ChipsetElapsedRealtimeNanos
# 
# UncalAccel,utcTimeMillis,elapsedRealtimeNanos,UncalAccelXMps2,UncalAccelYMps2,UncalAccelZMps2,BiasXMps2,BiasYMps2,BiasZMps2
# 
# Accel,utcTimeMillis,elapsedRealtimeNanos,AccelXMps2,AccelYMps2,AccelZMps2
# 
# UncalGyro,utcTimeMillis,elapsedRealtimeNanos,UncalGyroXRadPerSec,UncalGyroYRadPerSec,UncalGyroZRadPerSec,DriftXRadPerSec,DriftYRadPerSec,DriftZRadPerSec
# 
# Gyro,utcTimeMillis,elapsedRealtimeNanos,GyroXRadPerSec,GyroYRadPerSec,GyroZRadPerSec
# 
# UncalMag,utcTimeMillis,elapsedRealtimeNanos,UncalMagXMicroT,UncalMagYMicroT,UncalMagZMicroT,BiasXMicroT,BiasYMicroT,BiasZMicroT
# 
# Mag,utcTimeMillis,elapsedRealtimeNanos,MagXMicroT,MagYMicroT,MagZMicroT
# 
# OrientationDeg,utcTimeMillis,elapsedRealtimeNanos,yawDeg,rollDeg,pitchDeg
# 
# Fix,Provider,LatitudeDegrees,LongitudeDegrees,AltitudeMeters,SpeedMps,AccuracyMeters,BearingDegrees,UnixTimeMillis,SpeedAccuracyMps,BearingAccuracyDegrees,elapsedRealtimeNanos,VerticalAccuracyMeters,MockLocation,NumberOfUsedSignals,VerticalSpeedAccuracyMps,SolutionType
# 
# Nav,Svid,Type,Status,MessageId,Sub-messageId,Data(Bytes)
# 
# Status,UnixTimeMillis,SignalCount,SignalIndex,ConstellationType,Svid,CarrierFrequencyHz,Cn0DbHz,AzimuthDegrees,ElevationDegrees,UsedInFix,HasAlmanacData,HasEphemerisData,BasebandCn0DbHz
# 
# Agc,utcTimeMillis,TimeNanos,LeapSecond,TimeUncertaintyNanos,FullBiasNanos,BiasNanos,BiasUncertaintyNanos,DriftNanosPerSecond,DriftUncertaintyNanosPerSecond,HardwareClockDiscontinuityCount,AgcDb,CarrierFrequencyHz,ConstellationType
# 
Status,,32,0,1,26,1575420030,0.00,112.0,60.0,0,0,0,0.0
Status,,32,1,1,31,1575420030,0.00,356.0,58.0,0,0,0,0.0
Status,,32,2,1,16,1575420030,0.00,166.0,40.0,0,0,0,0.0
Status,,32,3,1,21,1575420030,0.00,250.0,37.0,0,0,0,0.0
Status,,32,4,1,2,1575420030,0.00,270.0,32.0,0,0,0,0.0
Status,,32,5,1,10,1575420030,0.00,130.0,29.0,0,0,0,0.0
Status,,32,6,1,28,1575420030,0.00,26.0,28.0,0,0,0,0.0
Status,,32,7,1,3,1575420030,0.00,329.0,20.0,0,0,0,0.0
Status,,32,8,1,32,1575420030,0.00,63.0,19.0,0,0,0,0.0
Status,,32,9,3,14,1602000000,0.00,190.0,56.0,0,0,0,0.0
Status,,32,10,3,2,1602000000,0.00,61.0,30.0,0,0,0,0.0
Status,,32,11,3,3,1602000000,0.00,0.0,28.0,0,0,0,0.0
Status,,32,12,3,18,1602000000,0.00,260.0,20.0,0,0,0,0.0
Status,,32,13,3,17,1602000000,0.00,212.0,15.0,0,0,0,0.0
Status,,32,14,5,2,1561097980,0.00,149.0,75.0,0,0,0,0.0
Status,,32,15,5,13,1561097980,0.00,136.0,66.0,0,0,0,0.0
Status,,32,16,5,5,1561097980,0.00,240.0,65.0,0,0,0,0.0
Status,,32,17,5,9,1561097980,0.00,2.0,55.0,0,0,0,0.0
Status,,32,18,5,36,1561097980,0.00,214.0,50.0,0,0,0,0.0
Status,,32,19,5,8,1561097980,0.00,139.0,50.0,0,0,0,0.0
Status,,32,20,5,20,1561097980,24.50,52.0,49.0,0,0,0,24.5
Status,,32,21,5,3,1561097980,0.00,109.0,49.0,0,0,0,0.0
Status,,32,22,5,6,1561097980,0.00,17.0,44.0,0,0,0,0.0
Status,,32,23,5,16,1561097980,0.00,22.0,38.0,0,0,0,0.0
Status,,32,24,5,38,1561097980,26.90,142.0,36.0,0,0,0,26.9
Status,,32,25,5,19,1561097980,31.20,344.0,35.0,0,0,0,31.2
Status,,32,26,5,39,1561097980,0.00,27.0,30.0,0,0,0,0.0
Status,,32,27,5,10,1561097980,0.00,148.0,26.0,0,0,0,0.0
Status,,32,28,5,7,1561097980,0.00,135.0,25.0,0,0,0,0.0
Status,,32,29,5,37,1561097980,0.00,37.0,18.0,0,0,0,0.0
Status,,32,30,5,29,1561097980,0.00,220.0,16.0,0,0,0,0.0
Status,,32,31,5,32,1561097980,0.00,107.0,16.0,0,0,0,0.0
Status,,32,0,1,26,1575420030,0.00,112.0,60.0,0,0,0,0.0
Status,,32,1,1,31,1575420030,0.00,356.0,58.0,0,0,0,0.0
Status,,32,2,1,16,1575420030,0.00,166.0,40.0,0,0,0,0.0
Status,,32,3,1,21,1575420030,0.00,250.0,37.0,0,0,0,0.0
Status,,32,4,1,2,1575420030,0.00,270.0,32.0,0,0,0,0.0
Status,,32,5,1,10,1575420030,0.00,130.0,29.0,0,0,0,0.0
Status,,32,6,1,28,1575420030,0.00,26.0,28.0,0,0,0,0.0
Status,,32,7,1,3,1575420030,0.00,329.0,20.0,0,0,0,0.0
Status,,32,8,1,32,1575420030,0.00,63.0,19.0,0,0,0,0.0
Status,,32,9,3,14,1602000000,18.70,190.0,56.0,0,0,0,18.7
Status,,32,10,3,2,1602000000,0.00,61.0,30.0,0,0,0,0.0
Status,,32,11,3,3,1602000000,0.00,0.0,28.0,0,0,0,0.0
Status,,32,12,3,18,1602000000,0.00,260.0,20.0,0,0,0,0.0
Status,,32,13,3,17,1602000000,0.00,212.0,15.0,0,0,0,0.0
Status,,32,14,5,2,1561097980,0.00,149.0,75.0,0,0,0,0.0
Status,,32,15,5,13,1561097980,0.00,136.0,66.0,0,0,0,0.0
Status,,32,16,5,5,1561097980,0.00,240.0,65.0,0,0,0,0.0
Status,,32,17,5,9,1561097980,0.00,2.0,55.0,0,0,0,0.0
Status,,32,18,5,36,1561097980,0.00,214.0,50.0,0,0,0,0.0
Status,,32,19,5,8,1561097980,0.00,139.0,50.0,0,0,0,0.0
Status,,32,20,5,20,1561097980,24.50,52.0,49.0,0,0,0,24.5
Status,,32,21,5,3,1561097980,0.00,109.0,49.0,0,0,0,0.0
Status,,32,22,5,6,1561097980,0.00,17.0,44.0,0,0,0,0.0
Status,,32,23,5,16,1561097980,0.00,22.0,38.0,0,0,0,0.0
Status,,32,24,5,38,1561097980,26.90,142.0,36.0,0,0,0,26.9
Status,,32,25,5,19,1561097980,31.20,344.0,35.0,0,0,0,31.2
Status,,32,26,5,39,1561097980,0.00,27.0,30.0,0,0,0,0.0
Status,,32,27,5,10,1561097980,0.00,148.0,26.0,0,0,0,0.0
Status,,32,28,5,7,1561097980,0.00,135.0,25.0,0,0,0,0.0
Status,,32,29,5,37,1561097980,0.00,37.0,18.0,0,0,0,0.0
Status,,32,30,5,29,1561097980,0.00,220.0,16.0,0,0,0,0.0
Status,,32,31,5,32,1561097980,0.00,107.0,16.0,0,0,0,0.0
Status,,32,0,1,26,1575420030,20.40,112.0,60.0,0,0,0,20.4
Status,,32,1,1,31,1575420030,22.10,356.0,58.0,0,0,0,22.1
Status,,32,2,1,16,1575420030,0.00,166.0,40.0,0,0,0,0.0
Status,,32,3,1,21,1575420030,0.00,250.0,37.0,0,0,0,0.0
Status,,32,4,1,2,1575420030,0.00,270.0,32.0,0,0,0,0.0
Status,,32,5,1,10,1575420030,0.00,130.0,29.0,0,0,0,0.0
Status,,32,6,1,28,1575420030,0.00,26.0,28.0,0,0,0,0.0
Status,,32,7,1,3,1575420030,0.00,329.0,20.0,0,0,0,0.0
Status,,32,8,1,32,1575420030,0.00,63.0,19.0,0,0,0,0.0
Status,,32,9,3,14,1602000000,22.00,190.0,56.0,0,0,0,22.0
Status,,32,10,3,2,1602000000,0.00,61.0,30.0,0,0,0,0.0
Status,,32,11,3,3,1602000000,0.00,0.0,28.0,0,0,0,0.0
Status,,32,12,3,18,1602000000,0.00,260.0,20.0,0,0,0,0.0
Status,,32,13,3,17,1602000000,0.00,212.0,15.0,0,0,0,0.0
Status,,32,14,5,2,1561097980,0.00,149.0,75.0,0,0,0,0.0
Status,,32,15,5,13,1561097980,0.00,136.0,66.0,0,0,0,0.0
Status,,32,16,5,5,1561097980,0.00,240.0,65.0,0,0,0,0.0
Status,,32,17,5,9,1561097980,0.00,2.0,55.0,0,0,0,0.0
Status,,32,18,5,36,1561097980,0.00,214.0,50.0,0,0,0,0.0
Status,,32,19,5,8,1561097980,0.00,139.0,50.0,0,0,0,0.0
Status,,32,20,5,20,1561097980,0.00,52.0,49.0,0,0,0,0.0
Status,,32,21,5,3,1561097980,0.00,109.0,49.0,0,0,0,0.0
Status,,32,22,5,6,1561097980,0.00,17.0,44.0,0,0,0,0.0
Status,,32,23,5,16,1561097980,0.00,22.0,38.0,0,0,0,0.0
Status,,32,24,5,38,1561097980,21.40,142.0,36.0,0,0,0,21.4
Status,,32,25,5,19,1561097980,22.40,344.0,35.0,0,0,0,22.4
Status,,32,26,5,39,1561097980,0.00,27.0,30.0,0,0,0,0.0
Status,,32,27,5,10,1561097980,0.00,148.0,26.0,0,0,0,0.0
Status,,32,28,5,7,1561097980,0.00,135.0,25.0,0,0,0,0.0
Status,,32,29,5,37,1561097980,0.00,37.0,18.0,0,0,0,0.0
Status,,32,30,5,29,1561097980,0.00,220.0,16.0,0,0,0,0.0
Status,,32,31,5,32,1561097980,0.00,107.0,16.0,0,0,0,0.0
Status,,32,0,1,26,1575420030,25.10,112.0,60.0,0,0,0,25.1
Status,,32,1,1,31,1575420030,20.10,356.0,58.0,0,0,0,20.1
Status,,32,2,1,16,1575420030,0.00,166.0,40.0,0,0,0,0.0
Status,,32,3,1,21,1575420030,0.00,250.0,37.0,0,0,0,0.0
Status,,32,4,1,2,1575420030,0.00,270.0,32.0,0,0,0,0.0
Status,,32,5,1,10,1575420030,0.00,130.0,29.0,0,0,0,0.0
Status,,32,6,1,28,1575420030,0.00,26.0,28.0,0,0,0,0.0
Status,,32,7,1,3,1575420030,0.00,329.0,20.0,0,0,0,0.0
Status,,32,8,1,32,1575420030,0.00,63.0,19.0,0,0,0,0.0
Status,,32,9,3,14,1602000000,18.60,190.0,56.0,0,0,0,18.6
Status,,32,10,3,2,1602000000,0.00,61.0,30.0,0,0,0,0.0
Status,,32,11,3,3,1602000000,0.00,0.0,28.0,0,0,0,0.0
Status,,32,12,3,18,1602000000,0.00,260.0,20.0,0,0,0,0.0
Status,,32,13,3,17,1602000000,0.00,212.0,15.0,0,0,0,0.0
Status,,32,14,5,2,1561097980,0.00,149.0,75.0,0,0,0,0.0
Status,,32,15,5,13,1561097980,0.00,136.0,66.0,0,0,0,0.0
Status,,32,16,5,5,1561097980,0.00,240.0,65.0,0,0,0,0.0
Status,,32,17,5,9,1561097980,0.00,2.0,55.0,0,0,0,0.0
Status,,32,18,5,36,1561097980,0.00,214.0,50.0,0,0,0,0.0
Status,,32,19,5,8,1561097980,0.00,139.0,50.0,0,0,0,0.0
Status,,32,20,5,20,1561097980,0.00,52.0,49.0,0,0,0,0.0
Status,,32,21,5,3,1561097980,0.00,109.0,49.0,0,0,0,0.0
Status,,32,22,5,6,1561097980,0.00,17.0,44.0,0,0,0,0.0
Status,,32,23,5,16,1561097980,0.00,22.0,38.0,0,0,0,0.0
Status,,32,24,5,38,1561097980,21.40,142.0,36.0,0,0,0,21.4
Status,,32,25,5,19,1561097980,22.00,344.0,35.0,0,0,0,22.0
Status,,32,26,5,39,1561097980,0.00,27.0,30.0,0,0,0,0.0
Status,,32,27,5,10,1561097980,0.00,148.0,26.0,0,0,0,0.0
Status,,32,28,5,7,1561097980,0.00,135.0,25.0,0,0,0,0.0
Status,,32,29,5,37,1561097980,0.00,37.0,18.0,0,0,0,0.0
Status,,32,30,5,29,1561097980,0.00,220.0,16.0,0,0,0,0.0
Status,,32,31,5,32,1561097980,0.00,107.0,16.0,0,0,0,0.0
Status,,33,0,2,128,1575420030,0.00,156.0,73.0,0,0,0,0.0
Status,,33,1,1,26,1575420030,30.70,112.0,60.0,1,0,0,30.7
Status,,33,2,1,31,1575420030,20.60,356.0,58.0,1,0,0,20.6
Status,,33,3,1,16,1575420030,0.00,166.0,40.0,0,0,0,0.0
Status,,33,4,1,21,1575420030,20.90,250.0,37.0,1,0,0,20.9
Status,,33,5,1,2,1575420030,0.00,270.0,32.0,0,0,0,0.0
Status,,33,6,1,10,1575420030,0.00,130.0,29.0,0,0,0,0.0
Status,,33,7,1,28,1575420030,0.00,26.0,28.0,0,0,0,0.0
Status,,33,8,1,3,1575420030,0.00,329.0,20.0,0,0,0,0.0
Status,,33,9,1,32,1575420030,0.00,63.0,19.0,0,0,0,0.0
Status,,33,10,3,14,1602000000,18.90,190.0,56.0,1,0,0,18.9
Status,,33,11,3,2,1602000000,0.00,61.0,30.0,0,0,0,0.0
Status,,33,12,3,3,1602000000,0.00,0.0,28.0,0,0,0,0.0
Status,,33,13,3,18,1602000000,0.00,260.0,20.0,0,0,0,0.0
Status,,33,14,3,17,1602000000,0.00,212.0,15.0,0,0,0,0.0
Status,,33,15,5,2,1561097980,0.00,149.0,75.0,0,0,0,0.0
Status,,33,16,5,13,1561097980,0.00,136.0,66.0,0,0,0,0.0
Status,,33,17,5,5,1561097980,0.00,240.0,65.0,0,0,0,0.0
Status,,33,18,5,9,1561097980,0.00,2.0,55.0,0,0,0,0.0
Status,,33,19,5,36,1561097980,0.00,214.0,50.0,0,0,0,0.0
Status,,33,20,5,8,1561097980,0.00,139.0,50.0,0,0,0,0.0
Status,,33,21,5,20,1561097980,0.00,52.0,49.0,0,0,0,0.0
Status,,33,22,5,3,1561097980,0.00,109.0,49.0,0,0,0,0.0
Status,,33,23,5,6,1561097980,0.00,17.0,44.0,0,0,0,0.0
Status,,33,24,5,16,1561097980,0.00,22.0,38.0,0,0,0,0.0
Status,,33,25,5,38,1561097980,27.00,142.0,36.0,1,0,0,27.0
Status,,33,26,5,19,1561097980,31.10,344.0,35.0,1,0,0,31.1
Status,,33,27,5,39,1561097980,0.00,27.0,30.0,0,0,0,0.0
Status,,33,28,5,10,1561097980,0.00,148.0,26.0,0,0,0,0.0
Status,,33,29,5,7,1561097980,0.00,135.0,25.0,0,0,0,0.0
Status,,33,30,5,37,1561097980,0.00,37.0,18.0,0,0,0,0.0
Status,,33,31,5,29,1561097980,0.00,220.0,16.0,0,0,0,0.0
Status,,33,32,5,32,1561097980,0.00,107.0,16.0,0,0,0,0.0
Raw,1726564130388,6012000000,18,707065.29832048,-1410599342376999936,0.0,231.4609888853925,-2902.3586653453976,0.0,0,26,0.0,47,205748319946112,74,30.743999481201172,-994.9894932958675,0.14999,17,-5452.839350788179,0.0006249999860301614,1575420030,,,,0,12.451389317357943,1,6.0,30.743999481201172,0.0,0.0,0.0,66.7128,C,
Raw,1726564130388,6012000000,18,707065.29832048,-1410599342376999936,0.0,231.4609888853925,-2902.3586653453976,0.0,0,31,0.0,47,205748319624970,487,20.63599967956543,-534.7440826803868,0.14999,16,-3906.1186614356834,0.009999999776482582,1575420030,,,,0,0.0,1,6.0,20.63599967956543,0.0,0.0,0.0,66.7128,C,
Raw,1726564130388,6012000000,18,707065.29832048,-1410599342376999936,0.0,231.4609888853925,-2902.3586653453976,0.0,0,21,0.0,47,205748312829954,487,20.885000228881836,-725.0069535488041,0.14999,16,-4837.4802381136815,0.009999999776482582,1575420030,,,,0,0.0,1,6.0,20.885000228881836,0.0,0.0,0.0,66.7128,C,
Raw,1726564130388,6012000000,18,707065.29832048,-1410599342376999936,0.0,231.4609888853925,-2902.3586653453976,0.0,0,19,0.0,47,205734308425323,74,31.100000381469727,-1240.9788818359375,0.14999,17,-6973.696199370843,0.0006249999860301614,1561097980,,,,0,13.253081400163705,5,6.0,31.100000381469727,0.0,0.0,12.811116187692065,66.7128,I,
Raw,1726564130388,6012000000,18,707065.29832048,-1410599342376999936,0.0,231.4609888853925,-2902.3586653453976,0.0,0,38,0.0,47,205734262081493,316,27.0,-709.9540405273438,0.14999,16,-4230.976890036899,0.002025000052526593,1561097980,,,,0,8.50063485470707,5,6.0,27.0,0.0,0.0,12.811116187692065,66.7128,I,
Raw,1726564130388,6012000000,18,707065.29832048,-1410599342376999936,0.0,231.4609888853925,-2902.3586653453976,0.0,0,14,0.0,17,82481,487,0.0,-1355.0013953246973,0.14999,16,-7577.62243216091,0.009999999776482582,1598062460,,,,0,0.0,3,6.0,19.0,0.0,0.0,-25.185445201597915,66.7128,C,
Fix,GPS,12.9350666667,77.5424566667,793.1,0.0,11.7,0.0,1726564130387,8.5,83.1,126737167000000,75.4,0,,,
Fix,FLP,12.9350667000,77.5424567000,793.1,0.0,11.7,,1726564131033,8.5,,126737167000000,75.4,0,,,
Status,1726564130387,64,0,2,128,1575420030,0.00,156.0,73.0,0,0,0,0.0
Status,1726564130387,64,1,1,26,1575420030,27.40,112.0,60.0,1,0,0,27.4
Status,1726564130387,64,2,1,31,1575420030,30.10,356.0,58.0,1,0,0,30.1
Status,1726564130387,64,3,1,16,1575420030,23.00,166.0,40.0,0,0,0,23.0
Status,1726564130387,64,4,1,21,1575420030,23.20,250.0,37.0,1,0,0,23.2
Status,1726564130387,64,5,1,2,1575420030,23.20,270.0,32.0,1,0,0,23.2
Status,1726564130387,64,6,1,10,1575420030,0.00,130.0,29.0,0,0,0,0.0
Status,1726564130387,64,7,1,28,1575420030,0.00,26.0,28.0,0,0,0,0.0
Status,1726564130387,64,8,1,3,1575420030,0.00,329.0,20.0,0,0,0,0.0
Status,1726564130387,64,9,1,32,1575420030,0.00,63.0,19.0,0,0,0,0.0
Status,1726564130387,64,10,1,27,1575420030,0.00,180.0,9.0,0,0,0,0.0
Status,1726564130387,64,11,1,4,1575420030,0.00,296.0,8.0,0,0,0,0.0
Status,1726564130387,64,12,1,8,1575420030,0.00,209.0,3.0,0,0,0,0.0
Status,1726564130387,64,13,3,14,1602000000,22.10,190.0,56.0,0,0,0,22.1
Status,1726564130387,64,14,3,13,1602000000,0.00,40.0,56.0,0,0,0,0.0
Status,1726564130387,64,15,3,2,1602000000,0.00,61.0,30.0,0,0,0,0.0
Status,1726564130387,64,16,3,3,1602000000,0.00,0.0,28.0,0,0,0,0.0
Status,1726564130387,64,17,3,18,1602000000,0.00,260.0,20.0,0,0,0,0.0
Status,1726564130387,64,18,3,17,1602000000,0.00,212.0,15.0,0,0,0,0.0
Status,1726564130387,64,19,3,12,1602000000,0.00,28.0,11.0,0,0,0,0.0
Status,1726564130387,64,20,3,19,1602000000,0.00,300.0,9.0,0,0,0,0.0
Status,1726564130387,64,21,3,1,1602000000,0.00,105.0,7.0,0,0,0,0.0
Status,1726564130387,64,22,3,15,1602000000,0.00,202.0,6.0,0,0,0,0.0
Status,1726564130387,64,23,3,4,1602000000,0.00,320.0,1.0,0,0,0,0.0
Status,1726564130387,64,24,6,21,1575420030,0.00,136.0,52.0,0,0,0,0.0
Status,1726564130387,64,25,6,33,1575420030,0.00,241.0,47.0,0,0,0,0.0
Status,1726564130387,64,26,6,29,1575420030,0.00,24.0,36.0,0,0,0,0.0
Status,1726564130387,64,27,6,27,1575420030,0.00,65.0,32.0,0,0,0,0.0
Status,1726564130387,64,28,6,19,1575420030,0.00,328.0,31.0,0,0,0,0.0
Status,1726564130387,64,29,6,26,1575420030,0.00,181.0,27.0,0,0,0,0.0
Status,1726564130387,64,30,6,12,1575420030,0.00,303.0,22.0,0,0,0,0.0
Status,1726564130387,64,31,6,7,1575420030,0.00,72.0,9.0,0,0,0,0.0
Status,1726564130387,64,32,6,10,1575420030,0.00,317.0,4.0,0,0,0,0.0
Status,1726564130387,64,33,5,2,1561097980,0.00,149.0,75.0,0,0,0,0.0
Status,1726564130387,64,34,5,56,1561097980,0.00,39.0,75.0,0,0,0,0.0
Status,1726564130387,64,35,5,60,1561097980,0.00,169.0,74.0,0,0,0,0.0
Status,1726564130387,64,36,5,46,1561097980,0.00,43.0,73.0,0,0,0,0.0
Status,1726564130387,64,37,5,13,1561097980,0.00,136.0,66.0,0,0,0,0.0
Status,1726564130387,64,38,5,5,1561097980,0.00,240.0,65.0,0,0,0,0.0
Status,1726564130387,64,39,5,9,1561097980,0.00,2.0,55.0,0,0,0,0.0
Status,1726564130387,64,40,5,8,1561097980,0.00,139.0,50.0,0,0,0,0.0
Status,1726564130387,64,41,5,36,1561097980,0.00,214.0,50.0,0,0,0,0.0
Status,1726564130387,64,42,5,3,1561097980,0.00,109.0,49.0,0,0,0,0.0
Status,1726564130387,64,43,5,20,1561097980,0.00,52.0,49.0,0,0,0,0.0
Status,1726564130387,64,44,5,61,1561097980,0.00,109.0,48.0,0,0,0,0.0
Status,1726564130387,64,45,5,6,1561097980,0.00,17.0,44.0,0,0,0,0.0
Status,1726564130387,64,46,5,16,1561097980,0.00,22.0,38.0,0,0,0,0.0
Status,1726564130387,64,47,5,38,1561097980,22.70,142.0,36.0,1,0,0,22.7
Status,1726564130387,64,48,5,19,1561097980,31.30,344.0,35.0,1,0,0,31.3
Status,1726564130387,64,49,5,39,1561097980,0.00,27.0,30.0,0,0,0,0.0
Status,1726564130387,64,50,5,10,1561097980,0.00,148.0,26.0,0,0,0,0.0
Status,1726564130387,64,51,5,7,1561097980,0.00,135.0,25.0,0,0,0,0.0
Status,1726564130387,64,52,5,37,1561097980,0.00,37.0,18.0,0,0,0,0.0
Status,1726564130387,64,53,5,59,1561097980,0.00,96.0,18.0,0,0,0,0.0
Status,1726564130387,64,54,5,29,1561097980,0.00,220.0,16.0,0,0,0,0.0
Status,1726564130387,64,55,5,32,1561097980,0.00,107.0,16.0,0,0,0,0.0
Status,1726564130387,64,56,5,1,1561097980,0.00,96.0,14.0,0,0,0,0.0
Status,1726564130387,64,57,5,40,1561097980,0.00,128.0,14.0,0,0,0,0.0
Status,1726564130387,64,58,5,30,1561097980,0.00,168.0,7.0,0,0,0,0.0
Status,1726564130387,64,59,5,35,1561097980,0.00,273.0,4.0,0,0,0,0.0
Status,1726564130387,64,60,5,45,1561097980,0.00,216.0,2.0,0,0,0,0.0
Status,1726564130387,64,61,4,196,1575420030,0.00,88.0,42.0,0,0,0,0.0
Status,1726564130387,64,62,4,199,1575420030,0.00,62.0,20.0,0,0,0,0.0
Status,1726564130387,64,63,4,194,1575420030,0.00,75.0,19.0,0,0,0,0.0
Raw,1726564131388,7012000000,18,706990.7675929592,-1410599342376999936,0.0,192.57251840289427,-2873.8896130346766,0.0,0,26,0.0,47,205749319949426,235,27.417999267578125,-988.6813695428007,0.14999,17,-6445.1197550235665,0.0008999999845400453,1575420030,,,,0,8.2847159403521,1,6.0,27.417999267578125,0.0,0.0,0.0,66.7128,C,
Raw,1726564131388,7012000000,18,706990.7675929592,-1410599342376999936,0.0,192.57251840289427,-2873.8896130346766,0.0,0,31,0.0,47,205749319626724,74,30.091999053955078,-527.7908838182366,0.14999,16,-4437.3236754499885,0.0006249999860301614,1575420030,,,,0,11.649288705291633,1,6.0,30.091999053955078,0.0,0.0,0.0,66.7128,C,
Raw,1726564131388,7012000000,18,706990.7675929592,-1410599342376999936,0.0,192.57251840289427,-2873.8896130346766,0.0,0,21,0.0,47,205749312832313,487,23.197999954223633,-717.4084008270733,0.14999,16,-5558.519184054136,0.009999999776482582,1575420030,,,,0,2.386282452193513,1,6.0,23.197999954223633,0.0,0.0,0.0,66.7128,C,
Raw,1726564131388,7012000000,18,706990.7675929592,-1410599342376999936,0.0,192.57251840289427,-2873.8896130346766,0.0,0,16,0.0,47,205749315426888,487,23.04599952697754,-1416.4385955359169,0.14999,16,-6675.0681599682885,0.009999999776482582,1575420030,,,,0,2.140206798247643,1,6.0,23.04599952697754,0.0,0.0,0.0,66.7128,C,
Raw,1726564131388,7012000000,18,706990.7675929592,-1410599342376999936,0.0,192.57251840289427,-2873.8896130346766,0.0,0,19,0.0,47,205735308429453,74,31.299999237060547,-1234.776611328125,0.14999,17,-8211.82516722281,0.0006249999860301614,1561097980,,,,0,14.516843014726405,5,6.0,31.299999237060547,0.0,0.0,20.960480038099163,66.7128,I,
Raw,1726564131388,7012000000,18,706990.7675929592,-1410599342376999936,0.0,192.57251840289427,-2873.8896130346766,0.0,0,38,0.0,47,205735262083766,316,22.700000762939453,-706.0864868164062,0.14999,16,-4940.210747791153,0.002025000052526593,1561097980,,,,0,3.079538895302179,5,6.0,22.700000762939453,0.0,0.0,20.960480038099163,66.7128,I,
Raw,1726564131388,7012000000,18,706990.7675929592,-1410599342376999936,0.0,192.57251840289427,-2873.8896130346766,0.0,0,14,0.0,17,86968,396,0.0,-1347.7228339097883,0.14999,16,-8928.084705225257,0.004900000058114529,1598062460,,,,0,2.246607437511004,3,6.0,22.0,0.0,0.0,-25.185445201597915,66.7128,C,
Raw,1726564131388,7012000000,18,706990.7675929592,-1410599342376999936,0.0,192.57251840289427,-2873.8896130346766,0.0,0,2,0.0,47,205749312069057,396,23.226999282836914,-856.6362369040521,0.14999,16,-5884.492925012072,0.004900000058114529,1575420030,,,,0,2.434671934661771,1,6.0,23.226999282836914,0.0,0.0,0.0,66.7128,C,
Fix,GPS,12.9351766667,77.5425516667,792.8000000000001,0.0,8.4,0.0,1726564131387,5.0,61.8,126738167000000,69.0,0,,,
Fix,FLP,12.9351633000,77.5425381000,792.8000000000001,0.5638597,10.05,0.0000000000002035555,1726564132033,5.0,61.8,126738167000000,69.0,0,,,
Status,1726564131387,64,0,2,128,1575420030,0.00,156.0,73.0,0,0,0,0.0
Status,1726564131387,64,1,1,26,1575420030,27.60,112.0,60.0,1,0,0,27.6
Status,1726564131387,64,2,1,31,1575420030,28.30,356.0,58.0,1,0,0,28.3
Status,1726564131387,64,3,1,16,1575420030,28.00,166.0,40.0,1,0,0,28.0
Status,1726564131387,64,4,1,21,1575420030,29.50,250.0,37.0,1,0,0,29.5
Status,1726564131387,64,5,1,2,1575420030,22.80,270.0,32.0,1,0,0,22.8
Status,1726564131387,64,6,1,10,1575420030,0.00,130.0,29.0,0,0,0,0.0
Status,1726564131387,64,7,1,28,1575420030,0.00,26.0,28.0,0,0,0,0.0
Status,1726564131387,64,8,1,3,1575420030,0.00,329.0,20.0,0,0,0,0.0
Status,1726564131387,64,9,1,32,1575420030,0.00,63.0,19.0,0,0,0,0.0
Status,1726564131387,64,10,1,27,1575420030,0.00,180.0,9.0,0,0,0,0.0
Status,1726564131387,64,11,1,4,1575420030,0.00,296.0,8.0,0,0,0,0.0
Status,1726564131387,64,12,1,8,1575420030,0.00,209.0,3.0,0,0,0,0.0
Status,1726564131387,64,13,3,14,1602000000,24.40,190.0,56.0,1,0,0,24.4
Status,1726564131387,64,14,3,13,1602000000,0.00,40.0,56.0,0,0,0,0.0
Status,1726564131387,64,15,3,2,1602000000,0.00,61.0,30.0,0,0,0,0.0
Status,1726564131387,64,16,3,3,1602000000,0.00,0.0,28.0,0,0,0,0.0
Status,1726564131387,64,17,3,18,1602000000,0.00,260.0,20.0,0,0,0,0.0
Status,1726564131387,64,18,3,17,1602000000,0.00,212.0,15.0,0,0,0,0.0
Status,1726564131387,64,19,3,12,1602000000,0.00,28.0,11.0,0,0,0,0.0
Status,1726564131387,64,20,3,19,1602000000,0.00,300.0,9.0,0,0,0,0.0
Status,1726564131387,64,21,3,1,1602000000,0.00,105.0,7.0,0,0,0,0.0
Status,1726564131387,64,22,3,15,1602000000,0.00,202.0,6.0,0,0,0,0.0
Status,1726564131387,64,23,3,4,1602000000,0.00,320.0,1.0,0,0,0,0.0
Status,1726564131387,64,24,6,21,1575420030,0.00,136.0,52.0,0,0,0,0.0
Status,1726564131387,64,25,6,33,1575420030,0.00,241.0,47.0,0,0,0,0.0
Status,1726564131387,64,26,6,29,1575420030,0.00,24.0,36.0,0,0,0,0.0
Status,1726564131387,64,27,6,27,1575420030,0.00,65.0,32.0,0,0,0,0.0
Status,1726564131387,64,28,6,19,1575420030,0.00,328.0,31.0,0,0,0,0.0
Status,1726564131387,64,29,6,26,1575420030,0.00,181.0,27.0,0,0,0,0.0
Status,1726564131387,64,30,6,12,1575420030,0.00,303.0,22.0,0,0,0,0.0
Status,1726564131387,64,31,6,7,1575420030,0.00,72.0,9.0,0,0,0,0.0
Status,1726564131387,64,32,6,10,1575420030,0.00,317.0,4.0,0,0,0,0.0
Status,1726564131387,64,33,5,2,1561097980,0.00,149.0,75.0,0,0,0,0.0
Status,1726564131387,64,34,5,56,1561097980,0.00,39.0,75.0,0,0,0,0.0
Status,1726564131387,64,35,5,60,1561097980,0.00,169.0,74.0,0,0,0,0.0
Status,1726564131387,64,36,5,46,1561097980,0.00,43.0,73.0,0,0,0,0.0
Status,1726564131387,64,37,5,13,1561097980,0.00,136.0,66.0,0,0,0,0.0
Status,1726564131387,64,38,5,5,1561097980,0.00,240.0,65.0,0,0,0,0.0
Status,1726564131387,64,39,5,9,1561097980,0.00,2.0,55.0,0,0,0,0.0
Status,1726564131387,64,40,5,8,1561097980,0.00,139.0,50.0,0,0,0,0.0
Status,1726564131387,64,41,5,36,1561097980,0.00,214.0,50.0,0,0,0,0.0
Status,1726564131387,64,42,5,3,1561097980,0.00,109.0,49.0,0,0,0,0.0
Status,1726564131387,64,43,5,20,1561097980,0.00,52.0,49.0,0,0,0,0.0
Status,1726564131387,64,44,5,61,1561097980,0.00,109.0,48.0,0,0,0,0.0
Status,1726564131387,64,45,5,6,1561097980,0.00,17.0,44.0,0,0,0,0.0
Status,1726564131387,64,46,5,16,1561097980,0.00,22.0,38.0,0,0,0,0.0
Status,1726564131387,64,47,5,38,1561097980,22.80,142.0,36.0,1,0,0,22.8
Status,1726564131387,64,48,5,19,1561097980,31.10,344.0,35.0,1,0,0,31.1
Status,1726564131387,64,49,5,39,1561097980,0.00,27.0,30.0,0,0,0,0.0
Status,1726564131387,64,50,5,10,1561097980,0.00,148.0,26.0,0,0,0,0.0
Status,1726564131387,64,51,5,7,1561097980,0.00,135.0,25.0,0,0,0,0.0
Status,1726564131387,64,52,5,37,1561097980,0.00,37.0,18.0,0,0,0,0.0
Status,1726564131387,64,53,5,59,1561097980,0.00,96.0,18.0,0,0,0,0.0
Status,1726564131387,64,54,5,29,1561097980,0.00,220.0,16.0,0,0,0,0.0
Status,1726564131387,64,55,5,32,1561097980,0.00,107.0,16.0,0,0,0,0.0
Status,1726564131387,64,56,5,1,1561097980,0.00,96.0,14.0,0,0,0,0.0
Status,1726564131387,64,57,5,40,1561097980,0.00,128.0,14.0,0,0,0,0.0
Status,1726564131387,64,58,5,30,1561097980,0.00,168.0,7.0,0,0,0,0.0
Status,1726564131387,64,59,5,35,1561097980,0.00,273.0,4.0,0,0,0,0.0
Status,1726564131387,64,60,5,45,1561097980,0.00,216.0,2.0,0,0,0,0.0
Status,1726564131387,64,61,4,196,1575420030,0.00,88.0,42.0,0,0,0,0.0
Status,1726564131387,64,62,4,199,1575420030,0.00,62.0,20.0,0,0,0,0.0
Status,1726564131387,64,63,4,194,1575420030,0.00,75.0,19.0,0,0,0,0.0
Fix,GPS,12.9351800000,77.5425783333,793.2,0.0,6.5,0.0,1726564133000,3.2,76.1,126739779000000,91.0,0,,,
Raw,1726564133000,8624000000,18,706974.6105820981,-1410599342376999936,0.0,232.93061316590268,-2838.132101835156,0.0,0,26,0.0,47,205750931954722,235,27.60700035095215,-978.7015442397825,0.14999,20,-8039.379407242965,0.0008999999845400453,1575420030,,,,0,8.527354333317898,1,6.0,27.60700035095215,0.0,0.0,0.0,66.7128,C,
Raw,1726564133000,8624000000,18,706974.6105820981,-1410599342376999936,0.0,232.93061316590268,-2838.132101835156,0.0,0,31,0.0,47,205750931629523,316,28.30900001525879,-518.3673051325072,0.14999,17,-5288.248354706464,0.002025000052526593,1575420030,,,,0,9.43532275541784,1,6.0,28.30900001525879,0.0,0.0,0.0,66.7128,C,
Raw,1726564133000,8624000000,18,706974.6105820981,-1410599342376999936,0.0,232.93061316590268,-2838.132101835156,0.0,0,21,0.0,47,205750924836167,235,29.488000869750977,-707.2234616164856,0.14999,17,-6714.746884373201,0.0008999999845400453,1575420030,,,,0,10.917779764838027,1,6.0,29.488000869750977,0.0,0.0,0.0,66.7128,C,
Raw,1726564133000,8624000000,18,706974.6105820981,-1410599342376999936,0.0,232.93061316590268,-2838.132101835156,0.0,0,16,0.0,47,205750927434513,235,27.95599937438965,-1405.0400231186613,0.14999,17,-8957.285177664535,0.0008999999845400453,1575420030,,,,0,8.993197311968105,1,6.0,27.95599937438965,0.0,0.0,0.0,66.7128,C,
Raw,1726564133000,8624000000,18,706974.6105820981,-1410599342376999936,0.0,232.93061316590268,-2838.132101835156,0.0,0,19,0.0,47,205736920436076,235,31.062000274658203,-1223.9443359375,0.14999,20,-10202.22744821076,0.0008999999845400453,1561097980,,,,0,11.083661493197756,5,6.0,31.062000274658203,0.0,0.0,24.00635292534095,66.7128,I,
Raw,1726564133000,8624000000,18,706974.6105820981,-1410599342376999936,0.0,232.93061316590268,-2838.132101835156,0.0,0,38,0.0,47,205736874087552,396,22.780000686645508,-696.8611450195312,0.14999,17,-6078.916151162877,0.004900000058114529,1561097980,,,,0,5.24853246249736,5,6.0,22.780000686645508,0.0,0.0,24.00635292534095,66.7128,I,
Raw,1726564133000,8624000000,18,706974.6105820981,-1410599342376999936,0.0,232.93061316590268,-2838.132101835156,0.0,0,14,0.0,17,94203,316,0.0,-1337.1862323186208,0.14999,16,-11099.34701542702,0.002025000052526593,1598062460,,,,0,5.340605748742627,3,6.0,25.0,0.0,0.0,-25.042064658048794,66.7128,C,
Raw,1726564133000,8624000000,18,706974.6105820981,-1410599342376999936,0.0,232.93061316590268,-2838.132101835156,0.0,0,2,0.0,47,205750924073726,396,22.833999633789062,-848.5744008558698,0.14999,16,-7266.76519053836,0.004900000058114529,1575420030,,,,0,1.8354074671129073,1,6.0,22.833999633789062,0.0,0.0,0.0,66.7128,C,
Fix,FLP,12.9351789000,77.5425723000,793.2,0.066060744,8.866,,1726564133645,3.2,,126739779000000,91.0,0,,,
Status,1726564133000,64,0,2,128,1575420030,0.00,156.0,73.0,0,0,0,0.0
Status,1726564133000,64,1,1,26,1575420030,26.70,112.0,60.0,1,0,0,26.7
Status,1726564133000,64,2,1,31,1575420030,28.20,356.0,58.0,1,0,0,28.2
Status,1726564133000,64,3,1,16,1575420030,27.90,166.0,40.0,1,0,0,27.9
Status,1726564133000,64,4,1,21,1575420030,28.10,250.0,37.0,1,0,0,28.1
Status,1726564133000,64,5,1,2,1575420030,22.20,270.0,32.0,1,0,0,22.2
Status,1726564133000,64,6,1,10,1575420030,0.00,130.0,29.0,0,0,0,0.0
Status,1726564133000,64,7,1,28,1575420030,0.00,26.0,28.0,0,0,0,0.0
Status,1726564133000,64,8,1,3,1575420030,20.60,329.0,20.0,1,0,0,20.6
Status,1726564133000,64,9,1,32,1575420030,0.00,63.0,19.0,0,0,0,0.0
Status,1726564133000,64,10,1,27,1575420030,0.00,180.0,9.0,0,0,0,0.0
Status,1726564133000,64,11,1,4,1575420030,0.00,296.0,8.0,0,0,0,0.0
Status,1726564133000,64,12,1,8,1575420030,0.00,209.0,3.0,0,0,0,0.0
Status,1726564133000,64,13,3,14,1602000000,28.70,190.0,56.0,1,0,0,28.7
Status,1726564133000,64,14,3,13,1602000000,0.00,40.0,56.0,0,0,0,0.0
Status,1726564133000,64,15,3,2,1602000000,0.00,61.0,30.0,0,0,0,0.0
Status,1726564133000,64,16,3,3,1602000000,0.00,0.0,28.0,0,0,0,0.0
Status,1726564133000,64,17,3,18,1602000000,0.00,260.0,20.0,0,0,0,0.0
Status,1726564133000,64,18,3,17,1602000000,0.00,212.0,15.0,0,0,0,0.0
Status,1726564133000,64,19,3,12,1602000000,0.00,28.0,11.0,0,0,0,0.0
Status,1726564133000,64,20,3,19,1602000000,0.00,300.0,9.0,0,0,0,0.0
Status,1726564133000,64,21,3,1,1602000000,0.00,105.0,7.0,0,0,0,0.0
Status,1726564133000,64,22,3,15,1602000000,0.00,202.0,6.0,0,0,0,0.0
Status,1726564133000,64,23,3,4,1602000000,0.00,320.0,1.0,0,0,0,0.0
Status,1726564133000,64,24,6,21,1575420030,0.00,136.0,52.0,0,0,0,0.0
Status,1726564133000,64,25,6,33,1575420030,0.00,241.0,47.0,0,0,0,0.0
Status,1726564133000,64,26,6,29,1575420030,0.00,24.0,36.0,0,0,0,0.0
Status,1726564133000,64,27,6,27,1575420030,0.00,65.0,32.0,0,0,0,0.0
Status,1726564133000,64,28,6,19,1575420030,0.00,328.0,31.0,0,0,0,0.0
Status,1726564133000,64,29,6,26,1575420030,0.00,181.0,27.0,0,0,0,0.0
Status,1726564133000,64,30,6,12,1575420030,0.00,303.0,22.0,0,0,0,0.0
Status,1726564133000,64,31,6,7,1575420030,0.00,72.0,9.0,0,0,0,0.0
Status,1726564133000,64,32,6,10,1575420030,0.00,317.0,4.0,0,0,0,0.0
Status,1726564133000,64,33,5,2,1561097980,0.00,149.0,75.0,0,0,0,0.0
Status,1726564133000,64,34,5,56,1561097980,0.00,39.0,75.0,0,0,0,0.0
Status,1726564133000,64,35,5,60,1561097980,0.00,169.0,74.0,0,0,0,0.0
Status,1726564133000,64,36,5,46,1561097980,0.00,43.0,73.0,0,0,0,0.0
Status,1726564133000,64,37,5,13,1561097980,0.00,136.0,66.0,0,0,0,0.0
Status,1726564133000,64,38,5,5,1561097980,0.00,240.0,65.0,0,0,0,0.0
Status,1726564133000,64,39,5,9,1561097980,24.30,2.0,55.0,1,0,0,24.3
Status,1726564133000,64,40,5,8,1561097980,25.10,139.0,50.0,1,0,0,25.1
Status,1726564133000,64,41,5,36,1561097980,0.00,214.0,50.0,0,0,0,0.0
Status,1726564133000,64,42,5,3,1561097980,0.00,109.0,49.0,0,0,0,0.0
Status,1726564133000,64,43,5,20,1561097980,0.00,52.0,49.0,0,0,0,0.0
Status,1726564133000,64,44,5,61,1561097980,0.00,109.0,48.0,0,0,0,0.0
Status,1726564133000,64,45,5,6,1561097980,0.00,17.0,44.0,0,0,0,0.0
Status,1726564133000,64,46,5,16,1561097980,0.00,22.0,38.0,0,0,0,0.0
Status,1726564133000,64,47,5,38,1561097980,22.80,142.0,36.0,1,0,0,22.8
Status,1726564133000,64,48,5,19,1561097980,27.40,344.0,35.0,1,0,0,27.4
Status,1726564133000,64,49,5,39,1561097980,0.00,27.0,30.0,0,0,0,0.0
Status,1726564133000,64,50,5,10,1561097980,0.00,148.0,26.0,0,0,0,0.0
Status,1726564133000,64,51,5,7,1561097980,0.00,135.0,25.0,0,0,0,0.0
Status,1726564133000,64,52,5,37,1561097980,0.00,37.0,18.0,0,0,0,0.0
Status,1726564133000,64,53,5,59,1561097980,0.00,96.0,18.0,0,0,0,0.0
Status,1726564133000,64,54,5,29,1561097980,0.00,220.0,16.0,0,0,0,0.0
Status,1726564133000,64,55,5,32,1561097980,0.00,107.0,16.0,0,0,0,0.0
Status,1726564133000,64,56,5,1,1561097980,0.00,96.0,14.0,0,0,0,0.0
Status,1726564133000,64,57,5,40,1561097980,0.00,128.0,14.0,0,0,0,0.0
Status,1726564133000,64,58,5,30,1561097980,0.00,168.0,7.0,0,0,0,0.0
Status,1726564133000,64,59,5,35,1561097980,0.00,273.0,4.0,0,0,0,0.0
Status,1726564133000,64,60,5,45,1561097980,0.00,216.0,2.0,0,0,0,0.0
Status,1726564133000,64,61,4,196,1575420030,0.00,88.0,42.0,0,0,0,0.0
Status,1726564133000,64,62,4,199,1575420030,0.00,62.0,20.0,0,0,0,0.0
Status,1726564133000,64,63,4,194,1575420030,0.00,75.0,19.0,0,0,0,0.0
Raw,1726564134000,9624000000,18,706937.7621734567,-1410599342376999936,0.0,223.57775302439657,-2813.123676770489,0.0,0,26,0.0,47,205751931957981,396,26.652000427246094,-971.8968729342574,0.14999,17,-9010.386881622002,0.004900000058114529,1575420030,,,,0,7.295432908387661,1,6.0,26.652000427246094,0.0,0.0,0.0,66.7128,C,
Raw,1726564134000,9624000000,18,706937.7621734567,-1410599342376999936,0.0,223.57775302439657,-2813.123676770489,0.0,0,31,0.0,47,205751931631234,235,28.198999404907227,-510.3851917265422,0.14999,17,-5797.935225536359,0.0008999999845400453,1575420030,,,,0,9.30503196785795,1,6.0,28.198999404907227,0.0,0.0,0.0,66.7128,C,
Raw,1726564134000,9624000000,18,706937.7621734567,-1410599342376999936,0.0,223.57775302439657,-2813.123676770489,0.0,0,21,0.0,47,205751924838519,316,28.135000228881836,-699.1660391178433,0.14999,17,-7413.942121066697,0.002025000052526593,1575420030,,,,0,9.217072840104183,1,6.0,28.135000228881836,0.0,0.0,0.0,66.7128,C,
Raw,1726564134000,9624000000,18,706937.7621734567,-1410599342376999936,0.0,223.57775302439657,-2813.123676770489,0.0,0,16,0.0,47,205751927439194,235,27.892000198364258,-1398.4183979730058,0.14999,20,-10354.621264316309,0.0008999999845400453,1575420030,,,,0,8.902006031957097,1,6.0,27.892000198364258,0.0,0.0,0.0,66.7128,C,
Raw,1726564134000,9624000000,18,706937.7621734567,-1410599342376999936,0.0,223.57775302439657,-2813.123676770489,0.0,0,19,0.0,47,205737920440151,235,27.399999618530273,-1216.7862548828125,0.14999,17,-11418.221601220414,0.0008999999845400453,1561097980,,,,0,8.981850622388377,5,6.0,27.399999618530273,0.0,0.0,22.474391478752878,66.7128,I,
Raw,1726564134000,9624000000,18,706937.7621734567,-1410599342376999936,0.0,223.57775302439657,-2813.123676770489,0.0,0,38,0.0,47,205737874089854,316,22.836000442504883,-689.26416015625,0.14999,20,-6767.171430859234,0.002025000052526593,1561097980,,,,0,4.651452300162589,5,6.0,22.836000442504883,0.0,0.0,22.474391478752878,66.7128,I,
Raw,1726564134000,9624000000,18,706937.7621734567,-1410599342376999936,0.0,223.57775302439657,-2813.123676770489,0.0,0,14,0.0,17,98656,235,0.0,-1329.463867354061,0.14999,16,-12428.470491612894,0.0008999999845400453,1598062460,,,,0,10.483697901652423,3,6.0,29.0,0.0,0.0,-24.890647709624773,66.7128,C,
Raw,1726564134000,9624000000,18,706937.7621734567,-1410599342376999936,0.0,223.57775302439657,-2813.123676770489,0.0,0,2,0.0,47,205751924076545,396,22.184999465942383,-842.0432767049923,0.14999,16,-8107.759701802275,0.004900000058114529,1575420030,,,,0,0.8510470137092752,1,6.0,22.184999465942383,0.0,0.0,0.0,66.7128,C,
Raw,1726564134000,9624000000,18,706937.7621734567,-1410599342376999936,0.0,223.57775302439657,-2813.123676770489,0.0,0,3,0.0,47,205751922556126,487,20.59000015258789,-1467.1865173151741,0.14999,16,-9512.561332269106,0.009999999776482582,1575420030,,,,0,0.0,1,6.0,20.59000015258789,0.0,0.0,0.0,66.7128,C,
Raw,1726564134000,9624000000,18,706937.7621734567,-1410599342376999936,0.0,223.57775302439657,-2813.123676770489,0.0,0,8,0.0,47,205737876985369,235,25.100000381469727,-728.1306762695312,0.14999,16,-7850.598876051124,0.0008999999845400453,1561097980,,,,0,6.2438998624404904,5,6.0,25.100000381469727,0.0,0.0,22.474391478752878,66.7128,I,
Raw,1726564134000,9624000000,18,706937.7621734567,-1410599342376999936,0.0,223.57775302439657,-2813.123676770489,0.0,0,9,0.0,47,205737875897161,316,24.299999237060547,-690.6842651367188,0.14999,16,-7935.239489978397,0.002025000052526593,1561097980,,,,0,5.215336312934521,5,6.0,24.299999237060547,0.0,0.0,22.474391478752878,66.7128,I,
Fix,GPS,12.9351783333,77.5425866667,793.2,0.0,6.1,0.0,1726564134000,3.2,83.5,126740779000000,88.4,0,,,
Fix,FLP,12.9351785000,77.5425838000,793.2,0.007078366,8.175,,1726564134645,3.2,,126740779000000,88.4,0,,,
Status,1726564134000,64,0,2,128,1575420030,0.00,156.0,73.0,0,0,0,0.0
Status,1726564134000,64,1,1,26,1575420030,27.40,112.0,60.0,1,0,0,27.4
Status,1726564134000,64,2,1,31,1575420030,25.30,356.0,58.0,1,0,0,25.3
Status,1726564134000,64,3,1,16,1575420030,27.00,166.0,40.0,1,0,0,27.0
Status,1726564134000,64,4,1,21,1575420030,29.80,250.0,37.0,1,0,0,29.8
Status,1726564134000,64,5,1,2,1575420030,21.20,270.0,32.0,1,0,0,21.2
Status,1726564134000,64,6,1,10,1575420030,0.00,130.0,29.0,0,0,0,0.0
Status,1726564134000,64,7,1,28,1575420030,0.00,26.0,28.0,0,0,0,0.0
Status,1726564134000,64,8,1,3,1575420030,24.00,329.0,20.0,1,0,0,24.0
Status,1726564134000,64,9,1,32,1575420030,0.00,63.0,19.0,0,0,0,0.0
Status,1726564134000,64,10,1,27,1575420030,0.00,180.0,9.0,0,0,0,0.0
Status,1726564134000,64,11,1,4,1575420030,0.00,296.0,8.0,0,0,0,0.0
Status,1726564134000,64,12,1,8,1575420030,0.00,209.0,3.0,0,0,0,0.0
Status,1726564134000,64,13,3,14,1602000000,28.50,190.0,56.0,1,0,0,28.5
Status,1726564134000,64,14,3,13,1602000000,0.00,40.0,56.0,0,0,0,0.0
Status,1726564134000,64,15,3,2,1602000000,0.00,61.0,30.0,0,0,0,0.0
Status,1726564134000,64,16,3,3,1602000000,0.00,0.0,28.0,0,0,0,0.0
Status,1726564134000,64,17,3,18,1602000000,0.00,260.0,20.0,0,0,0,0.0
Status,1726564134000,64,18,3,17,1602000000,0.00,212.0,15.0,0,0,0,0.0
Status,1726564134000,64,19,3,12,1602000000,0.00,28.0,11.0,0,0,0,0.0
Status,1726564134000,64,20,3,19,1602000000,0.00,300.0,9.0,0,0,0,0.0
Status,1726564134000,64,21,3,1,1602000000,0.00,105.0,7.0,0,0,0,0.0
Status,1726564134000,64,22,3,15,1602000000,0.00,202.0,6.0,0,0,0,0.0
Status,1726564134000,64,23,3,4,1602000000,0.00,320.0,1.0,0,0,0,0.0
Status,1726564134000,64,24,6,21,1575420030,0.00,136.0,52.0,0,0,0,0.0
Status,1726564134000,64,25,6,33,1575420030,24.10,241.0,47.0,1,0,0,24.1
Status,1726564134000,64,26,6,29,1575420030,0.00,24.0,36.0,0,0,0,0.0
Status,1726564134000,64,27,6,27,1575420030,0.00,65.0,32.0,0,0,0,0.0
Status,1726564134000,64,28,6,19,1575420030,0.00,328.0,31.0,0,0,0,0.0
Status,1726564134000,64,29,6,26,1575420030,0.00,181.0,27.0,0,0,0,0.0
Status,1726564134000,64,30,6,12,1575420030,0.00,303.0,22.0,0,0,0,0.0
Status,1726564134000,64,31,6,7,1575420030,0.00,72.0,9.0,0,0,0,0.0
Status,1726564134000,64,32,6,10,1575420030,0.00,317.0,4.0,0,0,0,0.0
Status,1726564134000,64,33,5,2,1561097980,0.00,149.0,75.0,0,0,0,0.0
Status,1726564134000,64,34,5,56,1561097980,0.00,39.0,75.0,0,0,0,0.0
Status,1726564134000,64,35,5,60,1561097980,0.00,169.0,74.0,0,0,0,0.0
Status,1726564134000,64,36,5,46,1561097980,0.00,43.0,73.0,0,0,0,0.0
Status,1726564134000,64,37,5,13,1561097980,0.00,136.0,66.0,0,0,0,0.0
Status,1726564134000,64,38,5,5,1561097980,0.00,240.0,65.0,0,0,0,0.0
Status,1726564134000,64,39,5,9,1561097980,24.50,2.0,55.0,1,0,0,24.5
Status,1726564134000,64,40,5,8,1561097980,0.00,139.0,50.0,0,0,0,0.0
Status,1726564134000,64,41,5,36,1561097980,0.00,214.0,50.0,0,0,0,0.0
Status,1726564134000,64,42,5,3,1561097980,0.00,109.0,49.0,0,0,0,0.0
Status,1726564134000,64,43,5,20,1561097980,33.30,52.0,49.0,1,0,0,33.3
Status,1726564134000,64,44,5,61,1561097980,0.00,109.0,48.0,0,0,0,0.0
Status,1726564134000,64,45,5,6,1561097980,0.00,17.0,44.0,0,0,0,0.0
Status,1726564134000,64,46,5,16,1561097980,0.00,22.0,38.0,0,0,0,0.0
Status,1726564134000,64,47,5,38,1561097980,20.10,142.0,36.0,1,0,0,20.1
Status,1726564134000,64,48,5,19,1561097980,22.80,344.0,35.0,1,0,0,22.8
Status,1726564134000,64,49,5,39,1561097980,0.00,27.0,30.0,0,0,0,0.0
Status,1726564134000,64,50,5,10,1561097980,0.00,148.0,26.0,0,0,0,0.0
Status,1726564134000,64,51,5,7,1561097980,0.00,135.0,25.0,0,0,0,0.0
Status,1726564134000,64,52,5,37,1561097980,0.00,37.0,18.0,0,0,0,0.0
Status,1726564134000,64,53,5,59,1561097980,0.00,96.0,18.0,0,0,0,0.0
Status,1726564134000,64,54,5,29,1561097980,0.00,220.0,16.0,0,0,0,0.0
Status,1726564134000,64,55,5,32,1561097980,0.00,107.0,16.0,0,0,0,0.0
Status,1726564134000,64,56,5,1,1561097980,0.00,96.0,14.0,0,0,0,0.0
Status,1726564134000,64,57,5,40,1561097980,0.00,128.0,14.0,0,0,0,0.0
Status,1726564134000,64,58,5,30,1561097980,0.00,168.0,7.0,0,0,0,0.0
Status,1726564134000,64,59,5,35,1561097980,0.00,273.0,4.0,0,0,0,0.0
Status,1726564134000,64,60,5,45,1561097980,0.00,216.0,2.0,0,0,0,0.0
Status,1726564134000,64,61,4,196,1575420030,0.00,88.0,42.0,0,0,0,0.0
Status,1726564134000,64,62,4,199,1575420030,0.00,62.0,20.0,0,0,0,0.0
Status,1726564134000,64,63,4,194,1575420030,0.00,75.0,19.0,0,0,0,0.0
Fix,GPS,12.9351783333,77.5426016667,793.1,0.0,5.8,0.0,1726564135000,3.4,100.3,126741779000000,65.4,0,,,
Raw,1726564135000,10624000000,18,706910.3473743825,-1410599342376999936,0.0,165.82133811300898,-2792.657972968735,0.0,0,26,0.0,47,205752931961214,316,27.417999267578125,-965.068507836465,0.14999,20,-9979.377297077288,0.002025000052526593,1575420030,,,,0,8.2847159403521,1,6.0,27.417999267578125,0.0,0.0,0.0,66.7128,C,
Raw,1726564135000,10624000000,18,706910.3473743825,-1410599342376999936,0.0,165.82133811300898,-2792.657972968735,0.0,0,31,0.0,47,205752931632927,396,25.327999114990234,-504.2742374918728,0.14999,20,-6305.4252462754175,0.004900000058114529,1575420030,,,,0,5.494021138832641,1,6.0,25.327999114990234,0.0,0.0,0.0,66.7128,C,
Raw,1726564135000,10624000000,18,706910.3473743825,-1410599342376999936,0.0,165.82133811300898,-2792.657972968735,0.0,0,21,0.0,47,205752924840845,74,29.849000930786133,-693.0146196026545,0.14999,21,-8111.087025899481,0.0006249999860301614,1575420030,,,,0,11.360581533714198,1,6.0,29.849000930786133,0.0,0.0,0.0,66.7128,C,
Raw,1726564135000,10624000000,18,706910.3473743825,-1410599342376999936,0.0,165.82133811300898,-2792.657972968735,0.0,0,16,0.0,47,205752927443848,316,27.006000518798828,-1391.8577262694184,0.14999,17,-11750.009660267036,0.002025000052526593,1575420030,,,,0,7.7519835066763765,1,6.0,27.006000518798828,0.0,0.0,0.0,66.7128,C,
Raw,1726564135000,10624000000,18,706910.3473743825,-1410599342376999936,0.0,165.82133811300898,-2792.657972968735,0.0,0,19,0.0,47,205738920444206,396,22.799999237060547,-1212.1949462890625,0.14999,20,-12633.664006983308,0.004900000058114529,1561097980,,,,0,3.2771360527733915,5,6.0,22.799999237060547,0.0,0.0,21.513628232014995,66.7128,I,
Raw,1726564135000,10624000000,18,706910.3473743825,-1410599342376999936,0.0,165.82133811300898,-2792.657972968735,0.0,0,38,0.0,47,205738874092143,396,20.100000381469727,-683.3546142578125,0.14999,16,-7453.676313506002,0.004900000058114529,1561097980,,,,0,0.0,5,6.0,20.100000381469727,0.0,0.0,21.513628232014995,66.7128,I,
Raw,1726564135000,10624000000,18,706910.3473743825,-1410599342376999936,0.0,165.82133811300898,-2792.657972968735,0.0,0,14,0.0,17,103021,235,0.0,-1323.3498208053454,0.14999,17,-13755.875906474734,0.0008999999845400453,1598062460,,,,0,10.318768552373825,3,6.0,29.0,0.0,0.0,-18.55061831925218,66.7128,C,
Raw,1726564135000,10624000000,18,706910.3473743825,-1410599342376999936,0.0,165.82133811300898,-2792.657972968735,0.0,0,2,0.0,47,205752924079340,396,21.243999481201172,-835.3803035689093,0.14999,16,-8946.998413046,0.004900000058114529,1575420030,,,,0,0.0,1,6.0,21.243999481201172,0.0,0.0,0.0,66.7128,C,
Raw,1726564135000,10624000000,18,706910.3473743825,-1410599342376999936,0.0,165.82133811300898,-2792.657972968735,0.0,0,3,0.0,47,205752922561016,396,24.034000396728516,-1461.9240795941741,0.14999,16,-10977.751085642174,0.004900000058114529,1575420030,,,,0,3.648628741734004,1,6.0,24.034000396728516,0.0,0.0,0.0,66.7128,C,
Raw,1726564135000,10624000000,18,706910.3473743825,-1410599342376999936,0.0,165.82133811300898,-2792.657972968735,0.0,0,20,0.0,47,205738923810900,74,33.29999923706055,-931.7330322265625,0.14999,16,-9162.806882208357,0.0006249999860301614,1561097980,,,,0,15.653035032206402,5,6.0,33.29999923706055,0.0,0.0,21.513628232014995,66.7128,I,
Raw,1726564135000,10624000000,18,706910.3473743825,-1410599342376999936,0.0,165.82133811300898,-2792.657972968735,0.0,0,9,0.0,47,205738875899464,316,24.5,-688.7323608398438,0.14999,16,-8626.856084897094,0.002025000052526593,1561097980,,,,0,5.460025441274753,5,6.0,24.5,0.0,0.0,21.513628232014995,66.7128,I,
Raw,1726564135000,10624000000,18,706910.3473743825,-1410599342376999936,0.0,165.82133811300898,-2792.657972968735,0.0,0,33,0.0,47,205752918767074,316,24.100000381469727,-586.1679744155074,0.14999,24,-8588.882419736454,0.002025000052526593,1575420030,,,,0,5.005529152204274,6,6.0,24.100000381469727,0.0,0.0,17.46093459374659,66.7128,C,
Fix,FLP,12.9351784000,77.5425962000,793.1,0.001372687,7.7,,1726564135645,3.4,,126741779000000,65.4,0,,,
Status,1726564135000,64,0,2,128,1575420030,0.00,156.0,73.0,0,0,0,0.0
Status,1726564135000,64,1,1,26,1575420030,29.20,112.0,60.0,1,0,0,29.2
Status,1726564135000,64,2,1,31,1575420030,25.80,356.0,58.0,1,0,0,25.8
Status,1726564135000,64,3,1,16,1575420030,23.60,166.0,40.0,1,0,0,23.6
Status,1726564135000,64,4,1,21,1575420030,27.90,250.0,37.0,1,0,0,27.9
Status,1726564135000,64,5,1,2,1575420030,23.80,270.0,32.0,1,0,0,23.8
Status,1726564135000,64,6,1,10,1575420030,0.00,130.0,29.0,0,0,0,0.0
Status,1726564135000,64,7,1,28,1575420030,21.00,26.0,28.0,1,0,0,21.0
Status,1726564135000,64,8,1,3,1575420030,24.10,329.0,20.0,1,0,0,24.1
Status,1726564135000,64,9,1,32,1575420030,0.00,63.0,19.0,0,0,0,0.0
Status,1726564135000,64,10,1,27,1575420030,0.00,180.0,9.0,0,0,0,0.0
Status,1726564135000,64,11,1,4,1575420030,0.00,296.0,8.0,0,0,0,0.0
Status,1726564135000,64,12,1,8,1575420030,0.00,209.0,3.0,0,0,0,0.0
Status,1726564135000,64,13,3,14,1602000000,24.80,190.0,56.0,1,0,0,24.8
Status,1726564135000,64,14,3,13,1602000000,0.00,40.0,56.0,0,0,0,0.0
Status,1726564135000,64,15,3,2,1602000000,0.00,61.0,30.0,0,0,0,0.0
Status,1726564135000,64,16,3,3,1602000000,0.00,0.0,28.0,0,0,0,0.0
Status,1726564135000,64,17,3,18,1602000000,0.00,260.0,20.0,0,0,0,0.0
Status,1726564135000,64,18,3,17,1602000000,0.00,212.0,15.0,0,0,0,0.0
Status,1726564135000,64,19,3,12,1602000000,0.00,28.0,11.0,0,0,0,0.0
Status,1726564135000,64,20,3,19,1602000000,0.00,300.0,9.0,0,0,0,0.0
Status,1726564135000,64,21,3,1,1602000000,0.00,105.0,7.0,0,0,0,0.0
Status,1726564135000,64,22,3,15,1602000000,0.00,202.0,6.0,0,0,0,0.0
Status,1726564135000,64,23,3,4,1602000000,0.00,320.0,1.0,0,0,0,0.0
Status,1726564135000,64,24,6,21,1575420030,23.50,136.0,52.0,1,0,0,23.5
Status,1726564135000,64,25,6,33,1575420030,24.40,241.0,47.0,1,0,0,24.4
Status,1726564135000,64,26,6,29,1575420030,0.00,24.0,36.0,0,0,0,0.0
Status,1726564135000,64,27,6,27,1575420030,0.00,65.0,32.0,0,0,0,0.0
Status,1726564135000,64,28,6,19,1575420030,0.00,328.0,31.0,0,0,0,0.0
Status,1726564135000,64,29,6,26,1575420030,0.00,181.0,27.0,0,0,0,0.0
Status,1726564135000,64,30,6,12,1575420030,0.00,303.0,22.0,0,0,0,0.0
Status,1726564135000,64,31,6,7,1575420030,0.00,72.0,9.0,0,0,0,0.0
Status,1726564135000,64,32,6,10,1575420030,0.00,317.0,4.0,0,0,0,0.0
Status,1726564135000,64,33,5,2,1561097980,0.00,149.0,75.0,0,0,0,0.0
Status,1726564135000,64,34,5,56,1561097980,0.00,39.0,75.0,0,0,0,0.0
Status,1726564135000,64,35,5,60,1561097980,0.00,169.0,74.0,0,0,0,0.0
Status,1726564135000,64,36,5,46,1561097980,0.00,43.0,73.0,0,0,0,0.0
Status,1726564135000,64,37,5,13,1561097980,0.00,136.0,66.0,0,0,0,0.0
Status,1726564135000,64,38,5,5,1561097980,0.00,240.0,65.0,0,0,0,0.0
Status,1726564135000,64,39,5,9,1561097980,24.50,2.0,55.0,1,0,0,24.5
Status,1726564135000,64,40,5,8,1561097980,0.00,139.0,50.0,0,0,0,0.0
Status,1726564135000,64,41,5,36,1561097980,0.00,214.0,50.0,0,0,0,0.0
Status,1726564135000,64,42,5,3,1561097980,0.00,109.0,49.0,0,0,0,0.0
Status,1726564135000,64,43,5,20,1561097980,37.00,52.0,49.0,1,0,0,37.0
Status,1726564135000,64,44,5,61,1561097980,0.00,109.0,48.0,0,0,0,0.0
Status,1726564135000,64,45,5,6,1561097980,0.00,17.0,44.0,0,0,0,0.0
Status,1726564135000,64,46,5,16,1561097980,0.00,22.0,38.0,0,0,0,0.0
Status,1726564135000,64,47,5,38,1561097980,20.10,142.0,36.0,1,0,0,20.1
Status,1726564135000,64,48,5,19,1561097980,24.80,344.0,35.0,1,0,0,24.8
Status,1726564135000,64,49,5,39,1561097980,0.00,27.0,30.0,0,0,0,0.0
Status,1726564135000,64,50,5,10,1561097980,0.00,148.0,26.0,0,0,0,0.0
Status,1726564135000,64,51,5,7,1561097980,0.00,135.0,25.0,0,0,0,0.0
Status,1726564135000,64,52,5,37,1561097980,0.00,37.0,18.0,0,0,0,0.0
Status,1726564135000,64,53,5,59,1561097980,0.00,96.0,18.0,0,0,0,0.0
Status,1726564135000,64,54,5,29,1561097980,0.00,220.0,16.0,0,0,0,0.0
Status,1726564135000,64,55,5,32,1561097980,0.00,107.0,16.0,0,0,0,0.0
Status,1726564135000,64,56,5,1,1561097980,0.00,96.0,14.0,0,0,0,0.0
Status,1726564135000,64,57,5,40,1561097980,0.00,128.0,14.0,0,0,0,0.0
Status,1726564135000,64,58,5,30,1561097980,0.00,168.0,7.0,0,0,0,0.0
Status,1726564135000,64,59,5,35,1561097980,0.00,273.0,4.0,0,0,0,0.0
Status,1726564135000,64,60,5,45,1561097980,0.00,216.0,2.0,0,0,0,0.0
Status,1726564135000,64,61,4,196,1575420030,0.00,88.0,42.0,0,0,0,0.0
Status,1726564135000,64,62,4,199,1575420030,0.00,62.0,20.0,0,0,0,0.0
Status,1726564135000,64,63,4,194,1575420030,0.00,75.0,19.0,0,0,0,0.0
Fix,GPS,12.9351633333,77.5425766667,793.1,0.0,5.5,0.0,1726564136000,3.1,83.4,126742779000000,65.5,0,,,
Raw,1726564136000,11624000000,18,706892.1055879265,-1410599342376999936,0.0,164.89558271971194,-2774.324528470758,0.0,0,26,0.0,47,205753931964424,235,29.1560001373291,-959.8909961002977,0.14999,17,-10942.178024348856,0.0008999999845400453,1575420030,,,,0,10.508518685884349,1,6.0,29.1560001373291,0.0,0.0,0.0,66.7128,C,
Raw,1726564136000,11624000000,18,706892.1055879265,-1410599342376999936,0.0,164.89558271971194,-2774.324528470758,0.0,0,31,0.0,47,205753931634600,316,25.78700065612793,-498.96478385366765,0.14999,16,-6807.378278927403,0.002025000052526593,1575420030,,,,0,6.1158757092009015,1,6.0,25.78700065612793,0.0,0.0,0.0,66.7128,C,
Raw,1726564136000,11624000000,18,706892.1055879265,-1410599342376999936,0.0,164.89558271971194,-2774.324528470758,0.0,0,21,0.0,47,205753924843148,316,27.908000946044922,-689.0186383075537,0.14999,20,-8802.657958842236,0.002025000052526593,1575420030,,,,0,8.924893764931852,1,6.0,27.908000946044922,0.0,0.0,0.0,66.7128,C,
Raw,1726564136000,11624000000,18,706892.1055879265,-1410599342376999936,0.0,164.89558271971194,-2774.324528470758,0.0,0,16,0.0,47,205753927448483,396,23.599000930786133,-1385.868586002053,0.14999,20,-13139.264878890062,0.004900000058114529,1575420030,,,,0,2.9952464066666424,1,6.0,23.599000930786133,0.0,0.0,0.0,66.7128,C,
Raw,1726564136000,11624000000,18,706892.1055879265,-1410599342376999936,0.0,164.89558271971194,-2774.324528470758,0.0,0,19,0.0,47,205739920448238,316,24.799999237060547,-1206.3875732421875,0.14999,16,-13843.058878643451,0.002025000052526593,1561097980,,,,0,5.837732324482229,5,6.0,24.799999237060547,0.0,0.0,23.73056864104275,66.7128,I,
Raw,1726564136000,11624000000,18,706892.1055879265,-1410599342376999936,0.0,164.89558271971194,-2774.324528470758,0.0,0,38,0.0,47,205739874094413,487,20.114999771118164,-677.8968505859375,0.14999,16,-8134.515748432268,0.009999999776482582,1561097980,,,,0,0.0,5,6.0,20.114999771118164,0.0,0.0,23.73056864104275,66.7128,I,
Raw,1726564136000,11624000000,18,706892.1055879265,-1410599342376999936,0.0,164.89558271971194,-2774.324528470758,0.0,0,14,0.0,17,107435,316,0.0,-1318.2496981969975,0.14999,20,-15077.473988440071,0.002025000052526593,1598062460,,,,0,5.806122605444162,3,6.0,25.0,0.0,0.0,-11.727633475472658,66.7128,C,
Raw,1726564136000,11624000000,18,706892.1055879265,-1410599342376999936,0.0,164.89558271971194,-2774.324528470758,0.0,0,2,0.0,47,205753924082100,396,23.82200050354004,-831.2486636984738,0.14999,16,-9780.293697652081,0.004900000058114529,1575420030,,,,0,3.3062833607897826,1,6.0,23.82200050354004,0.0,0.0,0.0,66.7128,C,
Raw,1726564136000,11624000000,18,706892.1055879265,-1410599342376999936,0.0,164.89558271971194,-2774.324528470758,0.0,0,3,0.0,47,205753922565892,487,24.08799934387207,-1456.1672314078614,0.14999,16,-12437.208417793076,0.009999999776482582,1575420030,,,,0,3.7321475548167307,1,6.0,24.08799934387207,0.0,0.0,0.0,66.7128,C,
Raw,1726564136000,11624000000,18,706892.1055879265,-1410599342376999936,0.0,164.89558271971194,-2774.324528470758,0.0,0,20,0.0,47,205739923813994,51,37.0,-929.174072265625,0.14999,17,-10094.113127157221,0.00022499999613501132,1561097980,,,,0,19.526148527511648,5,6.0,37.0,0.0,0.0,23.73056864104275,66.7128,I,
Raw,1726564136000,11624000000,18,706892.1055879265,-1410599342376999936,0.0,164.89558271971194,-2774.324528470758,0.0,0,9,0.0,47,205739875901750,396,24.5,-680.543701171875,0.14999,16,-9312.596972061916,0.004900000058114529,1561097980,,,,0,5.460025441274753,5,6.0,24.5,0.0,0.0,23.73056864104275,66.7128,I,
Raw,1726564136000,11624000000,18,706892.1055879265,-1410599342376999936,0.0,164.89558271971194,-2774.324528470758,0.0,0,33,0.0,47,205753918769032,396,24.399999618530273,-582.0427458065088,0.14999,24,-9173.95013391199,0.004900000058114529,1575420030,,,,0,5.391632256112008,6,6.0,24.399999618530273,0.0,0.0,17.59021778900699,66.7128,C,
Raw,1726564136000,11624000000,18,706892.1055879265,-1410599342376999936,0.0,164.89558271971194,-2774.324528470758,0.0,0,21,0.0,47,205753919011698,396,23.5,-1123.8024210020167,0.14999,24,-10218.680707998303,0.004900000058114529,1575420030,,,,0,4.177675449039774,6,6.0,23.5,0.0,0.0,17.59021778900699,66.7128,C,
Raw,1726564136000,11624000000,18,706892.1055879265,-1410599342376999936,0.0,164.89558271971194,-2774.324528470758,0.0,0,28,0.0,47,205753923859745,487,21.003000259399414,-290.15157843496075,0.14999,16,-8900.043359182711,0.009999999776482582,1575420030,,,,0,0.0,1,6.0,21.003000259399414,0.0,0.0,0.0,66.7128,C,
Fix,FLP,12.9351674000,77.5425826000,793.1,0.13245803,6.46,180.0,1726564136645,3.1,83.4,126742779000000,65.5,0,,,
Status,1726564136000,64,0,2,128,1575420030,0.00,156.0,73.0,0,0,0,0.0
Status,1726564136000,64,1,1,26,1575420030,28.90,112.0,60.0,1,0,0,28.9
Status,1726564136000,64,2,1,31,1575420030,29.90,356.0,58.0,1,0,0,29.9
Status,1726564136000,64,3,1,16,1575420030,25.70,166.0,40.0,1,0,0,25.7
Status,1726564136000,64,4,1,21,1575420030,28.70,250.0,37.0,1,0,0,28.7
Status,1726564136000,64,5,1,2,1575420030,29.20,270.0,32.0,1,0,0,29.2
Status,1726564136000,64,6,1,10,1575420030,0.00,130.0,29.0,0,0,0,0.0
Status,1726564136000,64,7,1,28,1575420030,21.00,26.0,28.0,1,0,0,21.0
Status,1726564136000,64,8,1,3,1575420030,21.50,329.0,20.0,1,0,0,21.5
Status,1726564136000,64,9,1,32,1575420030,0.00,63.0,19.0,0,0,0,0.0
Status,1726564136000,64,10,1,27,1575420030,0.00,180.0,9.0,0,0,0,0.0
Status,1726564136000,64,11,1,4,1575420030,0.00,296.0,8.0,0,0,0,0.0
Status,1726564136000,64,12,1,8,1575420030,0.00,209.0,3.0,0,0,0,0.0
Status,1726564136000,64,13,3,14,1602000000,26.20,190.0,56.0,1,0,0,26.2
Status,1726564136000,64,14,3,13,1602000000,0.00,40.0,56.0,0,0,0,0.0
Status,1726564136000,64,15,3,2,1602000000,20.90,61.0,30.0,1,0,0,20.9
Status,1726564136000,64,16,3,3,1602000000,22.40,0.0,28.0,1,0,0,22.4
Status,1726564136000,64,17,3,18,1602000000,0.00,260.0,20.0,0,0,0,0.0
Status,1726564136000,64,18,3,17,1602000000,0.00,212.0,15.0,0,0,0,0.0
Status,1726564136000,64,19,3,12,1602000000,0.00,28.0,11.0,0,0,0,0.0
Status,1726564136000,64,20,3,19,1602000000,0.00,300.0,9.0,0,0,0,0.0
Status,1726564136000,64,21,3,1,1602000000,0.00,105.0,7.0,0,0,0,0.0
Status,1726564136000,64,22,3,15,1602000000,0.00,202.0,6.0,0,0,0,0.0
Status,1726564136000,64,23,3,4,1602000000,0.00,320.0,1.0,0,0,0,0.0
Status,1726564136000,64,24,6,21,1575420030,20.40,136.0,52.0,1,0,0,20.4
Status,1726564136000,64,25,6,33,1575420030,22.00,241.0,47.0,1,0,0,22.0
Status,1726564136000,64,26,6,29,1575420030,0.00,24.0,36.0,0,0,0,0.0
Status,1726564136000,64,27,6,27,1575420030,0.00,65.0,32.0,0,0,0,0.0
Status,1726564136000,64,28,6,19,1575420030,0.00,328.0,31.0,0,0,0,0.0
Status,1726564136000,64,29,6,26,1575420030,0.00,181.0,27.0,0,0,0,0.0
Status,1726564136000,64,30,6,12,1575420030,0.00,303.0,22.0,0,0,0,0.0
Status,1726564136000,64,31,6,7,1575420030,0.00,72.0,9.0,0,0,0,0.0
Status,1726564136000,64,32,6,10,1575420030,0.00,317.0,4.0,0,0,0,0.0
Status,1726564136000,64,33,5,2,1561097980,0.00,149.0,75.0,0,0,0,0.0
Status,1726564136000,64,34,5,56,1561097980,0.00,39.0,75.0,0,0,0,0.0
Status,1726564136000,64,35,5,60,1561097980,0.00,169.0,74.0,0,0,0,0.0
Status,1726564136000,64,36,5,46,1561097980,0.00,43.0,73.0,0,0,0,0.0
Status,1726564136000,64,37,5,13,1561097980,0.00,136.0,66.0,0,0,0,0.0
Status,1726564136000,64,38,5,5,1561097980,0.00,240.0,65.0,0,0,0,0.0
Status,1726564136000,64,39,5,9,1561097980,23.60,2.0,55.0,1,0,0,23.6
Status,1726564136000,64,40,5,8,1561097980,22.60,139.0,50.0,1,0,0,22.6
Status,1726564136000,64,41,5,36,1561097980,0.00,214.0,50.0,0,0,0,0.0
Status,1726564136000,64,42,5,3,1561097980,0.00,109.0,49.0,0,0,0,0.0
Status,1726564136000,64,43,5,20,1561097980,33.10,52.0,49.0,1,0,0,33.1
Status,1726564136000,64,44,5,61,1561097980,0.00,109.0,48.0,0,0,0,0.0
Status,1726564136000,64,45,5,6,1561097980,0.00,17.0,44.0,0,0,0,0.0
Status,1726564136000,64,46,5,16,1561097980,0.00,22.0,38.0,0,0,0,0.0
Status,1726564136000,64,47,5,38,1561097980,20.00,142.0,36.0,1,0,0,20.0
Status,1726564136000,64,48,5,19,1561097980,26.20,344.0,35.0,1,0,0,26.2
Status,1726564136000,64,49,5,39,1561097980,0.00,27.0,30.0,0,0,0,0.0
Status,1726564136000,64,50,5,10,1561097980,0.00,148.0,26.0,0,0,0,0.0
Status,1726564136000,64,51,5,7,1561097980,0.00,135.0,25.0,0,0,0,0.0
Status,1726564136000,64,52,5,37,1561097980,0.00,37.0,18.0,0,0,0,0.0
Status,1726564136000,64,53,5,59,1561097980,0.00,96.0,18.0,0,0,0,0.0
Status,1726564136000,64,54,5,29,1561097980,0.00,220.0,16.0,0,0,0,0.0
Status,1726564136000,64,55,5,32,1561097980,0.00,107.0,16.0,0,0,0,0.0
Status,1726564136000,64,56,5,1,1561097980,0.00,96.0,14.0,0,0,0,0.0
Status,1726564136000,64,57,5,40,1561097980,0.00,128.0,14.0,0,0,0,0.0
Status,1726564136000,64,58,5,30,1561097980,0.00,168.0,7.0,0,0,0,0.0
Status,1726564136000,64,59,5,35,1561097980,0.00,273.0,4.0,0,0,0,0.0
Status,1726564136000,64,60,5,45,1561097980,0.00,216.0,2.0,0,0,0,0.0
Status,1726564136000,64,61,4,196,1575420030,0.00,88.0,42.0,0,0,0,0.0
Status,1726564136000,64,62,4,199,1575420030,0.00,62.0,20.0,0,0,0,0.0
Status,1726564136000,64,63,4,194,1575420030,0.00,75.0,19.0,0,0,0,0.0
Fix,GPS,12.9351433333,77.5425516667,793.2,0.0,5.0,0.0,1726564137000,2.2,44.0,126743779000000,66.3,0,,,
Raw,1726564137000,12624000000,18,706862.710252037,-1410599342376999936,0.0,165.7952656936112,-2765.431816230897,0.0,0,26,0.0,47,205754931967628,235,28.898000717163086,-956.606014406883,0.14999,21,-11901.350187319693,0.0008999999845400453,1575420030,,,,0,10.178512237438078,1,6.0,28.898000717163086,0.0,0.0,0.0,66.7128,C,
Raw,1726564137000,12624000000,18,706862.710252037,-1410599342376999936,0.0,165.7952656936112,-2765.431816230897,0.0,0,31,0.0,47,205754931636253,74,29.93899917602539,-494.58245436936,0.14999,17,-7303.7990381795025,0.0006249999860301614,1575420030,,,,0,11.463577479330825,1,6.0,29.93899917602539,0.0,0.0,0.0,66.7128,C,
Raw,1726564137000,12624000000,18,706862.710252037,-1410599342376999936,0.0,165.7952656936112,-2765.431816230897,0.0,0,21,0.0,47,205754924845444,235,28.69099998474121,-685.7620891648598,0.14999,16,-9489.834684074156,0.0008999999845400453,1575420030,,,,0,9.917413814650027,1,6.0,28.69099998474121,0.0,0.0,0.0,66.7128,C,
Raw,1726564137000,12624000000,18,706862.710252037,-1410599342376999936,0.0,165.7952656936112,-2765.431816230897,0.0,0,16,0.0,47,205754927453102,396,25.743999481201172,-1383.975963042468,0.14999,16,-14524.521529674703,0.004900000058114529,1575420030,,,,0,6.052474773410771,1,6.0,25.743999481201172,0.0,0.0,0.0,66.7128,C,
Raw,1726564137000,12624000000,18,706862.710252037,-1410599342376999936,0.0,165.7952656936112,-2765.431816230897,0.0,0,19,0.0,47,205740920452257,316,26.200000762939453,-1202.66943359375,0.14999,16,-15048.054380440839,0.002025000052526593,1561097980,,,,0,7.555585221754542,5,6.0,26.200000762939453,0.0,0.0,25.858102789897444,66.7128,I,
Raw,1726564137000,12624000000,18,706862.710252037,-1410599342376999936,0.0,165.7952656936112,-2765.431816230897,0.0,0,38,0.0,47,205740874096669,487,20.034000396728516,-675.1087646484375,0.14999,16,-8811.052448601566,0.009999999776482582,1561097980,,,,0,0.0,5,6.0,20.034000396728516,0.0,0.0,25.858102789897444,66.7128,I,
