# 
# Header Description:
# 
# Version: v3.0.6.4 Platform: 14 Manufacturer: samsung Model: SM-M346B
# 
# Raw,utcTimeMillis,TimeNanos,LeapSecond,TimeUncertaintyNanos,FullBiasNanos,BiasNanos,BiasUncertaintyNanos,DriftNanosPerSecond,DriftUncertaintyNanosPerSecond,HardwareClockDiscontinuityCount,Svid,TimeOffsetNanos,State,ReceivedSvTimeNanos,ReceivedSvTimeUncertaintyNanos,Cn0DbHz,PseudorangeRateMetersPerSecond,PseudorangeRateUncertaintyMetersPerSecond,AccumulatedDeltaRangeState,AccumulatedDeltaRangeMeters,AccumulatedDeltaRangeUncertaintyMeters,CarrierFrequencyHz,CarrierCycles,CarrierPhase,CarrierPhaseUncertainty,MultipathIndicator,SnrInDb,ConstellationType,AgcDb,BasebandCn0DbHz,FullInterSignalBiasNanos,FullInterSignalBiasUncertaintyNanos,SatelliteInterSignalBiasNanos,SatelliteInterSignalBiasUncertaintyNanos,CodeType,ChipsetElapsedRealtimeNanos
# 
# UncalAccel,utcTimeMillis,elapsedRealtimeNanos,UncalAccelXMps2,UncalAccelYMps2,UncalAccelZMps2,BiasXMps2,BiasYMps2,BiasZMps2
# 
# Accel,utcTimeMillis,elapsedRealtimeNanos,AccelXMps2,AccelYMps2,AccelZMps2
# 
# UncalGyro,utcTimeMillis,elapsedRealtimeNanos,UncalGyroXRadPerSec,UncalGyroYRadPerSec,UncalGyroZRadPerSec,DriftXRadPerSec,DriftYRadPerSec,DriftZRadPerSec
# 
# Gyro,utcTimeMillis,elapsedRealtimeNanos,GyroXRadPerSec,GyroYRadPerSec,GyroZRadPerSec
# 
# UncalMag,utcTimeMillis,elapsedRealtimeNanos,UncalMagXMicroT,UncalMagYMicroT,UncalMagZMicroT,BiasXMicroT,BiasYMicroT,BiasZMicroT
# 
# Mag,utcTimeMillis,elapsedRealtimeNanos,MagXMicroT,MagYMicroT,MagZMicroT
# 
# OrientationDeg,utcTimeMillis,elapsedRealtimeNanos,yawDeg,rollDeg,pitchDeg
# 
# Fix,Provider,LatitudeDegrees,LongitudeDegrees,AltitudeMeters,SpeedMps,AccuracyMeters,BearingDegrees,UnixTimeMillis,SpeedAccuracyMps,BearingAccuracyDegrees,elapsedRealtimeNanos,VerticalAccuracyMeters,MockLocation,NumberOfUsedSignals,VerticalSpeedAccuracyMps,SolutionType
# 
# Nav,Svid,Type,Status,MessageId,Sub-messageId,Data(Bytes)
# 
# Status,UnixTimeMillis,SignalCount,SignalIndex,ConstellationType,Svid,CarrierFrequencyHz,Cn0DbHz,AzimuthDegrees,ElevationDegrees,UsedInFix,HasAlmanacData,HasEphemerisData,BasebandCn0DbHz
# 
# Agc,utcTimeMillis,TimeNanos,LeapSecond,TimeUncertaintyNanos,FullBiasNanos,BiasNanos,BiasUncertaintyNanos,DriftNanosPerSecond,DriftUncertaintyNanosPerSecond,HardwareClockDiscontinuityCount,AgcDb,CarrierFrequencyHz,ConstellationType
# 
Raw,1726564773004,3120230619,18,0.0,-1410599987884083968,0.0,2000042.625,1.5714024305343628,0.0,0,31,0.0,19,10135764,10,40.60000228881836,374.2225646972656,0.0789041742682457,19,-40364.4144395156,0.1509399712085724,1575420030,,,,0,,1,1.2999999523162842,35.60000228881836,0.0,0.0,0.0,0.0,C,817073502675580
Raw,1726564773004,3120230619,18,0.0,-1410599987884083968,0.0,2000042.625,1.5714024305343628,0.0,0,2,0.0,19,3279850,12,38.400001525878906,50.45204544067383,0.08964107185602188,19,-27795.725386462913,0.1585320383310318,1575420030,,,,0,,1,1.2999999523162842,33.400001525878906,0.0,0.0,0.0,0.0,C,817073502675580
Raw,1726564773004,3120230619,18,0.0,-1410599987884083968,0.0,2000042.625,1.5714024305343628,0.0,0,1,0.0,19,10203212,11,39.29999923706055,-28.374893188476562,0.08499860018491745,19,-35220.19217027405,0.15524934232234955,1575420030,,,,0,,1,1.2999999523162842,34.29999923706055,0.0,0.0,0.0,0.0,C,817073502675580
Raw,1726564773004,3120230619,18,0.0,-1410599987884083968,0.0,2000042.625,1.5714024305343628,0.0,0,32,0.0,19,19647679,16,32.80000305175781,132.33055114746094,0.12939287722110748,16,0.0,0.09149370342493057,1575420030,,,,0,,1,1.2999999523162842,27.80000114440918,0.0,0.0,0.0,0.0,C,817073502675580
Raw,1726564773004,3120230619,18,0.0,-1410599987884083968,0.0,2000042.625,1.5714024305343628,0.0,0,26,0.0,19,11410490,17,31.5,-51.966590881347656,0.14239943027496338,16,0.0,0.10069064050912857,1575420030,,,,0,,1,1.2999999523162842,26.5,0.0,0.0,0.0,0.0,C,817073502675580
Raw,1726564773004,3120230619,18,0.0,-1410599987884083968,0.0,2000042.625,1.5714024305343628,0.0,0,16,0.0,19,7845771,17,31.5,-520.8440551757812,0.14239943027496338,16,0.0,0.10069064050912857,1575420030,,,,0,,1,1.2999999523162842,26.5,0.0,0.0,0.0,0.0,C,817073502675580
Raw,1726564773004,3120230619,18,0.0,-1410599987884083968,0.0,2000042.625,1.5714024305343628,0.0,0,21,0.0,19,3753509,20,29.399999618530273,177.77255249023438,0.1679656058549881,16,0.0,0.11876848340034485,1575420030,,,,0,,1,1.2999999523162842,24.399999618530273,0.0,0.0,0.0,0.0,C,817073502675580
Raw,1726564773004,3120230619,18,0.0,-1410599987884083968,0.0,2000042.625,1.5714024305343628,0.0,0,10,0.0,19,3432235,23,27.30000114440918,531.322509765625,0.20108988881111145,16,0.0,0.14219066500663757,1575420030,,,,0,,1,1.2999999523162842,22.30000114440918,0.0,0.0,0.0,0.0,C,817073502675580
Raw,1726564773004,3120230619,18,0.0,-1410599987884083968,0.0,2000042.625,1.5714024305343628,0.0,0,4,0.0,19,17775773,22,27.600000381469727,-244.62351989746094,0.19578666985034943,16,0.0,0.13844075798988342,1575420030,,,,0,,1,1.2999999523162842,22.600000381469727,0.0,0.0,0.0,0.0,C,817073502675580
Raw,1726564773004,3120230619,18,0.0,-1410599987884083968,0.0,2000042.625,1.5714024305343628,0.0,0,36,0.0,51,5313756,14,34.900001525878906,-333.7351989746094,0.11185558140277863,16,0.0,0.0790930837392807,1561097980,,,,0,,5,1.2999999523162842,29.899999618530273,0.0,0.0,0.0,0.0,C,817073502675580
Raw,1726564773004,3120230619,18,0.0,-1410599987884083968,0.0,2000042.625,1.5714024305343628,0.0,0,14,0.0,51,14302819,13,36.80000305175781,-399.40484619140625,0.09888848662376404,16,0.0,0.06992404907941818,1598062460,,,,0,,3,1.2999999523162842,31.80000114440918,0.0,0.0,0.0,0.0,C,817073502675580
Raw,1726564773004,3120230619,18,0.0,-1410599987884083968,0.0,2000042.625,1.5714024305343628,0.0,0,3,0.0,51,7740901,14,35.30000305175781,-377.6205749511719,0.10892177373170853,16,0.0,0.07701858878135681,1604812540,,,,0,,3,1.2999999523162842,30.30000114440918,0.0,0.0,0.0,0.0,C,817073502675580
Raw,1726564773004,3120230619,18,0.0,-1410599987884083968,0.0,2000042.625,1.5714024305343628,0.0,0,9,0.0,51,14828927,15,33.400001525878906,153.0660400390625,0.12398333847522736,19,-40568.70958158345,0.18368837237358093,1561097980,,,,0,,5,1.2999999523162842,28.399999618530273,0.0,0.0,0.0,0.0,C,817073502675580
Raw,1726564773004,3120230619,18,0.0,-1410599987884083968,0.0,2000042.625,1.5714024305343628,0.0,0,18,0.0,51,3872057,15,33.900001525878906,325.6551208496094,0.1197303757071495,16,0.0,0.08466134965419769,1600312450,,,,0,,3,1.2999999523162842,28.899999618530273,0.0,0.0,0.0,0.0,C,817073502675580
Raw,1726564773004,3120230619,18,0.0,-1410599987884083968,0.0,2000042.625,1.5714024305343628,0.0,0,21,0.0,1040,1845476,16,32.30000305175781,-252.2087860107422,0.13417595624923706,16,0.0,0.09487581998109818,1575420030,,,,0,,6,1.2999999523162842,27.30000114440918,0.0,0.0,0.0,0.0,C,817073502675580
Raw,1726564773004,3120230619,18,0.0,-1410599987884083968,0.0,2000042.625,1.5714024305343628,0.0,0,6,0.0,51,14507186,17,31.399999618530273,148.4268798828125,0.14348027110099792,16,0.0,0.10145489871501923,1561097980,,,,0,,5,1.2999999523162842,26.399999618530273,0.0,0.0,0.0,0.0,C,817073502675580
Raw,1726564773004,3120230619,18,0.0,-1410599987884083968,0.0,2000042.625,1.5714024305343628,0.0,0,32,0.0,51,13634904,18,30.600000381469727,290.2630920410156,0.1525878757238388,16,0.0,0.1078948900103569,1561097980,,,,0,,5,1.2999999523162842,25.600000381469727,0.0,0.0,0.0,0.0,C,817073502675580
Raw,1726564773004,3120230619,18,0.0,-1410599987884083968,0.0,2000042.625,1.5714024305343628,0.0,0,13,0.0,51,19959210,17,31.200000762939453,73.17359161376953,0.14567914605140686,16,0.0,0.10300972312688828,1561097980,,,,0,,5,1.2999999523162842,26.200000762939453,0.0,0.0,0.0,0.0,C,817073502675580
Raw,1726564773004,3120230619,18,0.0,-1410599987884083968,0.0,2000042.625,1.5714024305343628,0.0,0,13,0.0,51,12406105,18,30.399999618530273,458.75555419921875,0.15500031411647797,16,0.0,0.1096007227897644,1600875010,,,,0,,3,1.2999999523162842,25.399999618530273,0.0,0.0,0.0,0.0,C,817073502675580
Raw,1726564773004,3120230619,18,0.0,-1410599987884083968,0.0,2000042.625,1.5714024305343628,0.0,0,38,0.0,51,13000056,18,30.399999618530273,173.38568115234375,0.15500031411647797,16,0.0,0.1096007227897644,1561097980,,,,0,,5,1.2999999523162842,25.399999618530273,0.0,0.0,0.0,0.0,C,817073502675580
Raw,1726564773004,3120230619,18,0.0,-1410599987884083968,0.0,2000042.625,1.5714024305343628,0.0,0,39,0.0,51,10752503,20,29.200000762939453,126.68606567382812,0.1707533597946167,16,0.0,0.12073969841003418,1561097980,,,,0,,5,1.2999999523162842,24.200000762939453,0.0,0.0,0.0,0.0,C,817073502675580
Raw,1726564773004,3120230619,18,0.0,-1410599987884083968,0.0,2000042.625,1.5714024305343628,0.0,0,2,0.0,51,7761832,19,30.0,-48.186065673828125,0.1599999964237213,16,0.0,0.11313600093126297,1599750020,,,,0,,3,1.2999999523162842,25.0,0.0,0.0,0.0,0.0,C,817073502675580
Raw,1726564773993,4115916122,18,0.0,-1410599987877301248,0.0,2000042.625,2.166822910308838,0.0,0,31,0.0,19,5820018,10,40.599998474121094,374.2657165527344,0.07890418916940689,19,-39991.74636269164,0.15093998610973358,1575420030,,,,0,,1,1.2999999523162842,35.599998474121094,0.0,0.0,0.0,0.0,C,817074498359956
Raw,1726564773993,4115916122,18,0.0,-1410599987877301248,0.0,2000042.625,2.166822910308838,0.0,0,2,0.0,19,18965149,11,39.400001525878906,50.606605529785156,0.08450513333082199,19,-27745.315165426466,0.1549004167318344,1575420030,,,,0,,1,1.2999999523162842,34.400001525878906,0.0,0.0,0.0,0.0,C,817074498359956
Raw,1726564773993,4115916122,18,0.0,-1410599987877301248,0.0,2000042.625,2.166822910308838,0.0,0,1,0.0,19,5888817,11,39.099998474121094,-28.618017196655273,0.08599857985973358,19,-35248.57938143248,0.15595643222332,1575420030,,,,0,,1,1.2999999523162842,34.099998474121094,0.0,0.0,0.0,0.0,C,817074498359956
Raw,1726564773993,4115916122,18,0.0,-1410599987877301248,0.0,2000042.625,2.166822910308838,0.0,0,32,0.0,19,15332737,16,32.79999923706055,133.03826904296875,0.12939289212226868,16,0.0,0.09149371087551117,1575420030,,,,0,,1,1.2999999523162842,27.799999237060547,0.0,0.0,0.0,0.0,C,817074498359956
Raw,1726564773993,4115916122,18,0.0,-1410599987877301248,0.0,2000042.625,2.166822910308838,0.0,0,16,0.0,19,3532972,17,31.5,-521.0977783203125,0.14239943027496338,16,0.0,0.10069064050912857,1575420030,,,,0,,1,1.2999999523162842,26.5,0.0,0.0,0.0,0.0,C,817074498359956
Raw,1726564773993,4115916122,18,0.0,-1410599987877301248,0.0,2000042.625,2.166822910308838,0.0,0,26,0.0,19,7096177,17,31.5,-52.219322204589844,0.14239943027496338,16,0.0,0.10069064050912857,1575420030,,,,0,,1,1.2999999523162842,26.5,0.0,0.0,0.0,0.0,C,817074498359956
Raw,1726564773993,4115916122,18,0.0,-1410599987877301248,0.0,2000042.625,2.166822910308838,0.0,0,21,0.0,19,19438454,20,29.399999618530273,177.75704956054688,0.1679656058549881,16,0.0,0.11876848340034485,1575420030,,,,0,,1,1.2999999523162842,24.399999618530273,0.0,0.0,0.0,0.0,C,817074498359956
Raw,1726564773993,4115916122,18,0.0,-1410599987877301248,0.0,2000042.625,2.166822910308838,0.0,0,10,0.0,19,19115900,23,27.299999237060547,530.9020385742188,0.20108991861343384,16,0.0,0.14219067990779877,1575420030,,,,0,,1,1.2999999523162842,22.299999237060547,0.0,0.0,0.0,0.0,C,817074498359956
Raw,1726564773993,4115916122,18,0.0,-1410599987877301248,0.0,2000042.625,2.166822910308838,0.0,0,4,0.0,19,13462058,22,27.600000381469727,-244.35809326171875,0.19578666985034943,16,0.0,0.13844075798988342,1575420030,,,,0,,1,1.2999999523162842,22.600000381469727,0.0,0.0,0.0,0.0,C,817074498359956
Raw,1726564773993,4115916122,18,0.0,-1410599987877301248,0.0,2000042.625,2.166822910308838,0.0,0,28,0.0,19,17647214,27,25.100000381469727,540.7474975585938,0.2475186139345169,16,0.0,0.17502041161060333,1575420030,,,,0,,1,1.2999999523162842,20.100000381469727,0.0,0.0,0.0,0.0,C,817074498359956
Raw,1726564773993,4115916122,18,0.0,-1410599987877301248,0.0,2000042.625,2.166822910308838,0.0,0,14,0.0,51,9989655,13,36.79999923706055,-399.1698913574219,0.09888850152492523,16,0.0,0.06992405652999878,1598062460,,,,0,,3,1.2999999523162842,31.799999237060547,0.0,0.0,0.0,0.0,C,817074498359956
Raw,1726564773993,4115916122,18,0.0,-1410599987877301248,0.0,2000042.625,2.166822910308838,0.0,0,36,0.0,51,1000341,14,34.900001525878906,-334.6607360839844,0.11185558140277863,16,0.0,0.0790930837392807,1561097980,,,,0,,5,1.2999999523162842,29.899999618530273,0.0,0.0,0.0,0.0,C,817074498359956
Raw,1726564773993,4115916122,18,0.0,-1410599987877301248,0.0,2000042.625,2.166822910308838,0.0,0,9,0.0,51,10513914,15,33.400001525878906,152.86669921875,0.12398333847522736,19,-40416.47874748935,0.18368837237358093,1561097980,,,,0,,5,1.2999999523162842,28.399999618530273,0.0,0.0,0.0,0.0,C,817074498359956
Raw,1726564773993,4115916122,18,0.0,-1410599987877301248,0.0,2000042.625,2.166822910308838,0.0,0,21,0.0,1040,531840,16,32.29999923706055,-253.29269409179688,0.13417595624923706,16,0.0,0.09487581998109818,1575420030,,,,0,,6,1.2999999523162842,27.299999237060547,0.0,0.0,0.0,0.0,C,817074498359956
Raw,1726564773993,4115916122,18,0.0,-1410599987877301248,0.0,2000042.625,2.166822910308838,0.0,0,18,0.0,51,19556504,15,33.900001525878906,325.9012756347656,0.1197303757071495,16,0.0,0.08466134965419769,1600312450,,,,0,,3,1.2999999523162842,28.899999618530273,0.0,0.0,0.0,0.0,C,817074498359956
Raw,1726564773993,4115916122,18,0.0,-1410599987877301248,0.0,2000042.625,2.166822910308838,0.0,0,3,0.0,51,3427655,14,35.29999923706055,-376.9891357421875,0.10892178863286972,16,0.0,0.07701859623193741,1604812540,,,,0,,3,1.2999999523162842,30.299999237060547,0.0,0.0,0.0,0.0,C,817074498359956
Raw,1726564773993,4115916122,18,0.0,-1410599987877301248,0.0,2000042.625,2.166822910308838,0.0,0,2,0.0,51,3447493,19,30.0,-48.82377624511719,0.1599999964237213,16,0.0,0.11313600093126297,1599750020,,,,0,,3,1.2999999523162842,25.0,0.0,0.0,0.0,0.0,C,817074498359956
Raw,1726564773993,4115916122,18,0.0,-1410599987877301248,0.0,2000042.625,2.166822910308838,0.0,0,38,0.0,51,8684984,18,30.399999618530273,173.37489318847656,0.15500031411647797,16,0.0,0.1096007227897644,1561097980,,,,0,,5,1.2999999523162842,25.399999618530273,0.0,0.0,0.0,0.0,C,817074498359956
Raw,1726564773993,4115916122,18,0.0,-1410599987877301248,0.0,2000042.625,2.166822910308838,0.0,0,6,0.0,51,10192125,17,31.399999618530273,147.91915893554688,0.14348027110099792,16,0.0,0.10145489871501923,1561097980,,,,0,,5,1.2999999523162842,26.399999618530273,0.0,0.0,0.0,0.0,C,817074498359956
Raw,1726564773993,4115916122,18,0.0,-1410599987877301248,0.0,2000042.625,2.166822910308838,0.0,0,32,0.0,51,9319426,18,30.600000381469727,289.99456787109375,0.1525878757238388,16,0.0,0.1078948900103569,1561097980,,,,0,,5,1.2999999523162842,25.600000381469727,0.0,0.0,0.0,0.0,C,817074498359956
Raw,1726564773993,4115916122,18,0.0,-1410599987877301248,0.0,2000042.625,2.166822910308838,0.0,0,13,0.0,51,15644508,17,31.200000762939453,73.25153350830078,0.14567914605140686,16,0.0,0.10300972312688828,1561097980,,,,0,,5,1.2999999523162842,26.200000762939453,0.0,0.0,0.0,0.0,C,817074498359956
Raw,1726564773993,4115916122,18,0.0,-1410599987877301248,0.0,2000042.625,2.166822910308838,0.0,0,13,0.0,51,8090145,18,30.399999618530273,459.6619873046875,0.15500031411647797,16,0.0,0.1096007227897644,1600875010,,,,0,,3,1.2999999523162842,25.399999618530273,0.0,0.0,0.0,0.0,C,817074498359956
Raw,1726564773993,4115916122,18,0.0,-1410599987877301248,0.0,2000042.625,2.166822910308838,0.0,0,33,0.0,1040,133167,22,27.700000762939453,287.54095458984375,0.19406546652317047,16,0.0,0.13722369074821472,1575420030,,,,0,,6,1.2999999523162842,22.700000762939453,0.0,0.0,0.0,0.0,C,817074498359956
Raw,1726564773993,4115916122,18,0.0,-1410599987877301248,0.0,2000042.625,2.166822910308838,0.0,0,39,0.0,51,6437610,20,29.200000762939453,125.93545532226562,0.1707533597946167,16,0.0,0.12073969841003418,1561097980,,,,0,,5,1.2999999523162842,24.200000762939453,0.0,0.0,0.0,0.0,C,817074498359956
Raw,1726564773993,4115916122,18,0.0,-1410599987877301248,0.0,2000042.625,2.166822910308838,0.0,0,19,0.0,51,16188595,23,27.200000762939453,-377.4452819824219,0.2029055953025818,16,0.0,0.1434745490550995,1561097980,,,,0,,5,1.2999999523162842,22.200000762939453,0.0,0.0,0.0,0.0,C,817074498359956
Raw,1726564773993,4115916122,18,0.0,-1410599987877301248,0.0,2000042.625,2.166822910308838,0.0,0,20,0.0,51,18936146,21,28.100000381469727,-71.57740783691406,0.18740276992321014,16,0.0,0.13251249492168427,1561097980,,,,0,,5,1.2999999523162842,23.100000381469727,0.0,0.0,0.0,0.0,C,817074498359956
Raw,1726564773993,4115916122,18,0.0,-1410599987877301248,0.0,2000042.625,2.166822910308838,0.0,0,15,0.0,51,17290399,23,27.0,-792.878173828125,0.20661157369613647,16,0.0,0.14609503746032715,1602000000,,,,0,,3,1.2999999523162842,22.0,0.0,0.0,0.0,0.0,C,817074498359956
Raw,1726564773993,4115916122,18,0.0,-1410599987877301248,0.0,2000042.625,2.166822910308838,0.0,0,17,0.0,51,7777700,24,26.30000114440918,501.32208251953125,0.22041478753089905,16,0.0,0.15585529804229736,1604249980,,,,0,,3,1.2999999523162842,21.30000114440918,0.0,0.0,0.0,0.0,C,817074498359956
Raw,1726564773993,4115916122,18,0.0,-1410599987877301248,0.0,2000042.625,2.166822910308838,0.0,0,29,0.0,1040,2374,29,24.30000114440918,7.032097816467285,0.2684635519981384,16,0.0,0.18983057141304016,1575420030,,,,0,,6,1.2999999523162842,19.30000114440918,0.0,0.0,0.0,0.0,C,817074498359956
Raw,1726564773993,4115916122,18,0.0,-1410599987877301248,0.0,2000042.625,2.166822910308838,0.0,0,40,0.0,17,880809,33,22.700000762939453,-271.9862365722656,0.319193035364151,16,0.0,0.22570139169692993,1561097980,,,,0,,5,1.2999999523162842,17.700000762939453,0.0,0.0,0.0,0.0,C,817074498359956
Raw,1726564775013,5122759607,18,0.0,-1410599987890429184,0.0,2000042.625,1.1790390014648438,0.0,0,31,0.0,19,12662240,10,41.20000076293945,374.23907470703125,0.07631023973226547,19,-39614.87873804124,0.14910580217838287,1575420030,,,,0,,1,1.2999999523162842,36.20000076293945,0.0,0.0,0.0,0.0,C,817075505201748
Raw,1726564775013,5122759607,18,0.0,-1410599987890429184,0.0,2000042.625,1.1790390014648438,0.0,0,2,0.0,19,5808464,10,40.599998474121094,50.82761001586914,0.07890418916940689,19,-27694.292098348975,0.15093998610973358,1575420030,,,,0,,1,1.2999999523162842,35.599998474121094,0.0,0.0,0.0,0.0,C,817075505201748
Raw,1726564775013,5122759607,18,0.0,-1410599987890429184,0.0,2000042.625,1.1790390014648438,0.0,0,1,0.0,19,12732387,11,38.900001525878906,-28.284332275390625,0.08701629191637039,19,-35277.13014340323,0.1566760540008545,1575420030,,,,0,,1,1.2999999523162842,33.900001525878906,0.0,0.0,0.0,0.0,C,817075505201748
Raw,1726564775013,5122759607,18,0.0,-1410599987890429184,0.0,2000042.625,1.1790390014648438,0.0,0,32,0.0,19,2175742,16,32.79999923706055,132.56271362304688,0.12939289212226868,19,-40306.4286493565,0.18664054572582245,1575420030,,,,0,,1,1.2999999523162842,27.799999237060547,0.0,0.0,0.0,0.0,C,817075505201748
Raw,1726564775013,5122759607,18,0.0,-1410599987890429184,0.0,2000042.625,1.1790390014648438,0.0,0,16,0.0,19,10378220,17,31.5,-521.5347900390625,0.14239943027496338,16,0.0,0.10069064050912857,1575420030,,,,0,,1,1.2999999523162842,26.5,0.0,0.0,0.0,0.0,C,817075505201748
Raw,1726564775013,5122759607,18,0.0,-1410599987890429184,0.0,2000042.625,1.1790390014648438,0.0,0,26,0.0,19,13939821,17,31.5,-51.482425689697266,0.14239943027496338,16,0.0,0.10069064050912857,1575420030,,,,0,,1,1.2999999523162842,26.5,0.0,0.0,0.0,0.0,C,817075505201748
Raw,1726564775013,5122759607,18,0.0,-1410599987890429184,0.0,2000042.625,1.1790390014648438,0.0,0,21,0.0,19,6281383,18,30.399999618530273,177.97750854492188,0.15500031411647797,16,0.0,0.1096007227897644,1575420030,,,,0,,1,1.2999999523162842,25.399999618530273,0.0,0.0,0.0,0.0,C,817075505201748
Raw,1726564775013,5122759607,18,0.0,-1410599987890429184,0.0,2000042.625,1.1790390014648438,0.0,0,10,0.0,19,5957595,21,28.200000762939453,531.96728515625,0.18579070270061493,16,0.0,0.1313726007938385,1575420030,,,,0,,1,1.2999999523162842,23.200000762939453,0.0,0.0,0.0,0.0,C,817075505201748
Raw,1726564775013,5122759607,18,0.0,-1410599987890429184,0.0,2000042.625,1.1790390014648438,0.0,0,4,0.0,19,306351,22,27.5,-244.74916076660156,0.1975308656692505,16,0.0,0.1396740823984146,1575420030,,,,0,,1,1.2999999523162842,22.5,0.0,0.0,0.0,0.0,C,817075505201748
Raw,1726564775013,5122759607,18,0.0,-1410599987890429184,0.0,2000042.625,1.1790390014648438,0.0,0,28,0.0,19,4488908,27,25.100000381469727,540.8060913085938,0.2475186139345169,16,0.0,0.17502041161060333,1575420030,,,,0,,1,1.2999999523162842,20.100000381469727,0.0,0.0,0.0,0.0,C,817075505201748
Raw,1726564775013,5122759607,18,0.0,-1410599987890429184,0.0,2000042.625,1.1790390014648438,0.0,0,27,0.0,17,225212,32,23.100000381469727,-166.3179168701172,0.3052409589290619,16,0.0,0.21583588421344757,1575420030,,,,0,,1,1.2999999523162842,18.100000381469727,0.0,0.0,0.0,0.0,C,817075505201748
Raw,1726564775013,5122759607,18,0.0,-1410599987890429184,0.0,2000042.625,1.1790390014648438,0.0,0,14,0.0,51,16834490,11,38.900001525878906,-398.8624572753906,0.08701629191637039,16,0.0,0.06152921915054321,1598062460,,,,0,,3,1.2999999523162842,33.900001525878906,0.0,0.0,0.0,0.0,C,817075505201748
Raw,1726564775013,5122759607,18,0.0,-1410599987890429184,0.0,2000042.625,1.1790390014648438,0.0,0,9,0.0,51,17356888,14,34.5,152.9333038330078,0.11490950733423233,19,-40262.55960148871,0.1772722601890564,1561097980,,,,0,,5,1.2999999523162842,29.5,0.0,0.0,0.0,0.0,C,817075505201748
Raw,1726564775013,5122759607,18,0.0,-1410599987890429184,0.0,2000042.625,1.1790390014648438,0.0,0,36,0.0,51,7844987,14,35.20000076293945,-334.1430358886719,0.10964430868625641,19,-41666.86812432979,0.17354923486709595,1561097980,,,,0,,5,1.2999999523162842,30.200000762939453,0.0,0.0,0.0,0.0,C,817075505201748
Raw,1726564775013,5122759607,18,0.0,-1410599987890429184,0.0,2000042.625,1.1790390014648438,0.0,0,21,0.0,1040,3376162,16,32.20000076293945,-252.9010009765625,0.13516435027122498,19,-59521.13826840004,0.1907215416431427,1575420030,,,,0,,6,1.2999999523162842,27.200000762939453,0.0,0.0,0.0,0.0,C,817075505201748
Raw,1726564775013,5122759607,18,0.0,-1410599987890429184,0.0,2000042.625,1.1790390014648438,0.0,0,18,0.0,51,6398896,15,33.900001525878906,325.77935791015625,0.1197303757071495,16,0.0,0.08466134965419769,1600312450,,,,0,,3,1.2999999523162842,28.899999618530273,0.0,0.0,0.0,0.0,C,817075505201748
Raw,1726564775013,5122759607,18,0.0,-1410599987890429184,0.0,2000042.625,1.1790390014648438,0.0,0,3,0.0,51,10272430,14,35.20000076293945,-377.05731201171875,0.10964430868625641,16,0.0,0.07752948999404907,1604812540,,,,0,,3,1.2999999523162842,30.200000762939453,0.0,0.0,0.0,0.0,C,817075505201748
Raw,1726564775013,5122759607,18,0.0,-1410599987890429184,0.0,2000042.625,1.1790390014648438,0.0,0,38,0.0,51,15527874,17,31.600000381469727,173.0038299560547,0.1413307636976242,16,0.0,0.09993498027324677,1561097980,,,,0,,5,1.2999999523162842,26.600000381469727,0.0,0.0,0.0,0.0,C,817075505201748
Raw,1726564775013,5122759607,18,0.0,-1410599987890429184,0.0,2000042.625,1.1790390014648438,0.0,0,2,0.0,51,10291187,16,32.20000076293945,-49.07759094238281,0.13516435027122498,16,0.0,0.09557471424341202,1599750020,,,,0,,3,1.2999999523162842,27.200000762939453,0.0,0.0,0.0,0.0,C,817075505201748
Raw,1726564775013,5122759607,18,0.0,-1410599987890429184,0.0,2000042.625,1.1790390014648438,0.0,0,6,0.0,51,17035113,17,31.399999618530273,147.9014129638672,0.14348027110099792,16,0.0,0.10145489871501923,1561097980,,,,0,,5,1.2999999523162842,26.399999618530273,0.0,0.0,0.0,0.0,C,817075505201748
Raw,1726564775013,5122759607,18,0.0,-1410599987890429184,0.0,2000042.625,1.1790390014648438,0.0,0,13,0.0,51,2487722,17,31.200000762939453,73.6866226196289,0.14567914605140686,16,0.0,0.10300972312688828,1561097980,,,,0,,5,1.2999999523162842,26.200000762939453,0.0,0.0,0.0,0.0,C,817075505201748
Raw,1726564775013,5122759607,18,0.0,-1410599987890429184,0.0,2000042.625,1.1790390014648438,0.0,0,32,0.0,51,16161947,18,30.799999237060547,289.73834228515625,0.15023136138916016,16,0.0,0.10622859746217728,1561097980,,,,0,,5,1.2999999523162842,25.799999237060547,0.0,0.0,0.0,0.0,C,817075505201748
Raw,1726564775013,5122759607,18,0.0,-1410599987890429184,0.0,2000042.625,1.1790390014648438,0.0,0,33,0.0,1040,3975637,22,27.700000762939453,288.4149169921875,0.19406546652317047,16,0.0,0.13722369074821472,1575420030,,,,0,,6,1.2999999523162842,22.700000762939453,0.0,0.0,0.0,0.0,C,817075505201748
Raw,1726564775013,5122759607,18,0.0,-1410599987890429184,0.0,2000042.625,1.1790390014648438,0.0,0,12,0.0,1040,3746844,22,27.5,-140.7250213623047,0.1975308656692505,16,0.0,0.1396740823984146,1575420030,,,,0,,6,1.2999999523162842,22.5,0.0,0.0,0.0,0.0,C,817075505201748
Raw,1726564775013,5122759607,18,0.0,-1410599987890429184,0.0,2000042.625,1.1790390014648438,0.0,0,13,0.0,51,14931963,18,30.299999237060547,459.92498779296875,0.15622803568840027,16,0.0,0.11046884208917618,1600875010,,,,0,,3,1.2999999523162842,25.299999237060547,0.0,0.0,0.0,0.0,C,817075505201748
Raw,1726564775013,5122759607,18,0.0,-1410599987890429184,0.0,2000042.625,1.1790390014648438,0.0,0,39,0.0,51,13280695,20,29.200000762939453,125.69129180908203,0.1707533597946167,16,0.0,0.12073969841003418,1561097980,,,,0,,5,1.2999999523162842,24.200000762939453,0.0,0.0,0.0,0.0,C,817075505201748
Raw,1726564775013,5122759607,18,0.0,-1410599987890429184,0.0,2000042.625,1.1790390014648438,0.0,0,19,0.0,51,3033355,23,27.200000762939453,-377.837646484375,0.2029055953025818,16,0.0,0.1434745490550995,1561097980,,,,0,,5,1.2999999523162842,22.200000762939453,0.0,0.0,0.0,0.0,C,817075505201748
Raw,1726564775013,5122759607,18,0.0,-1410599987890429184,0.0,2000042.625,1.1790390014648438,0.0,0,29,0.0,1040,3845856,29,24.299999237060547,9.329543113708496,0.2684636116027832,16,0.0,0.18983061611652374,1575420030,,,,0,,6,1.2999999523162842,19.299999237060547,0.0,0.0,0.0,0.0,C,817075505201748
Raw,1726564775013,5122759607,18,0.0,-1410599987890429184,0.0,2000042.625,1.1790390014648438,0.0,0,17,0.0,51,14619555,24,26.299999237060547,501.13800048828125,0.22041483223438263,16,0.0,0.15585532784461975,1604249980,,,,0,,3,1.2999999523162842,21.299999237060547,0.0,0.0,0.0,0.0,C,817075505201748
Raw,1726564775013,5122759607,18,0.0,-1410599987890429184,0.0,2000042.625,1.1790390014648438,0.0,0,20,0.0,51,5779927,21,28.100000381469727,-71.79623413085938,0.18740276992321014,16,0.0,0.13251249492168427,1561097980,,,,0,,5,1.2999999523162842,23.100000381469727,0.0,0.0,0.0,0.0,C,817075505201748
Raw,1726564775013,5122759607,18,0.0,-1410599987890429184,0.0,2000042.625,1.1790390014648438,0.0,0,15,0.0,51,4136533,23,27.0,-791.7890625,0.20661157369613647,16,0.0,0.14609503746032715,1602000000,,,,0,,3,1.2999999523162842,22.0,0.0,0.0,0.0,0.0,C,817075505201748
Raw,1726564775013,5122759607,18,0.0,-1410599987890429184,0.0,2000042.625,1.1790390014648438,0.0,0,37,0.0,51,16013087,33,22.700000762939453,576.1714477539062,0.319193035364151,16,0.0,0.22570139169692993,1561097980,,,,0,,5,1.2999999523162842,17.700000762939453,0.0,0.0,0.0,0.0,C,817075505201748
Raw,1726564775992,6109571507,18,0.0,-1410599987883023104,0.0,2000042.625,0.692771315574646,0.0,0,31,0.0,19,19472916,10,41.70000076293945,374.5566101074219,0.07424511015415192,19,-39245.42587062839,0.14764554798603058,1575420030,,,,0,,1,1.2999999523162842,36.70000076293945,0.0,0.0,0.0,0.0,C,817076492012386
Raw,1726564775992,6109571507,18,0.0,-1410599987883023104,0.0,2000042.625,0.692771315574646,0.0,0,2,0.0,19,12620190,10,41.5,50.888980865478516,0.07506098598241806,19,-27644.201906758157,0.14822246134281158,1575420030,,,,0,,1,1.2999999523162842,36.5,0.0,0.0,0.0,0.0,C,817076492012386
Raw,1726564775992,6109571507,18,0.0,-1410599987883023104,0.0,2000042.625,0.692771315574646,0.0,0,1,0.0,19,19544385,11,38.70000076293945,-28.06631851196289,0.0880521908402443,19,-35304.992635426795,0.15740853548049927,1575420030,,,,0,,1,1.2999999523162842,33.70000076293945,0.0,0.0,0.0,0.0,C,817076492012386
Raw,1726564775992,6109571507,18,0.0,-1410599987883023104,0.0,2000042.625,0.692771315574646,0.0,0,32,0.0,19,8987203,16,32.70000076293945,132.87789916992188,0.13032881915569305,19,-40175.446312097934,0.1873023509979248,1575420030,,,,0,,1,1.2999999523162842,27.700000762939453,0.0,0.0,0.0,0.0,C,817076492012386
Raw,1726564775992,6109571507,18,0.0,-1410599987883023104,0.0,2000042.625,0.692771315574646,0.0,0,16,0.0,19,17191838,17,31.399999618530273,-520.6971435546875,0.14348027110099792,16,0.0,0.10145489871501923,1575420030,,,,0,,1,1.2999999523162842,26.399999618530273,0.0,0.0,0.0,0.0,C,817076492012386
Raw,1726564775992,6109571507,18,0.0,-1410599987883023104,0.0,2000042.625,0.692771315574646,0.0,0,26,0.0,19,751901,17,31.399999618530273,-51.455322265625,0.14348027110099792,16,0.0,0.10145489871501923,1575420030,,,,0,,1,1.2999999523162842,26.399999618530273,0.0,0.0,0.0,0.0,C,817076492012386
Raw,1726564775992,6109571507,18,0.0,-1410599987883023104,0.0,2000042.625,0.692771315574646,0.0,0,10,0.0,19,12767786,20,28.799999237060547,531.4929809570312,0.17654122412204742,16,0.0,0.12483230233192444,1575420030,,,,0,,1,1.2999999523162842,23.799999237060547,0.0,0.0,0.0,0.0,C,817076492012386
Raw,1726564775992,6109571507,18,0.0,-1410599987883023104,0.0,2000042.625,0.692771315574646,0.0,0,21,0.0,19,13092672,18,30.299999237060547,177.8038330078125,0.15622803568840027,16,0.0,0.11046884208917618,1575420030,,,,0,,1,1.2999999523162842,25.299999237060547,0.0,0.0,0.0,0.0,C,817076492012386
Raw,1726564775992,6109571507,18,0.0,-1410599987883023104,0.0,2000042.625,0.692771315574646,0.0,0,4,0.0,19,7119024,22,27.5,-244.98974609375,0.1975308656692505,16,0.0,0.1396740823984146,1575420030,,,,0,,1,1.2999999523162842,22.5,0.0,0.0,0.0,0.0,C,817076492012386
Raw,1726564775992,6109571507,18,0.0,-1410599987883023104,0.0,2000042.625,0.692771315574646,0.0,0,28,0.0,19,11299089,27,25.0,540.33349609375,0.25,16,0.0,0.1767749935388565,1575420030,,,,0,,1,1.2999999523162842,20.0,0.0,0.0,0.0,0.0,C,817076492012386
Raw,1726564775992,6109571507,18,0.0,-1410599987883023104,0.0,2000042.625,0.692771315574646,0.0,0,27,0.0,17,37675,32,23.100000381469727,-166.5566864013672,0.3052409589290619,16,0.0,0.21583588421344757,1575420030,,,,0,,1,1.2999999523162842,18.100000381469727,0.0,0.0,0.0,0.0,C,817076492012386
Raw,1726564775992,6109571507,18,0.0,-1410599987883023104,0.0,2000042.625,0.692771315574646,0.0,0,14,0.0,51,3647700,11,39.29999923706055,-399.2327880859375,0.08499860018491745,16,0.0,0.06010251119732857,1598062460,,,,0,,3,1.2999999523162842,34.29999923706055,0.0,0.0,0.0,0.0,C,817076492012386
Raw,1726564775992,6109571507,18,0.0,-1410599987883023104,0.0,2000042.625,0.692771315574646,0.0,0,21,0.0,1040,3188909,16,32.79999923706055,-252.7941131591797,0.12939289212226868,19,-59770.721677686015,0.18664054572582245,1575420030,,,,0,,6,1.2999999523162842,27.799999237060547,0.0,0.0,0.0,0.0,C,817076492012386
Raw,1726564775992,6109571507,18,0.0,-1410599987883023104,0.0,2000042.625,0.692771315574646,0.0,0,36,0.0,51,14657980,14,35.20000076293945,-334.0779113769531,0.10964430868625641,19,-41996.62810503339,0.17354923486709595,1561097980,,,,0,,5,1.2999999523162842,30.200000762939453,0.0,0.0,0.0,0.0,C,817076492012386
Raw,1726564775992,6109571507,18,0.0,-1410599987883023104,0.0,2000042.625,0.692771315574646,0.0,0,9,0.0,51,4168292,14,34.900001525878906,153.05039978027344,0.11185558140277863,19,-40111.695405855935,0.17511282861232758,1561097980,,,,0,,5,1.2999999523162842,29.899999618530273,0.0,0.0,0.0,0.0,C,817076492012386
Raw,1726564775992,6109571507,18,0.0,-1410599987883023104,0.0,2000042.625,0.692771315574646,0.0,0,18,0.0,51,13209652,15,33.79999923706055,325.43878173828125,0.12056328356266022,16,0.0,0.08525029569864273,1600312450,,,,0,,3,1.2999999523162842,28.799999237060547,0.0,0.0,0.0,0.0,C,817076492012386
Raw,1726564775992,6109571507,18,0.0,-1410599987883023104,0.0,2000042.625,0.692771315574646,0.0,0,38,0.0,51,2339191,16,32.400001525878906,173.31954956054688,0.13319836556911469,16,0.0,0.09418456256389618,1561097980,,,,0,,5,1.2999999523162842,27.399999618530273,0.0,0.0,0.0,0.0,C,817076492012386
Raw,1726564775992,6109571507,18,0.0,-1410599987883023104,0.0,2000042.625,0.692771315574646,0.0,0,2,0.0,51,17103216,16,32.20000076293945,-49.038665771484375,0.13516435027122498,16,0.0,0.09557471424341202,1599750020,,,,0,,3,1.2999999523162842,27.200000762939453,0.0,0.0,0.0,0.0,C,817076492012386
Raw,1726564775992,6109571507,18,0.0,-1410599987883023104,0.0,2000042.625,0.692771315574646,0.0,0,6,0.0,51,3846530,17,31.299999237060547,149.03680419921875,0.14457345008850098,16,0.0,0.10222788900136948,1561097980,,,,0,,5,1.2999999523162842,26.299999237060547,0.0,0.0,0.0,0.0,C,817076492012386
Raw,1726564775992,6109571507,18,0.0,-1410599987883023104,0.0,2000042.625,0.692771315574646,0.0,0,29,0.0,1040,3657746,24,26.700000762939453,9.219493865966797,0.21236379444599152,16,0.0,0.1501624435186386,1575420030,,,,0,,6,1.2999999523162842,21.700000762939453,0.0,0.0,0.0,0.0,C,817076492012386
Raw,1726564775992,6109571507,18,0.0,-1410599987883023104,0.0,2000042.625,0.692771315574646,0.0,0,12,0.0,1040,3559193,22,27.5,-140.98681640625,0.1975308656692505,16,0.0,0.1396740823984146,1575420030,,,,0,,6,1.2999999523162842,22.5,0.0,0.0,0.0,0.0,C,817076492012386
Raw,1726564775992,6109571507,18,0.0,-1410599987883023104,0.0,2000042.625,0.692771315574646,0.0,0,32,0.0,51,2972914,18,30.700000762939453,289.7371520996094,0.15140274167060852,16,0.0,0.1070568785071373,1561097980,,,,0,,5,1.2999999523162842,25.700000762939453,0.0,0.0,0.0,0.0,C,817076492012386
Raw,1726564775992,6109571507,18,0.0,-1410599987883023104,0.0,2000042.625,0.692771315574646,0.0,0,13,0.0,51,9299472,18,31.100000381469727,74.1955337524414,0.14679761230945587,16,0.0,0.10380059480667114,1561097980,,,,0,,5,1.2999999523162842,26.100000381469727,0.0,0.0,0.0,0.0,C,817076492012386
Raw,1726564775992,6109571507,18,0.0,-1410599987883023104,0.0,2000042.625,0.692771315574646,0.0,0,33,0.0,1040,3786571,20,29.200000762939453,288.8254699707031,0.1707533597946167,16,0.0,0.12073969841003418,1575420030,,,,0,,6,1.2999999523162842,24.200000762939453,0.0,0.0,0.0,0.0,C,817076492012386
Raw,1726564775992,6109571507,18,0.0,-1410599987883023104,0.0,2000042.625,0.692771315574646,0.0,0,13,0.0,51,1742367,19,30.200000762939453,459.9122314453125,0.15747039020061493,16,0.0,0.11134731024503708,1600875010,,,,0,,3,1.2999999523162842,25.200000762939453,0.0,0.0,0.0,0.0,C,817076492012386
Raw,1726564775992,6109571507,18,0.0,-1410599987883023104,0.0,2000042.625,0.692771315574646,0.0,0,39,0.0,51,92229,20,29.100000381469727,126.56475830078125,0.17217335104942322,16,0.0,0.12174377590417862,1561097980,,,,0,,5,1.2999999523162842,24.100000381469727,0.0,0.0,0.0,0.0,C,817076492012386
Raw,1726564775992,6109571507,18,0.0,-1410599987883023104,0.0,2000042.625,0.692771315574646,0.0,0,20,0.0,51,12592054,22,28.0,-72.03271484375,0.18903592228889465,16,0.0,0.13366730511188507,1561097980,,,,0,,5,1.2999999523162842,23.0,0.0,0.0,0.0,0.0,C,817076492012386
Raw,1726564775992,6109571507,18,0.0,-1410599987883023104,0.0,2000042.625,0.692771315574646,0.0,0,19,0.0,51,9846475,21,28.600000381469727,-378.3370361328125,0.17954610288143158,16,0.0,0.12695704400539398,1561097980,,,,0,,5,1.2999999523162842,23.600000381469727,0.0,0.0,0.0,0.0,C,817076492012386
Raw,1726564775992,6109571507,18,0.0,-1410599987883023104,0.0,2000042.625,0.692771315574646,0.0,0,15,0.0,51,10951072,23,27.100000381469727,-792.6200561523438,0.20474600791931152,16,0.0,0.1447758972644806,1602000000,,,,0,,3,1.2999999523162842,22.100000381469727,0.0,0.0,0.0,0.0,C,817076492012386
Raw,1726564775992,6109571507,18,0.0,-1410599987883023104,0.0,2000042.625,0.692771315574646,0.0,0,17,0.0,51,1429856,22,27.5,501.2716064453125,0.1975308656692505,16,0.0,0.1396740823984146,1604249980,,,,0,,3,1.2999999523162842,22.5,0.0,0.0,0.0,0.0,C,817076492012386
Raw,1726564775992,6109571507,18,0.0,-1410599987883023104,0.0,2000042.625,0.692771315574646,0.0,0,7,0.0,50,3107872,35,22.100000381469727,-222.14382934570312,0.3419855535030365,16,0.0,0.24181798100471497,1561097980,,,,0,,5,1.2999999523162842,17.100000381469727,0.0,0.0,0.0,0.0,C,817076492012386
Raw,1726564775992,6109571507,18,0.0,-1410599987883023104,0.0,2000042.625,0.692771315574646,0.0,0,37,0.0,51,2823075,33,22.700000762939453,576.8194580078125,0.319193035364151,16,0.0,0.22570139169692993,1561097980,,,,0,,5,1.2999999523162842,17.700000762939453,0.0,0.0,0.0,0.0,C,817076492012386
Raw,1726564776988,7117037388,18,0.0,-1410599987871487488,0.0,2000042.625,0.1989612579345703,0.0,0,31,0.0,19,6937529,10,41.70000076293945,374.7024841308594,0.07424511015415192,19,-38868.10878060147,0.14764554798603058,1575420030,,,,0,,1,1.2999999523162842,36.70000076293945,0.0,0.0,0.0,0.0,C,817077499476548
Raw,1726564776988,7117037388,18,0.0,-1410599987871487488,0.0,2000042.625,0.1989612579345703,0.0,0,2,0.0,19,85912,10,41.599998474121094,51.05006790161133,0.07465138286352158,19,-27592.815348552474,0.14793282747268677,1575420030,,,,0,,1,1.2999999523162842,36.599998474121094,0.0,0.0,0.0,0.0,C,817077499476548
Raw,1726564776988,7117037388,18,0.0,-1410599987871487488,0.0,2000042.625,0.1989612579345703,0.0,0,1,0.0,19,7010354,12,38.5,-28.109830856323242,0.08910670876502991,19,-35333.271151111185,0.1581541895866394,1575420030,,,,0,,1,1.2999999523162842,33.5,0.0,0.0,0.0,0.0,C,817077499476548
Raw,1726564776988,7117037388,18,0.0,-1410599987871487488,0.0,2000042.625,0.1989612579345703,0.0,0,26,0.0,19,8217932,17,31.299999237060547,-51.782386779785156,0.14457345008850098,16,0.0,0.10222788900136948,1575420030,,,,0,,1,1.2999999523162842,26.299999237060547,0.0,0.0,0.0,0.0,C,817077499476548
Raw,1726564776988,7117037388,18,0.0,-1410599987871487488,0.0,2000042.625,0.1989612579345703,0.0,0,32,0.0,19,16452673,16,32.599998474121094,132.84608459472656,0.13127493858337402,19,-40041.66420920937,0.1879713535308838,1575420030,,,,0,,1,1.2999999523162842,27.600000381469727,0.0,0.0,0.0,0.0,C,817077499476548
Raw,1726564776988,7117037388,18,0.0,-1410599987871487488,0.0,2000042.625,0.1989612579345703,0.0,0,16,0.0,19,4659473,17,31.399999618530273,-520.8532104492188,0.14348027110099792,16,0.0,0.10145489871501923,1575420030,,,,0,,1,1.2999999523162842,26.399999618530273,0.0,0.0,0.0,0.0,C,817077499476548
Raw,1726564776988,7117037388,18,0.0,-1410599987871487488,0.0,2000042.625,0.1989612579345703,0.0,0,10,0.0,19,231912,20,29.299999237060547,531.30126953125,0.16935087740421295,16,0.0,0.11974800378084183,1575420030,,,,0,,1,1.2999999523162842,24.299999237060547,0.0,0.0,0.0,0.0,C,817077499476548
Raw,1726564776988,7117037388,18,0.0,-1410599987871487488,0.0,2000042.625,0.1989612579345703,0.0,0,21,0.0,19,557927,19,30.200000762939453,178.40013122558594,0.15747039020061493,16,0.0,0.11134731024503708,1575420030,,,,0,,1,1.2999999523162842,25.200000762939453,0.0,0.0,0.0,0.0,C,817077499476548
Raw,1726564776988,7117037388,18,0.0,-1410599987871487488,0.0,2000042.625,0.1989612579345703,0.0,0,4,0.0,19,14585787,23,27.399999618530273,-245.3160858154297,0.19929847121238708,16,0.0,0.14092394709587097,1575420030,,,,0,,1,1.2999999523162842,22.399999618530273,0.0,0.0,0.0,0.0,C,817077499476548
Raw,1726564776988,7117037388,18,0.0,-1410599987871487488,0.0,2000042.625,0.1989612579345703,0.0,0,28,0.0,19,18763154,26,25.600000381469727,539.5628662109375,0.235648974776268,16,0.0,0.16662739217281342,1575420030,,,,0,,1,1.2999999523162842,20.600000381469727,0.0,0.0,0.0,0.0,C,817077499476548
Raw,1726564776988,7117037388,18,0.0,-1410599987871487488,0.0,2000042.625,0.1989612579345703,0.0,0,27,0.0,17,504040,31,23.299999237060547,-166.81031799316406,0.2986055314540863,16,0.0,0.21114397048950195,1575420030,,,,0,,1,1.2999999523162842,18.299999237060547,0.0,0.0,0.0,0.0,C,817077499476548
Raw,1726564776988,7117037388,18,0.0,-1410599987871487488,0.0,2000042.625,0.1989612579345703,0.0,0,14,0.0,51,11114920,11,39.29999923706055,-398.8612060546875,0.08499860018491745,16,0.0,0.06010251119732857,1598062460,,,,0,,3,1.2999999523162842,34.29999923706055,0.0,0.0,0.0,0.0,C,817077499476548
Raw,1726564776988,7117037388,18,0.0,-1410599987871487488,0.0,2000042.625,0.1989612579345703,0.0,0,21,0.0,1040,3655609,14,35.0,-252.74290466308594,0.1111111119389534,19,-60025.37830687212,0.17371350526809692,1575420030,,,,0,,6,1.2999999523162842,30.0,0.0,0.0,0.0,0.0,C,817077499476548
Raw,1726564776988,7117037388,18,0.0,-1410599987871487488,0.0,2000042.625,0.1989612579345703,0.0,0,36,0.0,51,2124989,14,35.099998474121094,-333.8470764160156,0.11037405580282211,19,-42333.114842014984,0.1740652322769165,1561097980,,,,0,,5,1.2999999523162842,30.100000381469727,0.0,0.0,0.0,0.0,C,817077499476548
Raw,1726564776988,7117037388,18,0.0,-1410599987871487488,0.0,2000042.625,0.1989612579345703,0.0,0,9,0.0,51,11633654,14,34.900001525878906,153.16172790527344,0.11185558140277863,19,-39957.591639628066,0.17511282861232758,1561097980,,,,0,,5,1.2999999523162842,29.899999618530273,0.0,0.0,0.0,0.0,C,817077499476548
Raw,1726564776988,7117037388,18,0.0,-1410599987871487488,0.0,2000042.625,0.1989612579345703,0.0,0,18,0.0,51,674521,15,33.79999923706055,325.50018310546875,0.12056328356266022,16,0.0,0.08525029569864273,1600312450,,,,0,,3,1.2999999523162842,28.799999237060547,0.0,0.0,0.0,0.0,C,817077499476548
Raw,1726564776988,7117037388,18,0.0,-1410599987871487488,0.0,2000042.625,0.1989612579345703,0.0,0,38,0.0,51,9804517,16,32.599998474121094,173.2027130126953,0.13127493858337402,19,-41667.14116057851,0.18884426355361938,1561097980,,,,0,,5,1.2999999523162842,27.600000381469727,0.0,0.0,0.0,0.0,C,817077499476548
Raw,1726564776988,7117037388,18,0.0,-1410599987871487488,0.0,2000042.625,0.1989612579345703,0.0,0,2,0.0,51,4569221,16,32.20000076293945,-48.8697509765625,0.13516435027122498,16,0.0,0.09557471424341202,1599750020,,,,0,,3,1.2999999523162842,27.200000762939453,0.0,0.0,0.0,0.0,C,817077499476548
Raw,1726564776988,7117037388,18,0.0,-1410599987871487488,0.0,2000042.625,0.1989612579345703,0.0,0,6,0.0,51,11311925,17,31.299999237060547,148.2086944580078,0.14457345008850098,16,0.0,0.10222788900136948,1561097980,,,,0,,5,1.2999999523162842,26.299999237060547,0.0,0.0,0.0,0.0,C,817077499476548
Raw,1726564776988,7117037388,18,0.0,-1410599987871487488,0.0,2000042.625,0.1989612579345703,0.0,0,12,0.0,1040,3025546,20,29.0,-140.53012084960938,0.1736111044883728,16,0.0,0.12276041507720947,1575420030,,,,0,,6,1.2999999523162842,24.0,0.0,0.0,0.0,0.0,C,817077499476548
Raw,1726564776988,7117037388,18,0.0,-1410599987871487488,0.0,2000042.625,0.1989612579345703,0.0,0,29,0.0,1040,3123561,20,29.0,8.819090843200684,0.1736111044883728,16,0.0,0.12276041507720947,1575420030,,,,0,,6,1.2999999523162842,24.0,0.0,0.0,0.0,0.0,C,817077499476548
Raw,1726564776988,7117037388,18,0.0,-1410599987871487488,0.0,2000042.625,0.1989612579345703,0.0,0,13,0.0,51,9206790,19,30.100000381469727,459.8381652832031,0.15872763097286224,16,0.0,0.11223630607128143,1600875010,,,,0,,3,1.2999999523162842,25.100000381469727,0.0,0.0,0.0,0.0,C,817077499476548
Raw,1726564776988,7117037388,18,0.0,-1410599987871487488,0.0,2000042.625,0.1989612579345703,0.0,0,32,0.0,51,10437830,18,30.600000381469727,289.9361267089844,0.1525878757238388,16,0.0,0.1078948900103569,1561097980,,,,0,,5,1.2999999523162842,25.600000381469727,0.0,0.0,0.0,0.0,C,817077499476548
Raw,1726564776988,7117037388,18,0.0,-1410599987871487488,0.0,2000042.625,0.1989612579345703,0.0,0,13,0.0,51,16765047,18,31.0,73.89812469482422,0.14792899787425995,16,0.0,0.10460059344768524,1561097980,,,,0,,5,1.2999999523162842,26.0,0.0,0.0,0.0,0.0,C,817077499476548
Raw,1726564776988,7117037388,18,0.0,-1410599987871487488,0.0,2000042.625,0.1989612579345703,0.0,0,33,0.0,1040,3251524,20,29.200000762939453,289.8070373535156,0.1707533597946167,16,0.0,0.12073969841003418,1575420030,,,,0,,6,1.2999999523162842,24.200000762939453,0.0,0.0,0.0,0.0,C,817077499476548
Raw,1726564776988,7117037388,18,0.0,-1410599987871487488,0.0,2000042.625,0.1989612579345703,0.0,0,39,0.0,51,7557612,20,29.100000381469727,125.86299896240234,0.17217335104942322,16,0.0,0.12174377590417862,1561097980,,,,0,,5,1.2999999523162842,24.100000381469727,0.0,0.0,0.0,0.0,C,817077499476548
Raw,1726564776988,7117037388,18,0.0,-1410599987871487488,0.0,2000042.625,0.1989612579345703,0.0,0,20,0.0,51,58103,22,28.0,-71.88744354248047,0.18903592228889465,16,0.0,0.13366730511188507,1561097980,,,,0,,5,1.2999999523162842,23.0,0.0,0.0,0.0,0.0,C,817077499476548
Raw,1726564776988,7117037388,18,0.0,-1410599987871487488,0.0,2000042.625,0.1989612579345703,0.0,0,17,0.0,51,8894038,22,27.5,499.8835144042969,0.1975308656692505,16,0.0,0.1396740823984146,1604249980,,,,0,,3,1.2999999523162842,22.5,0.0,0.0,0.0,0.0,C,817077499476548
Raw,1726564776988,7117037388,18,0.0,-1410599987871487488,0.0,2000042.625,0.1989612579345703,0.0,0,19,0.0,51,17313611,21,28.600000381469727,-376.7449951171875,0.17954610288143158,16,0.0,0.12695704400539398,1561097980,,,,0,,5,1.2999999523162842,23.600000381469727,0.0,0.0,0.0,0.0,C,817077499476548
Raw,1726564776988,7117037388,18,0.0,-1410599987871487488,0.0,2000042.625,0.1989612579345703,0.0,0,15,0.0,51,18419596,23,27.100000381469727,-792.6841430664062,0.20474600791931152,16,0.0,0.1447758972644806,1602000000,,,,0,,3,1.2999999523162842,22.100000381469727,0.0,0.0,0.0,0.0,C,817077499476548
Raw,1726564776988,7117037388,18,0.0,-1410599987871487488,0.0,2000042.625,0.1989612579345703,0.0,0,37,0.0,51,10286985,30,23.700000762939453,577.6474609375,0.28596755862236023,16,0.0,0.20220765471458435,1561097980,,,,0,,5,1.2999999523162842,18.700000762939453,0.0,0.0,0.0,0.0,C,817077499476548
Raw,1726564776988,7117037388,18,0.0,-1410599987871487488,0.0,2000042.625,0.1989612579345703,0.0,0,26,0.0,1040,3414635,37,21.399999618530273,495.75830078125,0.37180250883102417,16,0.0,0.26290154457092285,1575420030,,,,0,,6,1.2999999523162842,16.399999618530273,0.0,0.0,0.0,0.0,C,817077499476548
Raw,1726564776988,7117037388,18,0.0,-1410599987871487488,0.0,2000042.625,0.1989612579345703,0.0,0,7,0.0,51,10574460,35,22.100000381469727,-221.39083862304688,0.3419855535030365,16,0.0,0.24181798100471497,1561097980,,,,0,,5,1.2999999523162842,17.100000381469727,0.0,0.0,0.0,0.0,C,817077499476548
Raw,1726564777312,7432928096,18,0.0,-1410599987879769344,0.0,343.86376953125,0.0,0.0,0,31,0.0,15,206395242827853,10,41.79999923706055,374.5213623046875,0.07384215295314789,19,-38749.809122121194,0.14736062288284302,1575420030,,,,0,,1,1.2999999523162842,36.79999923706055,0.0,0.0,0.0,0.0,C,817077815375179
Raw,1726564777312,7432928096,18,0.0,-1410599987879769344,0.0,343.86376953125,0.0,0.0,0,2,0.0,15,206395235976567,10,41.70000076293945,50.9405632019043,0.07424511015415192,19,-27576.734085645694,0.14764554798603058,1575420030,,,,0,,1,1.2999999523162842,36.70000076293945,0.0,0.0,0.0,0.0,C,817077815375179
Raw,1726564777312,7432928096,18,0.0,-1410599987879769344,0.0,343.86376953125,0.0,0.0,0,1,0.0,15,206395242901107,12,38.29999923706055,-28.064777374267578,0.09018027782440186,19,-35342.119979399664,0.15891331434249878,1575420030,,,,0,,1,1.2999999523162842,33.29999923706055,0.0,0.0,0.0,0.0,C,817077815375179
Raw,1726564777312,7432928096,18,0.0,-1410599987879769344,0.0,343.86376953125,0.0,0.0,0,26,0.0,19,4108694,17,31.299999237060547,-51.55367660522461,0.14457345008850098,16,0.0,0.10222788900136948,1575420030,,,,0,,1,1.2999999523162842,26.299999237060547,0.0,0.0,0.0,0.0,C,817077815375179
Raw,1726564777312,7432928096,18,0.0,-1410599987879769344,0.0,343.86376953125,0.0,0.0,0,32,0.0,19,12343240,16,32.5,132.9159698486328,0.13223139941692352,19,-39999.73247688686,0.18864765763282776,1575420030,,,,0,,1,1.2999999523162842,27.5,0.0,0.0,0.0,0.0,C,817077815375179
Raw,1726564777312,7432928096,18,0.0,-1410599987879769344,0.0,343.86376953125,0.0,0.0,0,16,0.0,19,550732,17,31.299999237060547,-520.86962890625,0.14457345008850098,16,0.0,0.10222788900136948,1575420030,,,,0,,1,1.2999999523162842,26.299999237060547,0.0,0.0,0.0,0.0,C,817077815375179
Raw,1726564777312,7432928096,18,0.0,-1410599987879769344,0.0,343.86376953125,0.0,0.0,0,10,0.0,19,16122052,19,30.0,531.5093994140625,0.1599999964237213,16,0.0,0.11313600093126297,1575420030,,,,0,,1,1.2999999523162842,25.0,0.0,0.0,0.0,0.0,C,817077815375179
Raw,1726564777312,7432928096,18,0.0,-1410599987879769344,0.0,343.86376953125,0.0,0.0,0,21,0.0,19,16448455,19,30.200000762939453,178.43548583984375,0.15747039020061493,16,0.0,0.11134731024503708,1575420030,,,,0,,1,1.2999999523162842,25.200000762939453,0.0,0.0,0.0,0.0,C,817077815375179
Raw,1726564777312,7432928096,18,0.0,-1410599987879769344,0.0,343.86376953125,0.0,0.0,0,4,0.0,19,10476735,23,27.399999618530273,-244.63014221191406,0.19929847121238708,16,0.0,0.14092394709587097,1575420030,,,,0,,1,1.2999999523162842,22.399999618530273,0.0,0.0,0.0,0.0,C,817077815375179
Raw,1726564777312,7432928096,18,0.0,-1410599987879769344,0.0,343.86376953125,0.0,0.0,0,28,0.0,19,14653310,25,26.0,539.5697021484375,0.22675736248493195,16,0.0,0.16034013032913208,1575420030,,,,0,,1,1.2999999523162842,21.0,0.0,0.0,0.0,0.0,C,817077815375179
Raw,1726564777312,7432928096,18,0.0,-1410599987879769344,0.0,343.86376953125,0.0,0.0,0,27,0.0,17,394913,32,23.200000762939453,-166.96788024902344,0.3018958866596222,16,0.0,0.21347057819366455,1575420030,,,,0,,1,1.2999999523162842,18.200000762939453,0.0,0.0,0.0,0.0,C,817077815375179
Raw,1726564777312,7432928096,18,0.0,-1410599987879769344,0.0,343.86376953125,0.0,0.0,0,14,0.0,51,7006066,11,39.20000076293945,-398.6920166015625,0.08549638837575912,16,0.0,0.06045449525117874,1598062460,,,,0,,3,1.2999999523162842,34.20000076293945,0.0,0.0,0.0,0.0,C,817077815375179
Raw,1726564777312,7432928096,18,0.0,-1410599987879769344,0.0,343.86376953125,0.0,0.0,0,21,0.0,1040,2546583,13,36.0,-252.7044677734375,0.10405827313661575,19,-60105.21459557897,0.16872644424438477,1575420030,,,,0,,6,1.2999999523162842,31.0,0.0,0.0,0.0,0.0,C,817077815375179
Raw,1726564777312,7432928096,18,0.0,-1410599987879769344,0.0,343.86376953125,0.0,0.0,0,36,0.0,51,18016045,14,35.099998474121094,-333.95294189453125,0.11037405580282211,19,-42438.61956719628,0.1740652322769165,1561097980,,,,0,,5,1.2999999523162842,30.100000381469727,0.0,0.0,0.0,0.0,C,817077815375179
Raw,1726564777312,7432928096,18,0.0,-1410599987879769344,0.0,343.86376953125,0.0,0.0,0,9,0.0,51,7524212,14,34.900001525878906,152.8866424560547,0.11185558140277863,19,-39909.306509876915,0.17511282861232758,1561097980,,,,0,,5,1.2999999523162842,29.899999618530273,0.0,0.0,0.0,0.0,C,817077815375179
Raw,1726564777312,7432928096,18,0.0,-1410599987879769344,0.0,343.86376953125,0.0,0.0,0,18,0.0,51,16564840,15,33.70000076293945,325.4469909667969,0.12140488624572754,16,0.0,0.08584539592266083,1600312450,,,,0,,3,1.2999999523162842,28.700000762939453,0.0,0.0,0.0,0.0,C,817077815375179
Raw,1726564777312,7432928096,18,0.0,-1410599987879769344,0.0,343.86376953125,0.0,0.0,0,38,0.0,51,5695037,16,32.900001525878906,173.6485137939453,0.12846700847148895,19,-41612.32395180657,0.18685877323150635,1561097980,,,,0,,5,1.2999999523162842,27.899999618530273,0.0,0.0,0.0,0.0,C,817077815375179
Raw,1726564777312,7432928096,18,0.0,-1410599987879769344,0.0,343.86376953125,0.0,0.0,0,2,0.0,51,459978,16,32.099998474121094,-48.81100845336914,0.13616371154785156,16,0.0,0.09628135710954666,1599750020,,,,0,,3,1.2999999523162842,27.100000381469727,0.0,0.0,0.0,0.0,C,817077815375179
Raw,1726564777312,7432928096,18,0.0,-1410599987879769344,0.0,343.86376953125,0.0,0.0,0,6,0.0,51,7202499,17,31.200000762939453,148.63327026367188,0.14567914605140686,16,0.0,0.10300972312688828,1561097980,,,,0,,5,1.2999999523162842,26.200000762939453,0.0,0.0,0.0,0.0,C,817077815375179
Raw,1726564777312,7432928096,18,0.0,-1410599987879769344,0.0,343.86376953125,0.0,0.0,0,12,0.0,1040,2916379,19,30.0,-140.66319274902344,0.1599999964237213,16,0.0,0.11313600093126297,1575420030,,,,0,,6,1.2999999523162842,25.0,0.0,0.0,0.0,0.0,C,817077815375179
Raw,1726564777312,7432928096,18,0.0,-1410599987879769344,0.0,343.86376953125,0.0,0.0,0,29,0.0,1040,2014223,19,29.5,8.582855224609375,0.16659724712371826,16,0.0,0.11780091375112534,1575420030,,,,0,,6,1.2999999523162842,24.5,0.0,0.0,0.0,0.0,C,817077815375179
Raw,1726564777312,7432928096,18,0.0,-1410599987879769344,0.0,343.86376953125,0.0,0.0,0,13,0.0,51,5096949,19,30.0,459.6899108886719,0.1599999964237213,16,0.0,0.11313600093126297,1600875010,,,,0,,3,1.2999999523162842,25.0,0.0,0.0,0.0,0.0,C,817077815375179
Raw,1726564777312,7432928096,18,0.0,-1410599987879769344,0.0,343.86376953125,0.0,0.0,0,39,0.0,51,3448169,20,29.0,125.87992095947266,0.1736111044883728,16,0.0,0.12276041507720947,1561097980,,,,0,,5,1.2999999523162842,24.0,0.0,0.0,0.0,0.0,C,817077815375179
Raw,1726564777312,7432928096,18,0.0,-1410599987879769344,0.0,343.86376953125,0.0,0.0,0,32,0.0,51,6328221,18,30.5,290.0307922363281,0.15378700196743011,16,0.0,0.10874278843402863,1561097980,,,,0,,5,1.2999999523162842,25.5,0.0,0.0,0.0,0.0,C,817077815375179
Raw,1726564777312,7432928096,18,0.0,-1410599987879769344,0.0,343.86376953125,0.0,0.0,0,33,0.0,1040,2141929,20,29.100000381469727,289.5259094238281,0.17217335104942322,16,0.0,0.12174377590417862,1575420030,,,,0,,6,1.2999999523162842,24.100000381469727,0.0,0.0,0.0,0.0,C,817077815375179
Raw,1726564777312,7432928096,18,0.0,-1410599987879769344,0.0,343.86376953125,0.0,0.0,0,13,0.0,51,12655662,18,30.799999237060547,73.30916595458984,0.15023136138916016,16,0.0,0.10622859746217728,1561097980,,,,0,,5,1.2999999523162842,25.799999237060547,0.0,0.0,0.0,0.0,C,817077815375179
Raw,1726564777312,7432928096,18,0.0,-1410599987879769344,0.0,343.86376953125,0.0,0.0,0,20,0.0,51,15948914,22,28.0,-71.74958038330078,0.18903592228889465,16,0.0,0.13366730511188507,1561097980,,,,0,,5,1.2999999523162842,23.0,0.0,0.0,0.0,0.0,C,817077815375179
Raw,1726564777312,7432928096,18,0.0,-1410599987879769344,0.0,343.86376953125,0.0,0.0,0,17,0.0,51,4784164,23,27.399999618530273,499.7657165527344,0.19929847121238708,16,0.0,0.14092394709587097,1604249980,,,,0,,3,1.2999999523162842,22.399999618530273,0.0,0.0,0.0,0.0,C,817077815375179
Raw,1726564777312,7432928096,18,0.0,-1410599987879769344,0.0,343.86376953125,0.0,0.0,0,19,0.0,51,13204761,21,28.399999618530273,-377.0411071777344,0.18262839317321777,16,0.0,0.12913653254508972,1561097980,,,,0,,5,1.2999999523162842,23.399999618530273,0.0,0.0,0.0,0.0,C,817077815375179
Raw,1726564777312,7432928096,18,0.0,-1410599987879769344,0.0,343.86376953125,0.0,0.0,0,15,0.0,51,14311157,23,27.0,-792.7816162109375,0.20661157369613647,16,0.0,0.14609503746032715,1602000000,,,,0,,3,1.2999999523162842,22.0,0.0,0.0,0.0,0.0,C,817077815375179
Raw,1726564777312,7432928096,18,0.0,-1410599987879769344,0.0,343.86376953125,0.0,0.0,0,37,0.0,51,6177108,30,23.700000762939453,578.2625732421875,0.28596755862236023,16,0.0,0.20220765471458435,1561097980,,,,0,,5,1.2999999523162842,18.700000762939453,0.0,0.0,0.0,0.0,C,817077815375179
Raw,1726564777312,7432928096,18,0.0,-1410599987879769344,0.0,343.86376953125,0.0,0.0,0,26,0.0,1040,2304836,37,21.399999618530273,495.671630859375,0.37180250883102417,16,0.0,0.26290154457092285,1575420030,,,,0,,6,1.2999999523162842,16.399999618530273,0.0,0.0,0.0,0.0,C,817077815375179
Raw,1726564777312,7432928096,18,0.0,-1410599987879769344,0.0,343.86376953125,0.0,0.0,0,7,0.0,50,6465411,35,22.0,-222.20045471191406,0.34602075815200806,16,0.0,0.2446712851524353,1561097980,,,,0,,5,1.2999999523162842,17.0,0.0,0.0,0.0,0.0,C,817077815375179
Raw,1726564778000,8120249801,18,0.0,-1410599987879769344,0.0,50.034610748291016,2.7918930053710938,0.0,0,2,0.0,15,206395923298145,10,41.70000076293945,51.07182312011719,0.07424511015415192,25,-27541.67770959992,0.0524987168610096,1575420030,,,,0,,1,1.2999999523162842,36.70000076293945,0.0,0.0,0.0,0.0,C,817078719579368
Raw,1726564778000,8120249801,18,0.0,-1410599987879769344,0.0,50.034610748291016,2.7918930053710938,0.0,0,31,0.0,15,206395930148716,10,41.79999923706055,374.68896484375,0.07384215295314789,25,-38492.34732320966,0.05221378803253174,1575420030,,,,0,,1,1.2999999523162842,36.79999923706055,0.0,0.0,0.0,0.0,C,817078719579368
Raw,1726564778000,8120249801,18,0.0,-1410599987879769344,0.0,50.034610748291016,2.7918930053710938,0.0,0,1,0.0,15,206395930222885,12,38.20000076293945,-27.89535140991211,0.09072434157133102,25,-35361.288793499654,0.06415118277072906,1575420030,,,,0,,1,1.2999999523162842,33.20000076293945,0.0,0.0,0.0,0.0,C,817078719579368
Raw,1726564778000,8120249801,18,0.0,-1410599987879769344,0.0,50.034610748291016,2.7918930053710938,0.0,0,26,0.0,15,206395931430512,17,31.399999618530273,-51.523128509521484,0.14348027110099792,16,0.0,0.10145489871501923,1575420030,,,,0,,1,1.2999999523162842,26.399999618530273,0.0,0.0,0.0,0.0,C,817078719579368
Raw,1726564778000,8120249801,18,0.0,-1410599987879769344,0.0,50.034610748291016,2.7918930053710938,0.0,0,32,0.0,15,206395919664641,16,32.400001525878906,132.73141479492188,0.13319836556911469,19,-39908.474040092755,0.18933139741420746,1575420030,,,,0,,1,1.2999999523162842,27.399999618530273,0.0,0.0,0.0,0.0,C,817078719579368
Raw,1726564778000,8120249801,18,0.0,-1410599987879769344,0.0,50.034610748291016,2.7918930053710938,0.0,0,16,0.0,15,206395927873620,17,31.299999237060547,-520.275146484375,0.14457345008850098,16,0.0,0.10222788900136948,1575420030,,,,0,,1,1.2999999523162842,26.299999237060547,0.0,0.0,0.0,0.0,C,817078719579368
Raw,1726564778000,8120249801,18,0.0,-1410599987879769344,0.0,50.034610748291016,2.7918930053710938,0.0,0,10,0.0,15,206395923442544,19,30.200000762939453,531.73388671875,0.15747039020061493,16,0.0,0.11134731024503708,1575420030,,,,0,,1,1.2999999523162842,25.200000762939453,0.0,0.0,0.0,0.0,C,817078719579368
Raw,1726564778000,8120249801,18,0.0,-1410599987879769344,0.0,50.034610748291016,2.7918930053710938,0.0,0,21,0.0,15,206395923769771,19,30.100000381469727,178.2189178466797,0.15872763097286224,16,0.0,0.11223630607128143,1575420030,,,,0,,1,1.2999999523162842,25.100000381469727,0.0,0.0,0.0,0.0,C,817078719579368
Raw,1726564778000,8120249801,18,0.0,-1410599987879769344,0.0,50.034610748291016,2.7918930053710938,0.0,0,4,0.0,15,206395917798996,23,27.399999618530273,-244.08079528808594,0.19929847121238708,16,0.0,0.14092394709587097,1575420030,,,,0,,1,1.2999999523162842,22.399999618530273,0.0,0.0,0.0,0.0,C,817078719579368
Raw,1726564778000,8120249801,18,0.0,-1410599987879769344,0.0,50.034610748291016,2.7918930053710938,0.0,0,28,0.0,15,206395921973793,25,26.0,539.9758911132812,0.22675736248493195,16,0.0,0.16034013032913208,1575420030,,,,0,,1,1.2999999523162842,21.0,0.0,0.0,0.0,0.0,C,817078719579368
Raw,1726564778000,8120249801,18,0.0,-1410599987879769344,0.0,50.034610748291016,2.7918930053710938,0.0,0,3,0.0,17,167310,37,21.5,-613.955322265625,0.36730945110321045,16,0.0,0.25972452759742737,1575420030,,,,0,,1,1.2999999523162842,16.5,0.0,0.0,0.0,0.0,C,817078719579368
Raw,1726564778000,8120249801,18,0.0,-1410599987879769344,0.0,50.034610748291016,2.7918930053710938,0.0,0,14,0.0,239,44377934328692,11,39.20000076293945,-398.28912353515625,0.08549638837575912,16,0.0,0.06045449525117874,1598062460,,,,0,,3,1.2999999523162842,34.20000076293945,0.0,0.0,0.0,0.0,C,817078719579368
Raw,1726564778000,8120249801,18,0.0,-1410599987879769344,0.0,50.034610748291016,2.7918930053710938,0.0,0,21,0.0,3072,18868876,13,36.29999923706055,-252.86990356445312,0.10207311064004898,16,0.0,0.07217589765787125,1575420030,,,,0,,6,1.2999999523162842,31.299999237060547,0.0,0.0,0.0,0.0,C,817078719579368
Raw,1726564778000,8120249801,18,0.0,-1410599987879769344,0.0,50.034610748291016,2.7918930053710938,0.0,0,36,0.0,51,5338507,14,35.099998474121094,-334.1870422363281,0.11037405580282211,19,-42668.13373022566,0.1740652322769165,1561097980,,,,0,,5,1.2999999523162842,30.100000381469727,0.0,0.0,0.0,0.0,C,817078719579368
Raw,1726564778000,8120249801,18,0.0,-1410599987879769344,0.0,50.034610748291016,2.7918930053710938,0.0,0,9,0.0,51,14845566,14,34.79999923706055,152.8749237060547,0.11260754615068436,19,-39804.178346820554,0.17564454674720764,1561097980,,,,0,,5,1.2999999523162842,29.799999237060547,0.0,0.0,0.0,0.0,C,817078719579368
Raw,1726564778000,8120249801,18,0.0,-1410599987879769344,0.0,50.034610748291016,2.7918930053710938,0.0,0,18,0.0,239,44377923885790,15,33.599998474121094,325.9913024902344,0.1222553625702858,16,0.0,0.08644676953554153,1600312450,,,,0,,3,1.2999999523162842,28.600000381469727,0.0,0.0,0.0,0.0,C,817078719579368
