# 
# Header Description:
# 
# Version: v3.0.6.4 Platform: 14 Manufacturer: samsung Model: SM-M346B
# 
# Raw,utcTimeMillis,TimeNanos,LeapSecond,TimeUncertaintyNanos,FullBiasNanos,BiasNanos,BiasUncertaintyNanos,DriftNanosPerSecond,DriftUncertaintyNanosPerSecond,HardwareClockDiscontinuityCount,Svid,TimeOffsetNanos,State,ReceivedSvTimeNanos,ReceivedSvTimeUncertaintyNanos,Cn0DbHz,PseudorangeRateMetersPerSecond,PseudorangeRateUncertaintyMetersPerSecond,AccumulatedDeltaRangeState,AccumulatedDeltaRangeMeters,AccumulatedDeltaRangeUncertaintyMeters,CarrierFrequencyHz,CarrierCycles,CarrierPhase,CarrierPhaseUncertainty,MultipathIndicator,SnrInDb,ConstellationType,AgcDb,BasebandCn0DbHz,FullInterSignalBiasNanos,FullInterSignalBiasUncertaintyNanos,SatelliteInterSignalBiasNanos,SatelliteInterSignalBiasUncertaintyNanos,CodeType,ChipsetElapsedRealtimeNanos
# 
# UncalAccel,utcTimeMillis,elapsedRealtimeNanos,UncalAccelXMps2,UncalAccelYMps2,UncalAccelZMps2,BiasXMps2,BiasYMps2,BiasZMps2
# 
# Accel,utcTimeMillis,elapsedRealtimeNanos,AccelXMps2,AccelYMps2,AccelZMps2
# 
# UncalGyro,utcTimeMillis,elapsedRealtimeNanos,UncalGyroXRadPerSec,UncalGyroYRadPerSec,UncalGyroZRadPerSec,DriftXRadPerSec,DriftYRadPerSec,DriftZRadPerSec
# 
# Gyro,utcTimeMillis,elapsedRealtimeNanos,GyroXRadPerSec,GyroYRadPerSec,GyroZRadPerSec
# 
# UncalMag,utcTimeMillis,elapsedRealtimeNanos,UncalMagXMicroT,UncalMagYMicroT,UncalMagZMicroT,BiasXMicroT,BiasYMicroT,BiasZMicroT
# 
# Mag,utcTimeMillis,elapsedRealtimeNanos,MagXMicroT,MagYMicroT,MagZMicroT
# 
# OrientationDeg,utcTimeMillis,elapsedRealtimeNanos,yawDeg,rollDeg,pitchDeg
# 
# Fix,Provider,LatitudeDegrees,LongitudeDegrees,AltitudeMeters,SpeedMps,AccuracyMeters,BearingDegrees,UnixTimeMillis,SpeedAccuracyMps,BearingAccuracyDegrees,elapsedRealtimeNanos,VerticalAccuracyMeters,MockLocation,NumberOfUsedSignals,VerticalSpeedAccuracyMps,SolutionType
# 
# Nav,Svid,Type,Status,MessageId,Sub-messageId,Data(Bytes)
# 
# Status,UnixTimeMillis,SignalCount,SignalIndex,ConstellationType,Svid,CarrierFrequencyHz,Cn0DbHz,AzimuthDegrees,ElevationDegrees,UsedInFix,HasAlmanacData,HasEphemerisData,BasebandCn0DbHz
# 
# Agc,utcTimeMillis,TimeNanos,LeapSecond,TimeUncertaintyNanos,FullBiasNanos,BiasNanos,BiasUncertaintyNanos,DriftNanosPerSecond,DriftUncertaintyNanosPerSecond,HardwareClockDiscontinuityCount,AgcDb,CarrierFrequencyHz,ConstellationType
# 
Raw,1726564987303,6607883683,18,0.0,-1410600198695937280,0.0,50.034610748291016,-6.572587966918945,0.0,0,21,0.0,15,206605227444771,10,42.0,185.88540649414062,0.07304602116346359,19,-17319.60792134,0.14679767191410065,1575420030,,,,0,,1,1.2999999523162842,37.0,0.0,0.0,0.0,0.0,C,817288855886491
Raw,1726564987303,6607883683,18,0.0,-1410600198695937280,0.0,50.034610748291016,-6.572587966918945,0.0,0,2,0.0,15,206605227059859,15,33.599998474121094,64.56732177734375,0.1222553625702858,19,-34604.81484898172,0.18159359693527222,1575420030,,,,0,,1,1.2999999523162842,28.600000381469727,0.0,0.0,0.0,0.0,C,817288855886491
Raw,1726564987303,6607883683,18,0.0,-1410600198695937280,0.0,50.034610748291016,-6.572587966918945,0.0,0,3,0.0,15,206605227396892,16,33.0,-610.11962890625,0.12755101919174194,19,-39505.83326464361,0.18533816933631897,1575420030,,,,0,,1,1.2999999523162842,28.0,0.0,0.0,0.0,0.0,C,817288855886491
Raw,1726564987303,6607883683,18,0.0,-1410600198695937280,0.0,50.034610748291016,-6.572587966918945,0.0,0,26,0.0,19,15259715,21,28.299999237060547,-27.700634002685547,0.18419939279556274,16,0.0,0.13024738430976868,1575420030,,,,0,,1,1.2999999523162842,23.299999237060547,0.0,0.0,0.0,0.0,C,817288855886491
Raw,1726564987303,6607883683,18,0.0,-1410600198695937280,0.0,50.034610748291016,-6.572587966918945,0.0,0,31,0.0,19,13685558,20,29.100000381469727,384.5552673339844,0.17217335104942322,16,0.0,0.12174377590417862,1575420030,,,,0,,1,1.2999999523162842,24.100000381469727,0.0,0.0,0.0,0.0,C,817288855886491
Raw,1726564987303,6607883683,18,0.0,-1410600198695937280,0.0,50.034610748291016,-6.572587966918945,0.0,0,28,0.0,19,5399321,22,27.600000381469727,535.5523071289062,0.19578666985034943,16,0.0,0.13844075798988342,1575420030,,,,0,,1,1.2999999523162842,22.600000381469727,0.0,0.0,0.0,0.0,C,817288855886491
Raw,1726564987303,6607883683,18,0.0,-1410600198695937280,0.0,50.034610748291016,-6.572587966918945,0.0,0,10,0.0,19,6867877,24,26.5,546.6483764648438,0.21633315086364746,16,0.0,0.15296916663646698,1575420030,,,,0,,1,1.2999999523162842,21.5,0.0,0.0,0.0,0.0,C,817288855886491
Raw,1726564987303,6607883683,18,0.0,-1410600198695937280,0.0,50.034610748291016,-6.572587966918945,0.0,0,16,0.0,19,12034701,23,27.399999618530273,-509.34478759765625,0.19929847121238708,16,0.0,0.14092394709587097,1575420030,,,,0,,1,1.2999999523162842,22.399999618530273,0.0,0.0,0.0,0.0,C,817288855886491
Raw,1726564987303,6607883683,18,0.0,-1410600198695937280,0.0,50.034610748291016,-6.572587966918945,0.0,0,4,0.0,19,1774313,25,26.200000762939453,-250.940673828125,0.2224990874528885,16,0.0,0.15732909739017487,1575420030,,,,0,,1,1.2999999523162842,21.200000762939453,0.0,0.0,0.0,0.0,C,817288855886491
Raw,1726564987303,6607883683,18,0.0,-1410600198695937280,0.0,50.034610748291016,-6.572587966918945,0.0,0,32,0.0,19,3373248,34,22.299999237060547,132.4352569580078,0.3341241180896759,16,0.0,0.23625916242599487,1575420030,,,,0,,1,1.2999999523162842,17.299999237060547,0.0,0.0,0.0,0.0,C,817288855886491
Raw,1726564987303,6607883683,18,0.0,-1410600198695937280,0.0,50.034610748291016,-6.572587966918945,0.0,0,19,0.0,51,4593518,11,39.5,-378.8054504394531,0.08401596546173096,19,-36697.64196336597,0.15542742609977722,1561097980,,,,0,,5,1.2999999523162842,34.5,0.0,0.0,0.0,0.0,C,817288855886491
Raw,1726564987303,6607883683,18,0.0,-1410600198695937280,0.0,50.034610748291016,-6.572587966918945,0.0,0,36,0.0,51,9367920,11,38.900001525878906,-318.0718994140625,0.08701629191637039,19,-36398.41341101886,0.1575489640235901,1561097980,,,,0,,5,1.2999999523162842,33.900001525878906,0.0,0.0,0.0,0.0,C,817288855886491
Raw,1726564987303,6607883683,18,0.0,-1410600198695937280,0.0,50.034610748291016,-6.572587966918945,0.0,0,3,0.0,51,11833154,15,34.099998474121094,-381.01202392578125,0.11809024214744568,16,0.0,0.08350160717964172,1604812540,,,,0,,3,1.2999999523162842,29.100000381469727,0.0,0.0,0.0,0.0,C,817288855886491
Raw,1726564987303,6607883683,18,0.0,-1410600198695937280,0.0,50.034610748291016,-6.572587966918945,0.0,0,19,0.0,1040,1703891,15,33.599998474121094,-100.89464569091797,0.1222553625702858,19,-53622.90893212961,0.18159359693527222,1575420030,,,,0,,6,1.2999999523162842,28.600000381469727,0.0,0.0,0.0,0.0,C,817288855886491
Raw,1726564987303,6607883683,18,0.0,-1410600198695937280,0.0,50.034610748291016,-6.572587966918945,0.0,0,33,0.0,1040,1059956,15,33.20000076293945,298.17669677734375,0.1257481873035431,19,-39109.73825779554,0.1840633749961853,1575420030,,,,0,,6,1.2999999523162842,28.200000762939453,0.0,0.0,0.0,0.0,C,817288855886491
Raw,1726564987303,6607883683,18,0.0,-1410600198695937280,0.0,50.034610748291016,-6.572587966918945,0.0,0,18,0.0,51,7456933,15,33.20000076293945,335.19970703125,0.1257481873035431,16,0.0,0.08891654014587402,1600312450,,,,0,,3,1.2999999523162842,28.200000762939453,0.0,0.0,0.0,0.0,C,817288855886491
Raw,1726564987303,6607883683,18,0.0,-1410600198695937280,0.0,50.034610748291016,-6.572587966918945,0.0,0,2,0.0,51,11614112,18,30.399999618530273,-41.933265686035156,0.15500031411647797,16,0.0,0.1096007227897644,1599750020,,,,0,,3,1.2999999523162842,25.399999618530273,0.0,0.0,0.0,0.0,C,817288855886491
Raw,1726564987303,6607883683,18,0.0,-1410600198695937280,0.0,50.034610748291016,-6.572587966918945,0.0,0,6,0.0,51,18223598,20,29.399999618530273,144.3529052734375,0.1679656058549881,16,0.0,0.11876848340034485,1561097980,,,,0,,5,1.2999999523162842,24.399999618530273,0.0,0.0,0.0,0.0,C,817288855886491
Raw,1726564987303,6607883683,18,0.0,-1410600198695937280,0.0,50.034610748291016,-6.572587966918945,0.0,0,29,0.0,51,18663424,22,28.0,229.59103393554688,0.18903592228889465,16,0.0,0.13366730511188507,1561097980,,,,0,,5,1.2999999523162842,23.0,0.0,0.0,0.0,0.0,C,817288855886491
Raw,1726564987303,6607883683,18,0.0,-1410600198695937280,0.0,50.034610748291016,-6.572587966918945,0.0,0,9,0.0,51,18541644,22,27.799999237060547,150.80194091796875,0.19236689805984497,16,0.0,0.1360226273536682,1561097980,,,,0,,5,1.2999999523162842,22.799999237060547,0.0,0.0,0.0,0.0,C,817288855886491
Raw,1726564987303,6607883683,18,0.0,-1410600198695937280,0.0,50.034610748291016,-6.572587966918945,0.0,0,39,0.0,51,14485460,22,27.5,121.22604370117188,0.1975308656692505,16,0.0,0.1396740823984146,1561097980,,,,0,,5,1.2999999523162842,22.5,0.0,0.0,0.0,0.0,C,817288855886491
Raw,1726564987303,6607883683,18,0.0,-1410600198695937280,0.0,50.034610748291016,-6.572587966918945,0.0,0,8,0.0,51,19710096,21,28.5,140.5224609375,0.18107740581035614,16,0.0,0.12803983688354492,1561097980,,,,0,,5,1.2999999523162842,23.5,0.0,0.0,0.0,0.0,C,817288855886491
Raw,1726564987303,6607883683,18,0.0,-1410600198695937280,0.0,50.034610748291016,-6.572587966918945,0.0,0,20,0.0,51,7119696,24,26.299999237060547,-63.01266860961914,0.22041483223438263,16,0.0,0.15585532784461975,1561097980,,,,0,,5,1.2999999523162842,21.299999237060547,0.0,0.0,0.0,0.0,C,817288855886491
Raw,1726564987303,6607883683,18,0.0,-1410600198695937280,0.0,50.034610748291016,-6.572587966918945,0.0,0,17,0.0,51,5559795,24,26.700000762939453,491.6593017578125,0.21236379444599152,16,0.0,0.1501624435186386,1604249980,,,,0,,3,1.2999999523162842,21.700000762939453,0.0,0.0,0.0,0.0,C,817288855886491
Raw,1726564987303,6607883683,18,0.0,-1410600198695937280,0.0,50.034610748291016,-6.572587966918945,0.0,0,32,0.0,51,17244697,31,23.600000381469727,300.273681640625,0.28905072808265686,16,0.0,0.20438776910305023,1561097980,,,,0,,5,1.2999999523162842,18.600000381469727,0.0,0.0,0.0,0.0,C,817288855886491
Raw,1726564988000,7304081129,18,0.0,-1410600198695937536,0.0,50.034610748291016,-5.805233955383301,0.0,0,21,0.0,15,206605923641773,10,42.099998474121094,185.5409393310547,0.07265277206897736,25,-17190.37258843841,0.051372773945331573,1575420030,,,,0,,1,1.2999999523162842,37.099998474121094,0.0,0.0,0.0,0.0,C,817289741930785
Raw,1726564988000,7304081129,18,0.0,-1410600198695937536,0.0,50.034610748291016,-5.805233955383301,0.0,0,2,0.0,15,206605923257158,15,33.70000076293945,64.39009857177734,0.12140488624572754,25,-34559.9864851754,0.08584539592266083,1575420030,,,,0,,1,1.2999999523162842,28.700000762939453,0.0,0.0,0.0,0.0,C,817289741930785
Raw,1726564988000,7304081129,18,0.0,-1410600198695937536,0.0,50.034610748291016,-5.805233955383301,0.0,0,3,0.0,15,206605923595760,16,33.0,-610.4657592773438,0.12755101919174194,25,-39930.70239004281,0.0901913270354271,1575420030,,,,0,,1,1.2999999523162842,28.0,0.0,0.0,0.0,0.0,C,817289741930785
Raw,1726564988000,7304081129,18,0.0,-1410600198695937536,0.0,50.034610748291016,-5.805233955383301,0.0,0,26,0.0,15,206605931457157,21,28.5,-27.176311492919922,0.18107740581035614,16,0.0,0.12803983688354492,1575420030,,,,0,,1,1.2999999523162842,23.5,0.0,0.0,0.0,0.0,C,817289741930785
Raw,1726564988000,7304081129,18,0.0,-1410600198695937536,0.0,50.034610748291016,-5.805233955383301,0.0,0,31,0.0,15,206605929882119,20,29.100000381469727,384.68255615234375,0.17217335104942322,16,0.0,0.12174377590417862,1575420030,,,,0,,1,1.2999999523162842,24.100000381469727,0.0,0.0,0.0,0.0,C,817289741930785
Raw,1726564988000,7304081129,18,0.0,-1410600198695937536,0.0,50.034610748291016,-5.805233955383301,0.0,0,28,0.0,15,206605921595548,22,27.600000381469727,536.0781860351562,0.19578666985034943,16,0.0,0.13844075798988342,1575420030,,,,0,,1,1.2999999523162842,22.600000381469727,0.0,0.0,0.0,0.0,C,817289741930785
Raw,1726564988000,7304081129,18,0.0,-1410600198695937536,0.0,50.034610748291016,-5.805233955383301,0.0,0,10,0.0,15,206605923064037,24,26.399999618530273,545.827392578125,0.21835967898368835,16,0.0,0.15440212190151215,1575420030,,,,0,,1,1.2999999523162842,21.399999618530273,0.0,0.0,0.0,0.0,C,817289741930785
Raw,1726564988000,7304081129,18,0.0,-1410600198695937536,0.0,50.034610748291016,-5.805233955383301,0.0,0,16,0.0,15,206605928233326,23,27.299999237060547,-509.7933044433594,0.20108991861343384,16,0.0,0.14219067990779877,1575420030,,,,0,,1,1.2999999523162842,22.299999237060547,0.0,0.0,0.0,0.0,C,817289741930785
Raw,1726564988000,7304081129,18,0.0,-1410600198695937536,0.0,50.034610748291016,-5.805233955383301,0.0,0,4,0.0,15,206605917972309,25,26.100000381469727,-251.6337890625,0.22461310029029846,16,0.0,0.1588239222764969,1575420030,,,,0,,1,1.2999999523162842,21.100000381469727,0.0,0.0,0.0,0.0,C,817289741930785
Raw,1726564988000,7304081129,18,0.0,-1410600198695937536,0.0,50.034610748291016,-5.805233955383301,0.0,0,32,0.0,15,206605919570390,34,22.299999237060547,132.25241088867188,0.3341241180896759,16,0.0,0.23625916242599487,1575420030,,,,0,,1,1.2999999523162842,17.299999237060547,0.0,0.0,0.0,0.0,C,817289741930785
Raw,1726564988000,7304081129,18,0.0,-1410600198695937536,0.0,50.034610748291016,-5.805233955383301,0.0,0,19,0.0,51,791849,11,39.70000076293945,-379.39678955078125,0.08305026590824127,19,-36961.5936181508,0.15474459528923035,1561097980,,,,0,,5,1.2999999523162842,34.70000076293945,0.0,0.0,0.0,0.0,C,817289741930785
Raw,1726564988000,7304081129,18,0.0,-1410600198695937536,0.0,50.034610748291016,-5.805233955383301,0.0,0,36,0.0,51,5566098,11,38.900001525878906,-318.3031921386719,0.08701629191637039,19,-36619.92421061151,0.1575489640235901,1561097980,,,,0,,5,1.2999999523162842,33.900001525878906,0.0,0.0,0.0,0.0,C,817289741930785
Raw,1726564988000,7304081129,18,0.0,-1410600198695937536,0.0,50.034610748291016,-5.805233955383301,0.0,0,33,0.0,3072,17256700,15,33.400001525878906,297.58294677734375,0.12398333847522736,16,0.0,0.08766862004995346,1575420030,,,,0,,6,1.2999999523162842,28.399999618530273,0.0,0.0,0.0,0.0,C,817289741930785
Raw,1726564988000,7304081129,18,0.0,-1410600198695937536,0.0,50.034610748291016,-5.805233955383301,0.0,0,19,0.0,3072,14901568,15,33.70000076293945,-101.54959106445312,0.12140488624572754,16,0.0,0.08584539592266083,1575420030,,,,0,,6,1.2999999523162842,28.700000762939453,0.0,0.0,0.0,0.0,C,817289741930785
Raw,1726564988000,7304081129,18,0.0,-1410600198695937536,0.0,50.034610748291016,-5.805233955383301,0.0,0,3,0.0,239,44587928031492,15,34.099998474121094,-381.55914306640625,0.11809024214744568,16,0.0,0.08350160717964172,1604812540,,,,0,,3,1.2999999523162842,29.100000381469727,0.0,0.0,0.0,0.0,C,817289741930785
Raw,1726564988000,7304081129,18,0.0,-1410600198695937536,0.0,50.034610748291016,-5.805233955383301,0.0,0,18,0.0,239,44587923653601,15,33.20000076293945,334.5814208984375,0.1257481873035431,16,0.0,0.08891654014587402,1600312450,,,,0,,3,1.2999999523162842,28.200000762939453,0.0,0.0,0.0,0.0,C,817289741930785
Raw,1726564988000,7304081129,18,0.0,-1410600198695937536,0.0,50.034610748291016,-5.805233955383301,0.0,0,2,0.0,239,44587927811693,18,30.299999237060547,-40.28752899169922,0.15622803568840027,16,0.0,0.11046884208917618,1599750020,,,,0,,3,1.2999999523162842,25.299999237060547,0.0,0.0,0.0,0.0,C,817289741930785
Raw,1726564988000,7304081129,18,0.0,-1410600198695937536,0.0,50.034610748291016,-5.805233955383301,0.0,0,6,0.0,51,14420673,20,29.399999618530273,143.50880432128906,0.1679656058549881,16,0.0,0.11876848340034485,1561097980,,,,0,,5,1.2999999523162842,24.399999618530273,0.0,0.0,0.0,0.0,C,817289741930785
Raw,1726564988000,7304081129,18,0.0,-1410600198695937536,0.0,50.034610748291016,-5.805233955383301,0.0,0,29,0.0,51,14860323,21,28.100000381469727,229.0946502685547,0.18740276992321014,16,0.0,0.13251249492168427,1561097980,,,,0,,5,1.2999999523162842,23.100000381469727,0.0,0.0,0.0,0.0,C,817289741930785
Raw,1726564988000,7304081129,18,0.0,-1410600198695937536,0.0,50.034610748291016,-5.805233955383301,0.0,0,9,0.0,51,14738751,22,27.899999618530273,150.61148071289062,0.19069050252437592,16,0.0,0.13483725488185883,1561097980,,,,0,,5,1.2999999523162842,22.899999618530273,0.0,0.0,0.0,0.0,C,817289741930785
Raw,1726564988000,7304081129,18,0.0,-1410600198695937536,0.0,50.034610748291016,-5.805233955383301,0.0,0,20,0.0,51,3317289,24,26.5,-63.097198486328125,0.21633315086364746,16,0.0,0.15296916663646698,1561097980,,,,0,,5,1.2999999523162842,21.5,0.0,0.0,0.0,0.0,C,817289741930785
Raw,1726564988000,7304081129,18,0.0,-1410600198695937536,0.0,50.034610748291016,-5.805233955383301,0.0,0,17,0.0,239,44587921756190,24,26.700000762939453,490.9710388183594,0.21236379444599152,16,0.0,0.1501624435186386,1604249980,,,,0,,3,1.2999999523162842,21.700000762939453,0.0,0.0,0.0,0.0,C,817289741930785
Raw,1726564988000,7304081129,18,0.0,-1410600198695937536,0.0,50.034610748291016,-5.805233955383301,0.0,0,39,0.0,51,10682662,22,27.5,121.60743713378906,0.1975308656692505,16,0.0,0.1396740823984146,1561097980,,,,0,,5,1.2999999523162842,22.5,0.0,0.0,0.0,0.0,C,817289741930785
Raw,1726564988000,7304081129,18,0.0,-1410600198695937536,0.0,50.034610748291016,-5.805233955383301,0.0,0,8,0.0,51,15907196,21,28.399999618530273,141.56326293945312,0.18262839317321777,16,0.0,0.12913653254508972,1561097980,,,,0,,5,1.2999999523162842,23.399999618530273,0.0,0.0,0.0,0.0,C,817289741930785
Raw,1726564988000,7304081129,18,0.0,-1410600198695937536,0.0,50.034610748291016,-5.805233955383301,0.0,0,32,0.0,51,13441478,31,23.600000381469727,300.5625,0.28905072808265686,16,0.0,0.20438776910305023,1561097980,,,,0,,5,1.2999999523162842,18.600000381469727,0.0,0.0,0.0,0.0,C,817289741930785
Raw,1726564988000,7304081129,18,0.0,-1410600198695937536,0.0,50.034610748291016,-5.805233955383301,0.0,0,13,0.0,51,19922414,32,23.100000381469727,80.21405029296875,0.3052409589290619,16,0.0,0.21583588421344757,1561097980,,,,0,,5,1.2999999523162842,18.100000381469727,0.0,0.0,0.0,0.0,C,817289741930785
Raw,1726564988000,7304081129,18,0.0,-1410600198695937536,0.0,50.034610748291016,-5.805233955383301,0.0,0,38,0.0,51,12892169,31,23.5,179.57289123535156,0.29218408465385437,16,0.0,0.20660336315631866,1561097980,,,,0,,5,1.2999999523162842,18.5,0.0,0.0,0.0,0.0,C,817289741930785
Raw,1726564989000,8304062496,18,0.0,-1410600198695937536,0.0,10.02004623413086,-5.508634090423584,0.0,0,21,0.0,15,206606923622532,10,42.099998474121094,185.1731719970703,0.07265277206897736,25,-17005.08002091856,0.051372773945331573,1575420030,,,,0,,1,1.2999999523162842,37.099998474121094,0.0,0.0,0.0,0.0,C,817290746093364
Raw,1726564989000,8304062496,18,0.0,-1410600198695937536,0.0,10.02004623413086,-5.508634090423584,0.0,0,2,0.0,15,206606923238302,15,33.70000076293945,64.03910064697266,0.12140488624572754,25,-34495.923888342986,0.08584539592266083,1575420030,,,,0,,1,1.2999999523162842,28.700000762939453,0.0,0.0,0.0,0.0,C,817290746093364
Raw,1726564989000,8304062496,18,0.0,-1410600198695937536,0.0,10.02004623413086,-5.508634090423584,0.0,0,3,0.0,15,206606923579143,16,32.900001525878906,-610.6077880859375,0.12846700847148895,16,0.0,0.09083902090787888,1575420030,,,,0,,1,1.2999999523162842,27.899999618530273,0.0,0.0,0.0,0.0,C,817290746093364
Raw,1726564989000,8304062496,18,0.0,-1410600198695937536,0.0,10.02004623413086,-5.508634090423584,0.0,0,31,0.0,15,206606929862198,20,29.100000381469727,384.38189697265625,0.17217335104942322,16,0.0,0.12174377590417862,1575420030,,,,0,,1,1.2999999523162842,24.100000381469727,0.0,0.0,0.0,0.0,C,817290746093364
Raw,1726564989000,8304062496,18,0.0,-1410600198695937536,0.0,10.02004623413086,-5.508634090423584,0.0,0,26,0.0,15,206606931438659,20,28.899999618530273,-27.30349349975586,0.1750669777393341,16,0.0,0.12378986179828644,1575420030,,,,0,,1,1.2999999523162842,23.899999618530273,0.0,0.0,0.0,0.0,C,817290746093364
Raw,1726564989000,8304062496,18,0.0,-1410600198695937536,0.0,10.02004623413086,-5.508634090423584,0.0,0,28,0.0,15,206606921575133,22,27.5,536.4779052734375,0.1975308656692505,16,0.0,0.1396740823984146,1575420030,,,,0,,1,1.2999999523162842,22.5,0.0,0.0,0.0,0.0,C,817290746093364
Raw,1726564989000,8304062496,18,0.0,-1410600198695937536,0.0,10.02004623413086,-5.508634090423584,0.0,0,10,0.0,15,206606923043583,24,26.399999618530273,545.5486450195312,0.21835967898368835,16,0.0,0.15440212190151215,1575420030,,,,0,,1,1.2999999523162842,21.399999618530273,0.0,0.0,0.0,0.0,C,817290746093364
Raw,1726564989000,8304062496,18,0.0,-1410600198695937536,0.0,10.02004623413086,-5.508634090423584,0.0,0,16,0.0,15,206606928216424,23,27.200000762939453,-510.1785888671875,0.2029055953025818,16,0.0,0.1434745490550995,1575420030,,,,0,,1,1.2999999523162842,22.200000762939453,0.0,0.0,0.0,0.0,C,817290746093364
Raw,1726564989000,8304062496,18,0.0,-1410600198695937536,0.0,10.02004623413086,-5.508634090423584,0.0,0,4,0.0,15,206606917954510,25,26.100000381469727,-252.00584411621094,0.22461310029029846,16,0.0,0.1588239222764969,1575420030,,,,0,,1,1.2999999523162842,21.100000381469727,0.0,0.0,0.0,0.0,C,817290746093364
Raw,1726564989000,8304062496,18,0.0,-1410600198695937536,0.0,10.02004623413086,-5.508634090423584,0.0,0,32,0.0,15,206606919551408,35,22.200000762939453,132.29229736328125,0.33802053332328796,16,0.0,0.23901431262493134,1575420030,,,,0,,1,1.2999999523162842,17.200000762939453,0.0,0.0,0.0,0.0,C,817290746093364
Raw,1726564989000,8304062496,18,0.0,-1410600198695937536,0.0,10.02004623413086,-5.508634090423584,0.0,0,19,0.0,51,774477,11,39.900001525878906,-379.88189697265625,0.08210112154483795,19,-37341.089518600624,0.15407344698905945,1561097980,,,,0,,5,1.2999999523162842,34.900001525878906,0.0,0.0,0.0,0.0,C,817290746093364
Raw,1726564989000,8304062496,18,0.0,-1410600198695937536,0.0,10.02004623413086,-5.508634090423584,0.0,0,36,0.0,51,5548538,11,38.900001525878906,-318.6711120605469,0.08701629191637039,19,-36938.399188996395,0.1575489640235901,1561097980,,,,0,,5,1.2999999523162842,33.900001525878906,0.0,0.0,0.0,0.0,C,817290746093364
Raw,1726564989000,8304062496,18,0.0,-1410600198695937536,0.0,10.02004623413086,-5.508634090423584,0.0,0,33,0.0,3072,17237082,15,33.29999923706055,297.6067810058594,0.12486109882593155,19,-122387.77949296305,0.18343612551689148,1575420030,,,,0,,6,1.2999999523162842,28.299999237060547,0.0,0.0,0.0,0.0,C,817290746093364
Raw,1726564989000,8304062496,18,0.0,-1410600198695937536,0.0,10.02004623413086,-5.508634090423584,0.0,0,3,0.0,239,44588928014161,15,34.0,-381.5440673828125,0.11890606582164764,16,0.0,0.08407847583293915,1604812540,,,,0,,3,1.2999999523162842,29.0,0.0,0.0,0.0,0.0,C,817290746093364
Raw,1726564989000,8304062496,18,0.0,-1410600198695937536,0.0,10.02004623413086,-5.508634090423584,0.0,0,19,0.0,3072,14883292,15,33.599998474121094,-101.73726654052734,0.1222553625702858,16,0.0,0.08644676953554153,1575420030,,,,0,,6,1.2999999523162842,28.600000381469727,0.0,0.0,0.0,0.0,C,817290746093364
Raw,1726564989000,8304062496,18,0.0,-1410600198695937536,0.0,10.02004623413086,-5.508634090423584,0.0,0,18,0.0,239,44588923633824,16,33.099998474121094,334.84771728515625,0.1266447901725769,16,0.0,0.08955053240060806,1600312450,,,,0,,3,1.2999999523162842,28.100000381469727,0.0,0.0,0.0,0.0,C,817290746093364
Raw,1726564989000,8304062496,18,0.0,-1410600198695937536,0.0,10.02004623413086,-5.508634090423584,0.0,0,29,0.0,51,14840942,21,28.399999618530273,227.6590118408203,0.18262839317321777,16,0.0,0.12913653254508972,1561097980,,,,0,,5,1.2999999523162842,23.399999618530273,0.0,0.0,0.0,0.0,C,817290746093364
Raw,1726564989000,8304062496,18,0.0,-1410600198695937536,0.0,10.02004623413086,-5.508634090423584,0.0,0,6,0.0,51,14401581,20,29.399999618530273,143.70823669433594,0.1679656058549881,16,0.0,0.11876848340034485,1561097980,,,,0,,5,1.2999999523162842,24.399999618530273,0.0,0.0,0.0,0.0,C,817290746093364
Raw,1726564989000,8304062496,18,0.0,-1410600198695937536,0.0,10.02004623413086,-5.508634090423584,0.0,0,9,0.0,51,14719607,22,28.0,149.1815185546875,0.18903592228889465,16,0.0,0.13366730511188507,1561097980,,,,0,,5,1.2999999523162842,23.0,0.0,0.0,0.0,0.0,C,817290746093364
Raw,1726564989000,8304062496,18,0.0,-1410600198695937536,0.0,10.02004623413086,-5.508634090423584,0.0,0,17,0.0,239,44588921735806,24,26.700000762939453,491.45855712890625,0.21236379444599152,16,0.0,0.1501624435186386,1604249980,,,,0,,3,1.2999999523162842,21.700000762939453,0.0,0.0,0.0,0.0,C,817290746093364
Raw,1726564989000,8304062496,18,0.0,-1410600198695937536,0.0,10.02004623413086,-5.508634090423584,0.0,0,20,0.0,51,3298903,24,26.799999237060547,-63.64426040649414,0.21042001247406006,16,0.0,0.1487879902124405,1561097980,,,,0,,5,1.2999999523162842,21.799999237060547,0.0,0.0,0.0,0.0,C,817290746093364
Raw,1726564989000,8304062496,18,0.0,-1410600198695937536,0.0,10.02004623413086,-5.508634090423584,0.0,0,39,0.0,51,10663647,23,27.399999618530273,119.6740493774414,0.19929847121238708,16,0.0,0.14092394709587097,1561097980,,,,0,,5,1.2999999523162842,22.399999618530273,0.0,0.0,0.0,0.0,C,817290746093364
Raw,1726564989000,8304062496,18,0.0,-1410600198695937536,0.0,10.02004623413086,-5.508634090423584,0.0,0,8,0.0,51,15888061,21,28.200000762939453,140.08544921875,0.18579070270061493,16,0.0,0.1313726007938385,1561097980,,,,0,,5,1.2999999523162842,23.200000762939453,0.0,0.0,0.0,0.0,C,817290746093364
Raw,1726564989000,8304062496,18,0.0,-1410600198695937536,0.0,10.02004623413086,-5.508634090423584,0.0,0,2,0.0,239,44588927793044,19,30.100000381469727,-39.2101936340332,0.15872763097286224,16,0.0,0.11223630607128143,1599750020,,,,0,,3,1.2999999523162842,25.100000381469727,0.0,0.0,0.0,0.0,C,817290746093364
Raw,1726564989000,8304062496,18,0.0,-1410600198695937536,0.0,10.02004623413086,-5.508634090423584,0.0,0,32,0.0,51,13421818,31,23.600000381469727,299.63470458984375,0.28905072808265686,16,0.0,0.20438776910305023,1561097980,,,,0,,5,1.2999999523162842,18.600000381469727,0.0,0.0,0.0,0.0,C,817290746093364
Raw,1726564989000,8304062496,18,0.0,-1410600198695937536,0.0,10.02004623413086,-5.508634090423584,0.0,0,13,0.0,51,19903449,32,23.100000381469727,81.03218078613281,0.3052409589290619,16,0.0,0.21583588421344757,1561097980,,,,0,,5,1.2999999523162842,18.100000381469727,0.0,0.0,0.0,0.0,C,817290746093364
Raw,1726564989000,8304062496,18,0.0,-1410600198695937536,0.0,10.02004623413086,-5.508634090423584,0.0,0,38,0.0,51,12872912,31,23.5,179.08511352539062,0.29218408465385437,16,0.0,0.20660336315631866,1561097980,,,,0,,5,1.2999999523162842,18.5,0.0,0.0,0.0,0.0,C,817290746093364
Raw,1726564989999,9304062435,18,0.0,-1410600198695937536,0.0,10.02004623413086,-6.526097774505615,0.0,0,21,0.0,15,206607923621840,10,42.099998474121094,185.01596069335938,0.07265277206897736,25,-16819.970717544515,0.051372773945331573,1575420030,,,,0,,1,1.2999999523162842,37.099998474121094,0.0,0.0,0.0,0.0,C,817291696319855
Raw,1726564989999,9304062435,18,0.0,-1410600198695937536,0.0,10.02004623413086,-6.526097774505615,0.0,0,2,0.0,15,206607923238053,15,33.79999923706055,64.29290771484375,0.12056328356266022,25,-34431.70735662395,0.08525029569864273,1575420030,,,,0,,1,1.2999999523162842,28.799999237060547,0.0,0.0,0.0,0.0,C,817291696319855
Raw,1726564989999,9304062435,18,0.0,-1410600198695937536,0.0,10.02004623413086,-6.526097774505615,0.0,0,3,0.0,15,206607923581160,16,32.900001525878906,-610.5536499023438,0.12846700847148895,16,0.0,0.09083902090787888,1575420030,,,,0,,1,1.2999999523162842,27.899999618530273,0.0,0.0,0.0,0.0,C,817291696319855
Raw,1726564989999,9304062435,18,0.0,-1410600198695937536,0.0,10.02004623413086,-6.526097774505615,0.0,0,16,0.0,15,206607928218090,23,27.100000381469727,-510.2037048339844,0.20474600791931152,16,0.0,0.1447758972644806,1575420030,,,,0,,1,1.2999999523162842,22.100000381469727,0.0,0.0,0.0,0.0,C,817291696319855
Raw,1726564989999,9304062435,18,0.0,-1410600198695937536,0.0,10.02004623413086,-6.526097774505615,0.0,0,31,0.0,15,206607929860864,20,29.0,383.74822998046875,0.1736111044883728,16,0.0,0.12276041507720947,1575420030,,,,0,,1,1.2999999523162842,24.0,0.0,0.0,0.0,0.0,C,817291696319855
Raw,1726564989999,9304062435,18,0.0,-1410600198695937536,0.0,10.02004623413086,-6.526097774505615,0.0,0,26,0.0,15,206607931438733,20,28.899999618530273,-28.892379760742188,0.1750669777393341,16,0.0,0.12378986179828644,1575420030,,,,0,,1,1.2999999523162842,23.899999618530273,0.0,0.0,0.0,0.0,C,817291696319855
Raw,1726564989999,9304062435,18,0.0,-1410600198695937536,0.0,10.02004623413086,-6.526097774505615,0.0,0,10,0.0,15,206607923041703,24,26.399999618530273,544.6000366210938,0.21835967898368835,16,0.0,0.15440212190151215,1575420030,,,,0,,1,1.2999999523162842,21.399999618530273,0.0,0.0,0.0,0.0,C,817291696319855
Raw,1726564989999,9304062435,18,0.0,-1410600198695937536,0.0,10.02004623413086,-6.526097774505615,0.0,0,28,0.0,15,206607921573362,23,27.399999618530273,536.9558715820312,0.19929847121238708,16,0.0,0.14092394709587097,1575420030,,,,0,,1,1.2999999523162842,22.399999618530273,0.0,0.0,0.0,0.0,C,817291696319855
Raw,1726564989999,9304062435,18,0.0,-1410600198695937536,0.0,10.02004623413086,-6.526097774505615,0.0,0,4,0.0,15,206607917955378,25,26.0,-253.22959899902344,0.22675736248493195,16,0.0,0.16034013032913208,1575420030,,,,0,,1,1.2999999523162842,21.0,0.0,0.0,0.0,0.0,C,817291696319855
Raw,1726564989999,9304062435,18,0.0,-1410600198695937536,0.0,10.02004623413086,-6.526097774505615,0.0,0,32,0.0,15,206607919550945,35,22.100000381469727,132.20957946777344,0.3419855535030365,16,0.0,0.24181798100471497,1575420030,,,,0,,1,1.2999999523162842,17.100000381469727,0.0,0.0,0.0,0.0,C,817291696319855
Raw,1726564989999,9304062435,18,0.0,-1410600198695937536,0.0,10.02004623413086,-6.526097774505615,0.0,0,19,0.0,51,775688,11,39.900001525878906,-379.4202880859375,0.08210112154483795,19,-37720.976861930656,0.15407344698905945,1561097980,,,,0,,5,1.2999999523162842,34.900001525878906,0.0,0.0,0.0,0.0,C,817291696319855
Raw,1726564989999,9304062435,18,0.0,-1410600198695937536,0.0,10.02004623413086,-6.526097774505615,0.0,0,36,0.0,51,5549529,11,38.79999923706055,-318.2431640625,0.08753195405006409,19,-37256.691410093044,0.15791359543800354,1561097980,,,,0,,5,1.2999999523162842,33.79999923706055,0.0,0.0,0.0,0.0,C,817291696319855
Raw,1726564989999,9304062435,18,0.0,-1410600198695937536,0.0,10.02004623413086,-6.526097774505615,0.0,0,33,0.0,3072,17236072,15,33.29999923706055,297.65521240234375,0.12486109882593155,16,0.0,0.0882892832159996,1575420030,,,,0,,6,1.2999999523162842,28.299999237060547,0.0,0.0,0.0,0.0,C,817291696319855
Raw,1726564989999,9304062435,18,0.0,-1410600198695937536,0.0,10.02004623413086,-6.526097774505615,0.0,0,3,0.0,239,44589928015411,15,33.900001525878906,-381.73516845703125,0.1197303757071495,16,0.0,0.08466134965419769,1604812540,,,,0,,3,1.2999999523162842,28.899999618530273,0.0,0.0,0.0,0.0,C,817291696319855
Raw,1726564989999,9304062435,18,0.0,-1410600198695937536,0.0,10.02004623413086,-6.526097774505615,0.0,0,19,0.0,3072,14883573,15,33.400001525878906,-102.81147003173828,0.12398333847522736,16,0.0,0.08766862004995346,1575420030,,,,0,,6,1.2999999523162842,28.399999618530273,0.0,0.0,0.0,0.0,C,817291696319855
Raw,1726564989999,9304062435,18,0.0,-1410600198695937536,0.0,10.02004623413086,-6.526097774505615,0.0,0,18,0.0,239,44589923632641,16,32.900001525878906,334.6530456542969,0.12846700847148895,16,0.0,0.09083902090787888,1600312450,,,,0,,3,1.2999999523162842,27.899999618530273,0.0,0.0,0.0,0.0,C,817291696319855
Raw,1726564989999,9304062435,18,0.0,-1410600198695937536,0.0,10.02004623413086,-6.526097774505615,0.0,0,29,0.0,51,14840098,20,28.799999237060547,228.0307159423828,0.17654122412204742,16,0.0,0.12483230233192444,1561097980,,,,0,,5,1.2999999523162842,23.799999237060547,0.0,0.0,0.0,0.0,C,817291696319855
Raw,1726564989999,9304062435,18,0.0,-1410600198695937536,0.0,10.02004623413086,-6.526097774505615,0.0,0,9,0.0,51,14719061,21,28.100000381469727,149.2540740966797,0.18740276992321014,16,0.0,0.13251249492168427,1561097980,,,,0,,5,1.2999999523162842,23.100000381469727,0.0,0.0,0.0,0.0,C,817291696319855
Raw,1726564989999,9304062435,18,0.0,-1410600198695937536,0.0,10.02004623413086,-6.526097774505615,0.0,0,6,0.0,51,14401049,20,29.299999237060547,144.2140350341797,0.16935087740421295,16,0.0,0.11974800378084183,1561097980,,,,0,,5,1.2999999523162842,24.299999237060547,0.0,0.0,0.0,0.0,C,817291696319855
Raw,1726564989999,9304062435,18,0.0,-1410600198695937536,0.0,10.02004623413086,-6.526097774505615,0.0,0,20,0.0,51,3299067,23,26.899999618530273,-64.3746566772461,0.20850275456905365,16,0.0,0.14743229746818542,1561097980,,,,0,,5,1.2999999523162842,21.899999618530273,0.0,0.0,0.0,0.0,C,817291696319855
Raw,1726564989999,9304062435,18,0.0,-1410600198695937536,0.0,10.02004623413086,-6.526097774505615,0.0,0,8,0.0,51,15887538,21,28.100000381469727,139.09881591796875,0.18740276992321014,16,0.0,0.13251249492168427,1561097980,,,,0,,5,1.2999999523162842,23.100000381469727,0.0,0.0,0.0,0.0,C,817291696319855
Raw,1726564989999,9304062435,18,0.0,-1410600198695937536,0.0,10.02004623413086,-6.526097774505615,0.0,0,2,0.0,239,44589927793176,19,29.799999237060547,-38.69748306274414,0.16259105503559113,16,0.0,0.11496813595294952,1599750020,,,,0,,3,1.2999999523162842,24.799999237060547,0.0,0.0,0.0,0.0,C,817291696319855
Raw,1726564989999,9304062435,18,0.0,-1410600198695937536,0.0,10.02004623413086,-6.526097774505615,0.0,0,39,0.0,51,10663096,23,27.299999237060547,119.251953125,0.20108991861343384,16,0.0,0.14219067990779877,1561097980,,,,0,,5,1.2999999523162842,22.299999237060547,0.0,0.0,0.0,0.0,C,817291696319855
Raw,1726564989999,9304062435,18,0.0,-1410600198695937536,0.0,10.02004623413086,-6.526097774505615,0.0,0,17,0.0,239,44589921734274,23,26.899999618530273,489.7532653808594,0.20850275456905365,16,0.0,0.14743229746818542,1604249980,,,,0,,3,1.2999999523162842,21.899999618530273,0.0,0.0,0.0,0.0,C,817291696319855
Raw,1726564989999,9304062435,18,0.0,-1410600198695937536,0.0,10.02004623413086,-6.526097774505615,0.0,0,14,0.0,239,44589934580906,28,24.700000762939453,-370.82952880859375,0.25767216086387634,16,0.0,0.18219998478889465,1598062460,,,,0,,3,1.2999999523162842,19.700000762939453,0.0,0.0,0.0,0.0,C,817291696319855
Raw,1726564989999,9304062435,18,0.0,-1410600198695937536,0.0,10.02004623413086,-6.526097774505615,0.0,0,10,0.0,51,10483242,29,24.100000381469727,-190.15206909179688,0.27411526441574097,16,0.0,0.19382689893245697,1561097980,,,,0,,5,1.2999999523162842,19.100000381469727,0.0,0.0,0.0,0.0,C,817291696319855
Raw,1726564989999,9304062435,18,0.0,-1410600198695937536,0.0,10.02004623413086,-6.526097774505615,0.0,0,13,0.0,51,19903171,31,23.399999618530273,80.06027221679688,0.29536861181259155,16,0.0,0.20885515213012695,1561097980,,,,0,,5,1.2999999523162842,18.399999618530273,0.0,0.0,0.0,0.0,C,817291696319855
Raw,1726564989999,9304062435,18,0.0,-1410600198695937536,0.0,10.02004623413086,-6.526097774505615,0.0,0,32,0.0,51,13420757,31,23.600000381469727,298.6886901855469,0.28905072808265686,16,0.0,0.20438776910305023,1561097980,,,,0,,5,1.2999999523162842,18.600000381469727,0.0,0.0,0.0,0.0,C,817291696319855
Raw,1726564989999,9304062435,18,0.0,-1410600198695937536,0.0,10.02004623413086,-6.526097774505615,0.0,0,38,0.0,51,12872292,31,23.5,177.2659912109375,0.29218408465385437,16,0.0,0.20660336315631866,1561097980,,,,0,,5,1.2999999523162842,18.5,0.0,0.0,0.0,0.0,C,817291696319855
Raw,1726564990999,10304062435,18,0.0,-1410600198695937536,0.0,10.02004623413086,-5.690234184265137,0.0,0,21,0.0,15,206608923621239,10,42.099998474121094,185.80044555664062,0.07265277206897736,19,-16634.495792808855,0.14651960134506226,1575420030,,,,0,,1,1.2999999523162842,37.099998474121094,0.0,0.0,0.0,0.0,C,817292854988239
Raw,1726564990999,10304062435,18,0.0,-1410600198695937536,0.0,10.02004623413086,-5.690234184265137,0.0,0,2,0.0,15,206608923237850,15,34.099998474121094,64.35966491699219,0.11809024214744568,25,-34367.39540075629,0.08350160717964172,1575420030,,,,0,,1,1.2999999523162842,29.100000381469727,0.0,0.0,0.0,0.0,C,817292854988239
Raw,1726564990999,10304062435,18,0.0,-1410600198695937536,0.0,10.02004623413086,-5.690234184265137,0.0,0,3,0.0,15,206608923583176,16,32.79999923706055,-610.2017211914062,0.12939289212226868,16,0.0,0.09149371087551117,1575420030,,,,0,,1,1.2999999523162842,27.799999237060547,0.0,0.0,0.0,0.0,C,817292854988239
Raw,1726564990999,10304062435,18,0.0,-1410600198695937536,0.0,10.02004623413086,-5.690234184265137,0.0,0,16,0.0,15,206608928219824,16,32.79999923706055,-509.2606506347656,0.12939289212226868,16,0.0,0.09149371087551117,1575420030,,,,0,,1,1.2999999523162842,27.799999237060547,0.0,0.0,0.0,0.0,C,817292854988239
Raw,1726564990999,10304062435,18,0.0,-1410600198695937536,0.0,10.02004623413086,-5.690234184265137,0.0,0,31,0.0,15,206608929859647,20,29.0,384.97210693359375,0.1736111044883728,16,0.0,0.12276041507720947,1575420030,,,,0,,1,1.2999999523162842,24.0,0.0,0.0,0.0,0.0,C,817292854988239
Raw,1726564990999,10304062435,18,0.0,-1410600198695937536,0.0,10.02004623413086,-5.690234184265137,0.0,0,26,0.0,15,206608931438875,20,28.899999618530273,-27.12608528137207,0.1750669777393341,16,0.0,0.12378986179828644,1575420030,,,,0,,1,1.2999999523162842,23.899999618530273,0.0,0.0,0.0,0.0,C,817292854988239
Raw,1726564990999,10304062435,18,0.0,-1410600198695937536,0.0,10.02004623413086,-5.690234184265137,0.0,0,10,0.0,15,206608923039826,24,26.399999618530273,545.7103271484375,0.21835967898368835,16,0.0,0.15440212190151215,1575420030,,,,0,,1,1.2999999523162842,21.399999618530273,0.0,0.0,0.0,0.0,C,817292854988239
Raw,1726564990999,10304062435,18,0.0,-1410600198695937536,0.0,10.02004623413086,-5.690234184265137,0.0,0,28,0.0,15,206608921571599,23,27.299999237060547,536.8068237304688,0.20108991861343384,16,0.0,0.14219067990779877,1575420030,,,,0,,1,1.2999999523162842,22.299999237060547,0.0,0.0,0.0,0.0,C,817292854988239
Raw,1726564990999,10304062435,18,0.0,-1410600198695937536,0.0,10.02004623413086,-5.690234184265137,0.0,0,4,0.0,15,206608917956208,25,25.799999237060547,-254.05258178710938,0.23113907873630524,16,0.0,0.16343843936920166,1575420030,,,,0,,1,1.2999999523162842,20.799999237060547,0.0,0.0,0.0,0.0,C,817292854988239
Raw,1726564990999,10304062435,18,0.0,-1410600198695937536,0.0,10.02004623413086,-5.690234184265137,0.0,0,32,0.0,15,206608919550518,35,22.100000381469727,132.32496643066406,0.3419855535030365,16,0.0,0.24181798100471497,1575420030,,,,0,,1,1.2999999523162842,17.100000381469727,0.0,0.0,0.0,0.0,C,817292854988239
Raw,1726564990999,10304062435,18,0.0,-1410600198695937536,0.0,10.02004623413086,-5.690234184265137,0.0,0,19,0.0,51,776905,11,39.79999923706055,-379.37298583984375,0.08257365971803665,19,-38100.35023372146,0.1544075757265091,1561097980,,,,0,,5,1.2999999523162842,34.79999923706055,0.0,0.0,0.0,0.0,C,817292854988239
Raw,1726564990999,10304062435,18,0.0,-1410600198695937536,0.0,10.02004623413086,-5.690234184265137,0.0,0,36,0.0,51,5550589,11,38.70000076293945,-318.23236083984375,0.0880521908402443,19,-37574.97829081019,0.15828144550323486,1561097980,,,,0,,5,1.2999999523162842,33.70000076293945,0.0,0.0,0.0,0.0,C,817292854988239
Raw,1726564990999,10304062435,18,0.0,-1410600198695937536,0.0,10.02004623413086,-5.690234184265137,0.0,0,33,0.0,3072,17235022,15,34.099998474121094,297.5010986328125,0.11809024214744568,16,0.0,0.08350160717964172,1575420030,,,,0,,6,1.2999999523162842,29.100000381469727,0.0,0.0,0.0,0.0,C,817292854988239
Raw,1726564990999,10304062435,18,0.0,-1410600198695937536,0.0,10.02004623413086,-5.690234184265137,0.0,0,19,0.0,3072,14883867,15,33.29999923706055,-102.37274169921875,0.12486109882593155,16,0.0,0.0882892832159996,1575420030,,,,0,,6,1.2999999523162842,28.299999237060547,0.0,0.0,0.0,0.0,C,817292854988239
Raw,1726564990999,10304062435,18,0.0,-1410600198695937536,0.0,10.02004623413086,-5.690234184265137,0.0,0,20,0.0,51,3299239,23,27.100000381469727,-63.61004638671875,0.20474600791931152,16,0.0,0.1447758972644806,1561097980,,,,0,,5,1.2999999523162842,22.100000381469727,0.0,0.0,0.0,0.0,C,817292854988239
Raw,1726564990999,10304062435,18,0.0,-1410600198695937536,0.0,10.02004623413086,-5.690234184265137,0.0,0,18,0.0,239,44590923631520,16,32.599998474121094,334.3542785644531,0.13127493858337402,16,0.0,0.09282451122999191,1600312450,,,,0,,3,1.2999999523162842,27.600000381469727,0.0,0.0,0.0,0.0,C,817292854988239
Raw,1726564990999,10304062435,18,0.0,-1410600198695937536,0.0,10.02004623413086,-5.690234184265137,0.0,0,29,0.0,51,14839429,20,28.799999237060547,228.1468048095703,0.17654122412204742,16,0.0,0.12483230233192444,1561097980,,,,0,,5,1.2999999523162842,23.799999237060547,0.0,0.0,0.0,0.0,C,817292854988239
Raw,1726564990999,10304062435,18,0.0,-1410600198695937536,0.0,10.02004623413086,-5.690234184265137,0.0,0,6,0.0,51,14400571,20,29.200000762939453,143.82102966308594,0.1707533597946167,16,0.0,0.12073969841003418,1561097980,,,,0,,5,1.2999999523162842,24.200000762939453,0.0,0.0,0.0,0.0,C,817292854988239
Raw,1726564990999,10304062435,18,0.0,-1410600198695937536,0.0,10.02004623413086,-5.690234184265137,0.0,0,9,0.0,51,14718568,21,28.299999237060547,149.71165466308594,0.18419939279556274,16,0.0,0.13024738430976868,1561097980,,,,0,,5,1.2999999523162842,23.299999237060547,0.0,0.0,0.0,0.0,C,817292854988239
Raw,1726564990999,10304062435,18,0.0,-1410600198695937536,0.0,10.02004623413086,-5.690234184265137,0.0,0,8,0.0,51,15887073,22,27.899999618530273,139.9077911376953,0.19069050252437592,16,0.0,0.13483725488185883,1561097980,,,,0,,5,1.2999999523162842,22.899999618530273,0.0,0.0,0.0,0.0,C,817292854988239
Raw,1726564990999,10304062435,18,0.0,-1410600198695937536,0.0,10.02004623413086,-5.690234184265137,0.0,0,2,0.0,239,44590927793290,19,29.600000381469727,-38.943817138671875,0.16524554789066315,16,0.0,0.11684512346982956,1599750020,,,,0,,3,1.2999999523162842,24.600000381469727,0.0,0.0,0.0,0.0,C,817292854988239
Raw,1726564990999,10304062435,18,0.0,-1410600198695937536,0.0,10.02004623413086,-5.690234184265137,0.0,0,39,0.0,51,10662659,23,27.299999237060547,120.19943237304688,0.20108991861343384,16,0.0,0.14219067990779877,1561097980,,,,0,,5,1.2999999523162842,22.299999237060547,0.0,0.0,0.0,0.0,C,817292854988239
Raw,1726564990999,10304062435,18,0.0,-1410600198695937536,0.0,10.02004623413086,-5.690234184265137,0.0,0,14,0.0,239,44590934582075,28,24.700000762939453,-370.7184753417969,0.25767216086387634,16,0.0,0.18219998478889465,1598062460,,,,0,,3,1.2999999523162842,19.700000762939453,0.0,0.0,0.0,0.0,C,817292854988239
Raw,1726564990999,10304062435,18,0.0,-1410600198695937536,0.0,10.02004623413086,-5.690234184265137,0.0,0,17,0.0,239,44590921732642,24,26.799999237060547,487.7126159667969,0.21042001247406006,16,0.0,0.1487879902124405,1604249980,,,,0,,3,1.2999999523162842,21.799999237060547,0.0,0.0,0.0,0.0,C,817292854988239
Raw,1726564990999,10304062435,18,0.0,-1410600198695937536,0.0,10.02004623413086,-5.690234184265137,0.0,0,13,0.0,51,19902913,31,23.399999618530273,79.30462646484375,0.29536861181259155,16,0.0,0.20885515213012695,1561097980,,,,0,,5,1.2999999523162842,18.399999618530273,0.0,0.0,0.0,0.0,C,817292854988239
Raw,1726564990999,10304062435,18,0.0,-1410600198695937536,0.0,10.02004623413086,-5.690234184265137,0.0,0,10,0.0,51,10483876,29,24.100000381469727,-189.5092315673828,0.27411526441574097,16,0.0,0.19382689893245697,1561097980,,,,0,,5,1.2999999523162842,19.100000381469727,0.0,0.0,0.0,0.0,C,817292854988239
Raw,1726564990999,10304062435,18,0.0,-1410600198695937536,0.0,10.02004623413086,-5.690234184265137,0.0,0,38,0.0,51,12871693,31,23.5,176.5370635986328,0.29218408465385437,16,0.0,0.20660336315631866,1561097980,,,,0,,5,1.2999999523162842,18.5,0.0,0.0,0.0,0.0,C,817292854988239
Raw,1726564990999,10304062435,18,0.0,-1410600198695937536,0.0,10.02004623413086,-5.690234184265137,0.0,0,32,0.0,51,13419789,31,23.600000381469727,297.56390380859375,0.28905072808265686,16,0.0,0.20438776910305023,1561097980,,,,0,,5,1.2999999523162842,18.600000381469727,0.0,0.0,0.0,0.0,C,817292854988239
Raw,1726564990999,10304062435,18,0.0,-1410600198695937536,0.0,10.02004623413086,-5.690234184265137,0.0,0,15,0.0,239,44590922176579,39,20.900001525878906,-787.5707397460938,0.39555394649505615,16,0.0,0.27969619631767273,1602000000,,,,0,,3,1.2999999523162842,15.90000057220459,0.0,0.0,0.0,0.0,C,817292854988239
Raw,1726564991999,11304062435,18,0.0,-1410600198695937536,0.0,10.02004623413086,-5.780630111694336,0.0,0,21,0.0,15,206609923620625,10,42.0,185.7611083984375,0.07304602116346359,25,-16448.79836202963,0.051650840789079666,1575420030,,,,0,,1,1.2999999523162842,37.0,0.0,0.0,0.0,0.0,C,817294108522674
Raw,1726564991999,11304062435,18,0.0,-1410600198695937536,0.0,10.02004623413086,-5.780630111694336,0.0,0,2,0.0,15,206609923237602,15,34.20000076293945,64.39285278320312,0.11728279292583466,25,-34303.02951264998,0.08293066173791885,1575420030,,,,0,,1,1.2999999523162842,29.200000762939453,0.0,0.0,0.0,0.0,C,817294108522674
Raw,1726564991999,11304062435,18,0.0,-1410600198695937536,0.0,10.02004623413086,-5.780630111694336,0.0,0,16,0.0,15,206609928221485,16,32.599998474121094,-509.7518005371094,0.13127493858337402,16,0.0,0.09282451122999191,1575420030,,,,0,,1,1.2999999523162842,27.600000381469727,0.0,0.0,0.0,0.0,C,817294108522674
Raw,1726564991999,11304062435,18,0.0,-1410600198695937536,0.0,10.02004623413086,-5.780630111694336,0.0,0,3,0.0,15,206609923585145,16,32.70000076293945,-609.9585571289062,0.13032881915569305,16,0.0,0.09215550869703293,1575420030,,,,0,,1,1.2999999523162842,27.700000762939453,0.0,0.0,0.0,0.0,C,817294108522674
Raw,1726564991999,11304062435,18,0.0,-1410600198695937536,0.0,10.02004623413086,-5.780630111694336,0.0,0,31,0.0,15,206609929858302,19,29.5,385.419677734375,0.16659724712371826,16,0.0,0.11780091375112534,1575420030,,,,0,,1,1.2999999523162842,24.5,0.0,0.0,0.0,0.0,C,817294108522674
Raw,1726564991999,11304062435,18,0.0,-1410600198695937536,0.0,10.02004623413086,-5.780630111694336,0.0,0,26,0.0,15,206609931438904,20,28.899999618530273,-26.871171951293945,0.1750669777393341,16,0.0,0.12378986179828644,1575420030,,,,0,,1,1.2999999523162842,23.899999618530273,0.0,0.0,0.0,0.0,C,817294108522674
Raw,1726564991999,11304062435,18,0.0,-1410600198695937536,0.0,10.02004623413086,-5.780630111694336,0.0,0,10,0.0,15,206609923037998,24,26.399999618530273,546.4243774414062,0.21835967898368835,16,0.0,0.15440212190151215,1575420030,,,,0,,1,1.2999999523162842,21.399999618530273,0.0,0.0,0.0,0.0,C,817294108522674
Raw,1726564991999,11304062435,18,0.0,-1410600198695937536,0.0,10.02004623413086,-5.780630111694336,0.0,0,28,0.0,15,206609921569784,23,27.200000762939453,537.6124877929688,0.2029055953025818,16,0.0,0.1434745490550995,1575420030,,,,0,,1,1.2999999523162842,22.200000762939453,0.0,0.0,0.0,0.0,C,817294108522674
Raw,1726564991999,11304062435,18,0.0,-1410600198695937536,0.0,10.02004623413086,-5.780630111694336,0.0,0,4,0.0,15,206609917957045,26,25.700000762939453,-253.11679077148438,0.23337766528129578,16,0.0,0.16502134501934052,1575420030,,,,0,,1,1.2999999523162842,20.700000762939453,0.0,0.0,0.0,0.0,C,817294108522674
Raw,1726564991999,11304062435,18,0.0,-1410600198695937536,0.0,10.02004623413086,-5.780630111694336,0.0,0,32,0.0,15,206609919550089,35,22.100000381469727,131.9989013671875,0.3419855535030365,16,0.0,0.24181798100471497,1575420030,,,,0,,1,1.2999999523162842,17.100000381469727,0.0,0.0,0.0,0.0,C,817294108522674
Raw,1726564991999,11304062435,18,0.0,-1410600198695937536,0.0,10.02004623413086,-5.780630111694336,0.0,0,36,0.0,51,5551658,12,38.599998474121094,-318.2122497558594,0.08857710659503937,19,-37893.15366214636,0.15865261852741241,1561097980,,,,0,,5,1.2999999523162842,33.599998474121094,0.0,0.0,0.0,0.0,C,817294108522674
Raw,1726564991999,11304062435,18,0.0,-1410600198695937536,0.0,10.02004623413086,-5.780630111694336,0.0,0,19,0.0,51,778199,11,39.70000076293945,-379.3783874511719,0.08305026590824127,19,-38479.572837782995,0.15474459528923035,1561097980,,,,0,,5,1.2999999523162842,34.70000076293945,0.0,0.0,0.0,0.0,C,817294108522674
Raw,1726564991999,11304062435,18,0.0,-1410600198695937536,0.0,10.02004623413086,-5.780630111694336,0.0,0,33,0.0,3072,17234055,15,34.0,297.9598693847656,0.11890606582164764,19,-121494.67594801923,0.17922531068325043,1575420030,,,,0,,6,1.2999999523162842,29.0,0.0,0.0,0.0,0.0,C,817294108522674
Raw,1726564991999,11304062435,18,0.0,-1410600198695937536,0.0,10.02004623413086,-5.780630111694336,0.0,0,20,0.0,51,3299392,22,27.700000762939453,-64.00424194335938,0.19406546652317047,16,0.0,0.13722369074821472,1561097980,,,,0,,5,1.2999999523162842,22.700000762939453,0.0,0.0,0.0,0.0,C,817294108522674
Raw,1726564991999,11304062435,18,0.0,-1410600198695937536,0.0,10.02004623413086,-5.780630111694336,0.0,0,16,0.0,51,11124802,33,22.899999618530273,139.38681030273438,0.3121001422405243,16,0.0,0.22068600356578827,1561097980,,,,0,,5,1.2999999523162842,17.899999618530273,0.0,0.0,0.0,0.0,C,817294108522674
Raw,1726564991999,11304062435,18,0.0,-1410600198695937536,0.0,10.02004623413086,-5.780630111694336,0.0,0,19,0.0,3072,14884240,16,33.099998474121094,-102.16720581054688,0.1266447901725769,16,0.0,0.08955053240060806,1575420030,,,,0,,6,1.2999999523162842,28.100000381469727,0.0,0.0,0.0,0.0,C,817294108522674
Raw,1726564991999,11304062435,18,0.0,-1410600198695937536,0.0,10.02004623413086,-5.780630111694336,0.0,0,9,0.0,51,14718042,21,28.399999618530273,150.00970458984375,0.18262839317321777,16,0.0,0.12913653254508972,1561097980,,,,0,,5,1.2999999523162842,23.399999618530273,0.0,0.0,0.0,0.0,C,817294108522674
Raw,1726564991999,11304062435,18,0.0,-1410600198695937536,0.0,10.02004623413086,-5.780630111694336,0.0,0,18,0.0,239,44591923630355,16,32.29999923706055,334.9782409667969,0.13417595624923706,16,0.0,0.09487581998109818,1600312450,,,,0,,3,1.2999999523162842,27.299999237060547,0.0,0.0,0.0,0.0,C,817294108522674
Raw,1726564991999,11304062435,18,0.0,-1410600198695937536,0.0,10.02004623413086,-5.780630111694336,0.0,0,2,0.0,239,44591927793434,20,29.299999237060547,-39.58909606933594,0.16935087740421295,16,0.0,0.11974800378084183,1599750020,,,,0,,3,1.2999999523162842,24.299999237060547,0.0,0.0,0.0,0.0,C,817294108522674
Raw,1726564991999,11304062435,18,0.0,-1410600198695937536,0.0,10.02004623413086,-5.780630111694336,0.0,0,29,0.0,51,14838689,20,28.799999237060547,228.67181396484375,0.17654122412204742,16,0.0,0.12483230233192444,1561097980,,,,0,,5,1.2999999523162842,23.799999237060547,0.0,0.0,0.0,0.0,C,817294108522674
Raw,1726564991999,11304062435,18,0.0,-1410600198695937536,0.0,10.02004623413086,-5.780630111694336,0.0,0,6,0.0,51,14400041,20,29.100000381469727,145.01405334472656,0.17217335104942322,16,0.0,0.12174377590417862,1561097980,,,,0,,5,1.2999999523162842,24.100000381469727,0.0,0.0,0.0,0.0,C,817294108522674
Raw,1726564991999,11304062435,18,0.0,-1410600198695937536,0.0,10.02004623413086,-5.780630111694336,0.0,0,14,0.0,239,44591934583398,26,25.600000381469727,-370.4627685546875,0.235648974776268,16,0.0,0.16662739217281342,1598062460,,,,0,,3,1.2999999523162842,20.600000381469727,0.0,0.0,0.0,0.0,C,817294108522674
Raw,1726564991999,11304062435,18,0.0,-1410600198695937536,0.0,10.02004623413086,-5.780630111694336,0.0,0,8,0.0,51,15886599,22,27.899999618530273,139.93560791015625,0.19069050252437592,16,0.0,0.13483725488185883,1561097980,,,,0,,5,1.2999999523162842,22.899999618530273,0.0,0.0,0.0,0.0,C,817294108522674
Raw,1726564991999,11304062435,18,0.0,-1410600198695937536,0.0,10.02004623413086,-5.780630111694336,0.0,0,39,0.0,51,10662305,23,27.200000762939453,119.82838439941406,0.2029055953025818,16,0.0,0.1434745490550995,1561097980,,,,0,,5,1.2999999523162842,22.200000762939453,0.0,0.0,0.0,0.0,C,817294108522674
Raw,1726564991999,11304062435,18,0.0,-1410600198695937536,0.0,10.02004623413086,-5.780630111694336,0.0,0,13,0.0,51,19902653,29,24.100000381469727,79.96330261230469,0.27411526441574097,16,0.0,0.19382689893245697,1561097980,,,,0,,5,1.2999999523162842,19.100000381469727,0.0,0.0,0.0,0.0,C,817294108522674
Raw,1726564991999,11304062435,18,0.0,-1410600198695937536,0.0,10.02004623413086,-5.780630111694336,0.0,0,17,0.0,239,44591921731078,24,26.700000762939453,489.70208740234375,0.21236379444599152,16,0.0,0.1501624435186386,1604249980,,,,0,,3,1.2999999523162842,21.700000762939453,0.0,0.0,0.0,0.0,C,817294108522674
Raw,1726564991999,11304062435,18,0.0,-1410600198695937536,0.0,10.02004623413086,-5.780630111694336,0.0,0,38,0.0,51,12871109,31,23.600000381469727,176.89886474609375,0.28905072808265686,16,0.0,0.20438776910305023,1561097980,,,,0,,5,1.2999999523162842,18.600000381469727,0.0,0.0,0.0,0.0,C,817294108522674
Raw,1726564991999,11304062435,18,0.0,-1410600198695937536,0.0,10.02004623413086,-5.780630111694336,0.0,0,32,0.0,51,13418895,31,23.600000381469727,297.492919921875,0.28905072808265686,16,0.0,0.20438776910305023,1561097980,,,,0,,5,1.2999999523162842,18.600000381469727,0.0,0.0,0.0,0.0,C,817294108522674
Raw,1726564991999,11304062435,18,0.0,-1410600198695937536,0.0,10.02004623413086,-5.780630111694336,0.0,0,10,0.0,51,10484516,29,24.100000381469727,-188.35801696777344,0.27411526441574097,16,0.0,0.19382689893245697,1561097980,,,,0,,5,1.2999999523162842,19.100000381469727,0.0,0.0,0.0,0.0,C,817294108522674
Raw,1726564991999,11304062435,18,0.0,-1410600198695937536,0.0,10.02004623413086,-5.780630111694336,0.0,0,15,0.0,239,44591922179247,39,20.899999618530273,-787.787353515625,0.3955540060997009,16,0.0,0.2796962261199951,1602000000,,,,0,,3,1.2999999523162842,15.899999618530273,0.0,0.0,0.0,0.0,C,817294108522674
Raw,1726564991999,11304062435,18,0.0,-1410600198695937536,0.0,10.02004623413086,-5.780630111694336,0.0,0,27,0.0,3072,13216517,67,16.400001525878906,205.74249267578125,0.7694674730300903,16,0.0,0.5440904498100281,1575420030,,,,0,,6,1.2999999523162842,11.40000057220459,0.0,0.0,0.0,0.0,C,817294108522674
Raw,1726564992999,12304062435,18,0.0,-1410600198695937536,0.0,10.02004623413086,-4.736799240112305,0.0,0,21,0.0,15,206610923620004,10,42.0,185.6512908935547,0.07304602116346359,25,-16263.131693394855,0.051650840789079666,1575420030,,,,0,,1,1.2999999523162842,37.0,0.0,0.0,0.0,0.0,C,817295263806283
Raw,1726564992999,12304062435,18,0.0,-1410600198695937536,0.0,10.02004623413086,-4.736799240112305,0.0,0,2,0.0,15,206610923237376,15,34.20000076293945,64.58880615234375,0.11728279292583466,25,-34238.610160798504,0.08293066173791885,1575420030,,,,0,,1,1.2999999523162842,29.200000762939453,0.0,0.0,0.0,0.0,C,817295263806283
Raw,1726564992999,12304062435,18,0.0,-1410600198695937536,0.0,10.02004623413086,-4.736799240112305,0.0,0,16,0.0,15,206610928223210,16,32.5,-509.3189697265625,0.13223139941692352,19,-49058.001922870404,0.18864765763282776,1575420030,,,,0,,1,1.2999999523162842,27.5,0.0,0.0,0.0,0.0,C,817295263806283
Raw,1726564992999,12304062435,18,0.0,-1410600198695937536,0.0,10.02004623413086,-4.736799240112305,0.0,0,3,0.0,15,206610923587208,16,32.599998474121094,-610.551513671875,0.13127493858337402,16,0.0,0.09282451122999191,1575420030,,,,0,,1,1.2999999523162842,27.600000381469727,0.0,0.0,0.0,0.0,C,817295263806283
Raw,1726564992999,12304062435,18,0.0,-1410600198695937536,0.0,10.02004623413086,-4.736799240112305,0.0,0,31,0.0,15,206610929857012,19,29.5,383.8996887207031,0.16659724712371826,16,0.0,0.11780091375112534,1575420030,,,,0,,1,1.2999999523162842,24.5,0.0,0.0,0.0,0.0,C,817295263806283
Raw,1726564992999,12304062435,18,0.0,-1410600198695937536,0.0,10.02004623413086,-4.736799240112305,0.0,0,26,0.0,15,206610931438962,20,29.100000381469727,-27.52412986755371,0.17217335104942322,16,0.0,0.12174377590417862,1575420030,,,,0,,1,1.2999999523162842,24.100000381469727,0.0,0.0,0.0,0.0,C,817295263806283
Raw,1726564992999,12304062435,18,0.0,-1410600198695937536,0.0,10.02004623413086,-4.736799240112305,0.0,0,10,0.0,15,206610923036231,24,26.399999618530273,546.5014038085938,0.21835967898368835,16,0.0,0.15440212190151215,1575420030,,,,0,,1,1.2999999523162842,21.399999618530273,0.0,0.0,0.0,0.0,C,817295263806283
Raw,1726564992999,12304062435,18,0.0,-1410600198695937536,0.0,10.02004623413086,-4.736799240112305,0.0,0,4,0.0,15,206610917957818,26,25.5,-250.84442138671875,0.23795360326766968,16,0.0,0.1682569980621338,1575420030,,,,0,,1,1.2999999523162842,20.5,0.0,0.0,0.0,0.0,C,817295263806283
Raw,1726564992999,12304062435,18,0.0,-1410600198695937536,0.0,10.02004623413086,-4.736799240112305,0.0,0,32,0.0,15,206610919549715,35,22.100000381469727,132.43466186523438,0.3419855535030365,16,0.0,0.24181798100471497,1575420030,,,,0,,1,1.2999999523162842,17.100000381469727,0.0,0.0,0.0,0.0,C,817295263806283
Raw,1726564992999,12304062435,18,0.0,-1410600198695937536,0.0,10.02004623413086,-4.736799240112305,0.0,0,28,0.0,14,206610921567926,23,27.100000381469727,538.51611328125,0.20474600791931152,16,0.0,0.1447758972644806,1575420030,,,,0,,1,1.2999999523162842,22.100000381469727,0.0,0.0,0.0,0.0,C,817295263806283
Raw,1726564992999,12304062435,18,0.0,-1410600198695937536,0.0,10.02004623413086,-4.736799240112305,0.0,0,36,0.0,51,5552719,12,38.5,-317.9822692871094,0.08910670876502991,19,-38211.109401173075,0.159027099609375,1561097980,,,,0,,5,1.2999999523162842,33.5,0.0,0.0,0.0,0.0,C,817295263806283
Raw,1726564992999,12304062435,18,0.0,-1410600198695937536,0.0,10.02004623413086,-4.736799240112305,0.0,0,14,0.0,239,44592934584620,24,26.600000381469727,-370.06707763671875,0.21433469653129578,16,0.0,0.15155605971813202,1598062460,,,,0,,3,1.2999999523162842,21.600000381469727,0.0,0.0,0.0,0.0,C,817295263806283
Raw,1726564992999,12304062435,18,0.0,-1410600198695937536,0.0,10.02004623413086,-4.736799240112305,0.0,0,33,0.0,3072,17233060,15,33.900001525878906,298.0669250488281,0.1197303757071495,25,-121196.69058280304,0.08466134965419769,1575420030,,,,0,,6,1.2999999523162842,28.899999618530273,0.0,0.0,0.0,0.0,C,817295263806283
Raw,1726564992999,12304062435,18,0.0,-1410600198695937536,0.0,10.02004623413086,-4.736799240112305,0.0,0,16,0.0,51,11124311,33,22.899999618530273,139.306396484375,0.3121001422405243,16,0.0,0.22068600356578827,1561097980,,,,0,,5,1.2999999523162842,17.899999618530273,0.0,0.0,0.0,0.0,C,817295263806283
Raw,1726564992999,12304062435,18,0.0,-1410600198695937536,0.0,10.02004623413086,-4.736799240112305,0.0,0,19,0.0,51,779457,11,39.599998474121094,-379.1741027832031,0.08353102952241898,16,0.0,0.05906479060649872,1561097980,,,,0,,5,1.2999999523162842,34.599998474121094,0.0,0.0,0.0,0.0,C,817295263806283
Raw,1726564992999,12304062435,18,0.0,-1410600198695937536,0.0,10.02004623413086,-4.736799240112305,0.0,0,20,0.0,51,3299642,15,33.5,-63.143760681152344,0.12311480194330215,16,0.0,0.08705447614192963,1561097980,,,,0,,5,1.2999999523162842,28.5,0.0,0.0,0.0,0.0,C,817295263806283
Raw,1726564992999,12304062435,18,0.0,-1410600198695937536,0.0,10.02004623413086,-4.736799240112305,0.0,0,19,0.0,3072,14884542,16,32.900001525878906,-101.4512710571289,0.12846700847148895,16,0.0,0.09083902090787888,1575420030,,,,0,,6,1.2999999523162842,27.899999618530273,0.0,0.0,0.0,0.0,C,817295263806283
Raw,1726564992999,12304062435,18,0.0,-1410600198695937536,0.0,10.02004623413086,-4.736799240112305,0.0,0,9,0.0,51,14717561,21,28.399999618530273,150.0986328125,0.18262839317321777,16,0.0,0.12913653254508972,1561097980,,,,0,,5,1.2999999523162842,23.399999618530273,0.0,0.0,0.0,0.0,C,817295263806283
Raw,1726564992999,12304062435,18,0.0,-1410600198695937536,0.0,10.02004623413086,-4.736799240112305,0.0,0,18,0.0,239,44592923629347,17,32.0,335.67919921875,0.13717420399188995,16,0.0,0.09699588268995285,1600312450,,,,0,,3,1.2999999523162842,27.0,0.0,0.0,0.0,0.0,C,817295263806283
Raw,1726564992999,12304062435,18,0.0,-1410600198695937536,0.0,10.02004623413086,-4.736799240112305,0.0,0,2,0.0,239,44592927793557,20,29.200000762939453,-39.21675491333008,0.1707533597946167,16,0.0,0.12073969841003418,1599750020,,,,0,,3,1.2999999523162842,24.200000762939453,0.0,0.0,0.0,0.0,C,817295263806283
Raw,1726564992999,12304062435,18,0.0,-1410600198695937536,0.0,10.02004623413086,-4.736799240112305,0.0,0,6,0.0,51,14399525,20,29.0,143.89276123046875,0.1736111044883728,16,0.0,0.12276041507720947,1561097980,,,,0,,5,1.2999999523162842,24.0,0.0,0.0,0.0,0.0,C,817295263806283
Raw,1726564992999,12304062435,18,0.0,-1410600198695937536,0.0,10.02004623413086,-4.736799240112305,0.0,0,39,0.0,51,10661888,23,27.100000381469727,119.84429931640625,0.20474600791931152,16,0.0,0.1447758972644806,1561097980,,,,0,,5,1.2999999523162842,22.100000381469727,0.0,0.0,0.0,0.0,C,817295263806283
