# 
# Header Description:
# 
# Version: v3.0.6.4 Platform: 14 Manufacturer: samsung Model: SM-M346B
# 
# Raw,utcTimeMillis,TimeNanos,LeapSecond,TimeUncertaintyNanos,FullBiasNanos,BiasNanos,BiasUncertaintyNanos,DriftNanosPerSecond,DriftUncertaintyNanosPerSecond,HardwareClockDiscontinuityCount,Svid,TimeOffsetNanos,State,ReceivedSvTimeNanos,ReceivedSvTimeUncertaintyNanos,Cn0DbHz,PseudorangeRateMetersPerSecond,PseudorangeRateUncertaintyMetersPerSecond,AccumulatedDeltaRangeState,AccumulatedDeltaRangeMeters,AccumulatedDeltaRangeUncertaintyMeters,CarrierFrequencyHz,CarrierCycles,CarrierPhase,CarrierPhaseUncertainty,MultipathIndicator,SnrInDb,ConstellationType,AgcDb,BasebandCn0DbHz,FullInterSignalBiasNanos,FullInterSignalBiasUncertaintyNanos,SatelliteInterSignalBiasNanos,SatelliteInterSignalBiasUncertaintyNanos,CodeType,ChipsetElapsedRealtimeNanos
# 
# UncalAccel,utcTimeMillis,elapsedRealtimeNanos,UncalAccelXMps2,UncalAccelYMps2,UncalAccelZMps2,BiasXMps2,BiasYMps2,BiasZMps2
# 
# Accel,utcTimeMillis,elapsedRealtimeNanos,AccelXMps2,AccelYMps2,AccelZMps2
# 
# UncalGyro,utcTimeMillis,elapsedRealtimeNanos,UncalGyroXRadPerSec,UncalGyroYRadPerSec,UncalGyroZRadPerSec,DriftXRadPerSec,DriftYRadPerSec,DriftZRadPerSec
# 
# Gyro,utcTimeMillis,elapsedRealtimeNanos,GyroXRadPerSec,GyroYRadPerSec,GyroZRadPerSec
# 
# UncalMag,utcTimeMillis,elapsedRealtimeNanos,UncalMagXMicroT,UncalMagYMicroT,UncalMagZMicroT,BiasXMicroT,BiasYMicroT,BiasZMicroT
# 
# Mag,utcTimeMillis,elapsedRealtimeNanos,MagXMicroT,MagYMicroT,MagZMicroT
# 
# OrientationDeg,utcTimeMillis,elapsedRealtimeNanos,yawDeg,rollDeg,pitchDeg
# 
# Fix,Provider,LatitudeDegrees,LongitudeDegrees,AltitudeMeters,SpeedMps,AccuracyMeters,BearingDegrees,UnixTimeMillis,SpeedAccuracyMps,BearingAccuracyDegrees,elapsedRealtimeNanos,VerticalAccuracyMeters,MockLocation,NumberOfUsedSignals,VerticalSpeedAccuracyMps,SolutionType
# 
# Nav,Svid,Type,Status,MessageId,Sub-messageId,Data(Bytes)
# 
# Status,UnixTimeMillis,SignalCount,SignalIndex,ConstellationType,Svid,CarrierFrequencyHz,Cn0DbHz,AzimuthDegrees,ElevationDegrees,UsedInFix,HasAlmanacData,HasEphemerisData,BasebandCn0DbHz
# 
# Agc,utcTimeMillis,TimeNanos,LeapSecond,TimeUncertaintyNanos,FullBiasNanos,BiasNanos,BiasUncertaintyNanos,DriftNanosPerSecond,DriftUncertaintyNanosPerSecond,HardwareClockDiscontinuityCount,AgcDb,CarrierFrequencyHz,ConstellationType
# 
Fix,FLP,12.9340604000,77.5420066000,798.2999877929688,0.7169735,20.662,101.82809,1727328863886,1.5,45.0,1450109537000000,1.6440394,0,,,
Raw,1727328865041,5819982589,18,0.0,-1411364077221746688,0.0,2000069.25,-4.568437576293945,0.0,0,31,0.0,19,7283968,11,40.400001525878906,-676.6324462890625,0.07979825884103775,19,-58175.52838770216,0.15157218277454376,1575420030,,,,0,,1,1.2999999523162842,35.400001525878906,0.0,0.0,0.0,0.0,C,1581165842443712
Raw,1727328865041,5819982589,18,0.0,-1411364077221746688,0.0,2000069.25,-4.568437576293945,0.0,0,27,0.0,19,6064844,17,31.399999618530273,222.58216857910156,0.14348027110099792,16,0.0,0.10145489871501923,1575420030,,,,0,,1,1.2999999523162842,26.399999618530273,0.0,0.0,0.0,0.0,C,1581165842443712
Raw,1727328865041,5819982589,18,0.0,-1411364077221746688,0.0,2000069.25,-4.568437576293945,0.0,0,28,0.0,19,14547085,19,29.700000762939453,-340.1970520019531,0.16391023993492126,16,0.0,0.1159009337425232,1575420030,,,,0,,1,1.2999999523162842,24.700000762939453,0.0,0.0,0.0,0.0,C,1581165842443712
Raw,1727328865041,5819982589,18,0.0,-1411364077221746688,0.0,2000069.25,-4.568437576293945,0.0,0,23,0.0,19,9117801,23,27.399999618530273,45.95061492919922,0.19929847121238708,16,0.0,0.14092394709587097,1575420030,,,,0,,1,1.2999999523162842,22.399999618530273,0.0,0.0,0.0,0.0,C,1581165842443712
Raw,1727328865041,5819982589,18,0.0,-1411364077221746688,0.0,2000069.25,-4.568437576293945,0.0,0,32,0.0,19,11402113,24,26.799999237060547,246.36668395996094,0.21042001247406006,16,0.0,0.1487879902124405,1575420030,,,,0,,1,1.2999999523162842,21.799999237060547,0.0,0.0,0.0,0.0,C,1581165842443712
Raw,1727328865041,5819982589,18,0.0,-1411364077221746688,0.0,2000069.25,-4.568437576293945,0.0,0,18,0.0,19,7475113,29,24.200000762939453,594.8041381835938,0.2712673544883728,16,0.0,0.1918131411075592,1575420030,,,,0,,1,1.2999999523162842,19.200000762939453,0.0,0.0,0.0,0.0,C,1581165842443712
Raw,1727328865041,5819982589,18,0.0,-1411364077221746688,0.0,2000069.25,-4.568437576293945,0.0,0,10,0.0,19,10163569,31,23.399999618530273,-200.89517211914062,0.29536861181259155,16,0.0,0.20885515213012695,1575420030,,,,0,,1,1.2999999523162842,18.399999618530273,0.0,0.0,0.0,0.0,C,1581165842443712
Raw,1727328865041,5819982589,18,0.0,-1411364077221746688,0.0,2000069.25,-4.568437576293945,0.0,0,38,0.0,51,17181149,17,31.299999237060547,-136.13470458984375,0.14457345008850098,19,-65855.63883289232,0.19824764132499695,1561097980,,,,0,,5,1.2999999523162842,26.299999237060547,0.0,0.0,0.0,0.0,C,1581165842443712
Raw,1727328865041,5819982589,18,0.0,-1411364077221746688,0.0,2000069.25,-4.568437576293945,0.0,0,9,0.0,1040,622708,27,25.100000381469727,-110.76775360107422,0.2475186139345169,16,0.0,0.17502041161060333,1575420030,,,,0,,6,1.2999999523162842,20.100000381469727,0.0,0.0,0.0,0.0,C,1581165842443712
Raw,1727328865041,5819982589,18,0.0,-1411364077221746688,0.0,2000069.25,-4.568437576293945,0.0,0,18,0.0,51,12896853,23,27.100000381469727,-514.5818481445312,0.20474600791931152,16,0.0,0.1447758972644806,1600312450,,,,0,,3,1.2999999523162842,22.100000381469727,0.0,0.0,0.0,0.0,C,1581165842443712
Raw,1727328865041,5819982589,18,0.0,-1411364077221746688,0.0,2000069.25,-4.568437576293945,0.0,0,25,0.0,51,7287444,22,27.5,-356.9832763671875,0.1975308656692505,16,0.0,0.1396740823984146,1561097980,,,,0,,5,1.2999999523162842,22.5,0.0,0.0,0.0,0.0,C,1581165842443712
Raw,1727328865041,5819982589,18,0.0,-1411364077221746688,0.0,2000069.25,-4.568437576293945,0.0,0,24,0.0,51,3965209,25,26.200000762939453,72.13956451416016,0.2224990874528885,16,0.0,0.15732909739017487,1561097980,,,,0,,5,1.2999999523162842,21.200000762939453,0.0,0.0,0.0,0.0,C,1581165842443712
Raw,1727328865308,6084224082,18,0.0,-1411364077224048896,0.0,50.034610748291016,-6.507848739624023,0.0,0,31,0.0,15,365683231526060,10,40.599998474121094,-676.830078125,0.07890418916940689,19,-58354.35592250297,0.15093998610973358,1575420030,,,,0,,1,1.2999999523162842,35.599998474121094,0.0,0.0,0.0,0.0,C,1581167109141442
Raw,1727328865308,6084224082,18,0.0,-1411364077224048896,0.0,50.034610748291016,-6.507848739624023,0.0,0,27,0.0,19,10306148,17,31.399999618530273,222.50393676757812,0.14348027110099792,16,0.0,0.10145489871501923,1575420030,,,,0,,1,1.2999999523162842,26.399999618530273,0.0,0.0,0.0,0.0,C,1581167109141442
Raw,1727328865308,6084224082,18,0.0,-1411364077224048896,0.0,50.034610748291016,-6.507848739624023,0.0,0,28,0.0,19,18788884,18,30.299999237060547,-339.9164733886719,0.15622803568840027,16,0.0,0.11046884208917618,1575420030,,,,0,,1,1.2999999523162842,25.299999237060547,0.0,0.0,0.0,0.0,C,1581167109141442
Raw,1727328865308,6084224082,18,0.0,-1411364077224048896,0.0,50.034610748291016,-6.507848739624023,0.0,0,23,0.0,19,13359241,22,27.799999237060547,45.6668815612793,0.19236689805984497,16,0.0,0.1360226273536682,1575420030,,,,0,,1,1.2999999523162842,22.799999237060547,0.0,0.0,0.0,0.0,C,1581167109141442
Raw,1727328865308,6084224082,18,0.0,-1411364077224048896,0.0,50.034610748291016,-6.507848739624023,0.0,0,32,0.0,19,15643395,23,27.100000381469727,246.69882202148438,0.20474600791931152,16,0.0,0.1447758972644806,1575420030,,,,0,,1,1.2999999523162842,22.100000381469727,0.0,0.0,0.0,0.0,C,1581167109141442
Raw,1727328865308,6084224082,18,0.0,-1411364077224048896,0.0,50.034610748291016,-6.507848739624023,0.0,0,18,0.0,19,11716105,29,24.200000762939453,595.152587890625,0.2712673544883728,16,0.0,0.1918131411075592,1575420030,,,,0,,1,1.2999999523162842,19.200000762939453,0.0,0.0,0.0,0.0,C,1581167109141442
Raw,1727328865308,6084224082,18,0.0,-1411364077224048896,0.0,50.034610748291016,-6.507848739624023,0.0,0,10,0.0,19,14405229,31,23.399999618530273,-200.43585205078125,0.29536861181259155,16,0.0,0.20885515213012695,1575420030,,,,0,,1,1.2999999523162842,18.399999618530273,0.0,0.0,0.0,0.0,C,1581167109141442
Raw,1727328865308,6084224082,18,0.0,-1411364077224048896,0.0,50.034610748291016,-6.507848739624023,0.0,0,38,0.0,51,1422767,16,32.099998474121094,-136.14431762695312,0.13616371154785156,19,-65891.59388644839,0.19230109453201294,1561097980,,,,0,,5,1.2999999523162842,27.100000381469727,0.0,0.0,0.0,0.0,C,1581167109141442
Raw,1727328865308,6084224082,18,0.0,-1411364077224048896,0.0,50.034610748291016,-6.507848739624023,0.0,0,9,0.0,1040,2864232,27,25.100000381469727,-110.71453857421875,0.2475186139345169,16,0.0,0.17502041161060333,1575420030,,,,0,,6,1.2999999523162842,20.100000381469727,0.0,0.0,0.0,0.0,C,1581167109141442
Raw,1727328865308,6084224082,18,0.0,-1411364077224048896,0.0,50.034610748291016,-6.507848739624023,0.0,0,25,0.0,51,11529212,22,27.5,-356.6346435546875,0.1975308656692505,16,0.0,0.1396740823984146,1561097980,,,,0,,5,1.2999999523162842,22.5,0.0,0.0,0.0,0.0,C,1581167109141442
Raw,1727328865308,6084224082,18,0.0,-1411364077224048896,0.0,50.034610748291016,-6.507848739624023,0.0,0,18,0.0,51,17138809,23,27.100000381469727,-513.7262573242188,0.20474600791931152,16,0.0,0.1447758972644806,1600312450,,,,0,,3,1.2999999523162842,22.100000381469727,0.0,0.0,0.0,0.0,C,1581167109141442
Raw,1727328865308,6084224082,18,0.0,-1411364077224048896,0.0,50.034610748291016,-6.507848739624023,0.0,0,24,0.0,51,8206641,25,26.200000762939453,71.84123992919922,0.2224990874528885,16,0.0,0.15732909739017487,1561097980,,,,0,,5,1.2999999523162842,21.200000762939453,0.0,0.0,0.0,0.0,C,1581167109141442
Raw,1727328866000,6775969943,18,0.0,-1411364077224048896,0.0,50.034610748291016,-4.294722557067871,0.0,0,31,0.0,15,365683923273471,10,40.599998474121094,-676.6611938476562,0.07890418916940689,25,-58822.457654198864,0.0557931512594223,1575420030,,,,0,,1,1.2999999523162842,35.599998474121094,0.0,0.0,0.0,0.0,C,1581168129838034
Raw,1727328866000,6775969943,18,0.0,-1411364077224048896,0.0,50.034610748291016,-4.294722557067871,0.0,0,27,0.0,15,365683922051516,17,31.399999618530273,222.9716033935547,0.14348027110099792,16,0.0,0.10145489871501923,1575420030,,,,0,,1,1.2999999523162842,26.399999618530273,0.0,0.0,0.0,0.0,C,1581168129838034
Raw,1727328866000,6775969943,18,0.0,-1411364077224048896,0.0,50.034610748291016,-4.294722557067871,0.0,0,28,0.0,15,365683930535507,18,30.700000762939453,-340.6880187988281,0.15140274167060852,16,0.0,0.1070568785071373,1575420030,,,,0,,1,1.2999999523162842,25.700000762939453,0.0,0.0,0.0,0.0,C,1581168129838034
Raw,1727328866000,6775969943,18,0.0,-1411364077224048896,0.0,50.034610748291016,-4.294722557067871,0.0,0,23,0.0,15,365683925105025,22,27.899999618530273,45.425567626953125,0.19069050252437592,16,0.0,0.13483725488185883,1575420030,,,,0,,1,1.2999999523162842,22.899999618530273,0.0,0.0,0.0,0.0,C,1581168129838034
Raw,1727328866000,6775969943,18,0.0,-1411364077224048896,0.0,50.034610748291016,-4.294722557067871,0.0,0,32,0.0,15,365683927388702,23,27.100000381469727,246.52659606933594,0.20474600791931152,16,0.0,0.1447758972644806,1575420030,,,,0,,1,1.2999999523162842,22.100000381469727,0.0,0.0,0.0,0.0,C,1581168129838034
Raw,1727328866000,6775969943,18,0.0,-1411364077224048896,0.0,50.034610748291016,-4.294722557067871,0.0,0,18,0.0,15,365683923460517,29,24.399999618530273,595.2239990234375,0.2657030522823334,16,0.0,0.18787862360477448,1575420030,,,,0,,1,1.2999999523162842,19.399999618530273,0.0,0.0,0.0,0.0,C,1581168129838034
Raw,1727328866000,6775969943,18,0.0,-1411364077224048896,0.0,50.034610748291016,-4.294722557067871,0.0,0,10,0.0,15,365683926151575,30,23.799999237060547,-200.53720092773438,0.28293347358703613,16,0.0,0.20006226003170013,1575420030,,,,0,,1,1.2999999523162842,18.799999237060547,0.0,0.0,0.0,0.0,C,1581168129838034
Raw,1727328866000,6775969943,18,0.0,-1411364077224048896,0.0,50.034610748291016,-4.294722557067871,0.0,0,38,0.0,51,13168942,16,32.20000076293945,-136.41390991210938,0.13516435027122498,19,-65985.7231516159,0.1915944516658783,1561097980,,,,0,,5,1.2999999523162842,27.200000762939453,0.0,0.0,0.0,0.0,C,1581168129838034
Raw,1727328866000,6775969943,18,0.0,-1411364077224048896,0.0,50.034610748291016,-4.294722557067871,0.0,0,25,0.0,51,3275896,22,27.5,-355.8874206542969,0.1975308656692505,16,0.0,0.1396740823984146,1561097980,,,,0,,5,1.2999999523162842,22.5,0.0,0.0,0.0,0.0,C,1581168129838034
Raw,1727328866000,6775969943,18,0.0,-1411364077224048896,0.0,50.034610748291016,-4.294722557067871,0.0,0,24,0.0,51,19952339,25,26.200000762939453,72.26288604736328,0.2224990874528885,16,0.0,0.15732909739017487,1561097980,,,,0,,5,1.2999999523162842,21.200000762939453,0.0,0.0,0.0,0.0,C,1581168129838034
Raw,1727328866000,6775969943,18,0.0,-1411364077224048896,0.0,50.034610748291016,-4.294722557067871,0.0,0,18,0.0,239,30865928886009,23,27.100000381469727,-512.9231567382812,0.20474600791931152,16,0.0,0.1447758972644806,1600312450,,,,0,,3,1.2999999523162842,22.100000381469727,0.0,0.0,0.0,0.0,C,1581168129838034
Raw,1727328866000,6775969943,18,0.0,-1411364077224048896,0.0,50.034610748291016,-4.294722557067871,0.0,0,9,0.0,3072,14610366,27,25.100000381469727,-110.4439468383789,0.2475186139345169,16,0.0,0.17502041161060333,1575420030,,,,0,,6,1.2999999523162842,20.100000381469727,0.0,0.0,0.0,0.0,C,1581168129838034
Raw,1727328866999,7775951066,18,0.0,-1411364077224048896,0.0,10.012020111083984,-5.230747699737549,0.0,0,31,0.0,15,365684923256854,10,40.599998474121094,-677.2318115234375,0.07890418916940689,25,-59499.3391641278,0.0557931512594223,1575420030,,,,0,,1,1.2999999523162842,35.599998474121094,0.0,0.0,0.0,0.0,C,1581169267444050
Raw,1727328866999,7775951066,18,0.0,-1411364077224048896,0.0,10.012020111083984,-5.230747699737549,0.0,0,28,0.0,15,365684930517774,17,31.299999237060547,-340.82574462890625,0.14457345008850098,16,0.0,0.10222788900136948,1575420030,,,,0,,1,1.2999999523162842,26.299999237060547,0.0,0.0,0.0,0.0,C,1581169267444050
Raw,1727328866999,7775951066,18,0.0,-1411364077224048896,0.0,10.012020111083984,-5.230747699737549,0.0,0,27,0.0,15,365684922031867,17,31.5,222.51373291015625,0.14239943027496338,16,0.0,0.10069064050912857,1575420030,,,,0,,1,1.2999999523162842,26.5,0.0,0.0,0.0,0.0,C,1581169267444050
Raw,1727328866999,7775951066,18,0.0,-1411364077224048896,0.0,10.012020111083984,-5.230747699737549,0.0,0,23,0.0,15,365684925086000,22,27.899999618530273,45.89925765991211,0.19069050252437592,16,0.0,0.13483725488185883,1575420030,,,,0,,1,1.2999999523162842,22.899999618530273,0.0,0.0,0.0,0.0,C,1581169267444050
Raw,1727328866999,7775951066,18,0.0,-1411364077224048896,0.0,10.012020111083984,-5.230747699737549,0.0,0,32,0.0,15,365684927368991,23,27.0,246.4488067626953,0.20661157369613647,16,0.0,0.14609503746032715,1575420030,,,,0,,1,1.2999999523162842,22.0,0.0,0.0,0.0,0.0,C,1581169267444050
Raw,1727328866999,7775951066,18,0.0,-1411364077224048896,0.0,10.012020111083984,-5.230747699737549,0.0,0,10,0.0,15,365684926133396,29,24.100000381469727,-200.4571075439453,0.27411526441574097,16,0.0,0.19382689893245697,1575420030,,,,0,,1,1.2999999523162842,19.100000381469727,0.0,0.0,0.0,0.0,C,1581169267444050
Raw,1727328866999,7775951066,18,0.0,-1411364077224048896,0.0,10.012020111083984,-5.230747699737549,0.0,0,18,0.0,15,365684923439557,29,24.399999618530273,595.3097534179688,0.2657030522823334,16,0.0,0.18787862360477448,1575420030,,,,0,,1,1.2999999523162842,19.399999618530273,0.0,0.0,0.0,0.0,C,1581169267444050
Raw,1727328866999,7775951066,18,0.0,-1411364077224048896,0.0,10.012020111083984,-5.230747699737549,0.0,0,38,0.0,51,13150518,16,32.20000076293945,-136.45498657226562,0.13516435027122498,19,-66121.95967958467,0.1915944516658783,1561097980,,,,0,,5,1.2999999523162842,27.200000762939453,0.0,0.0,0.0,0.0,C,1581169267444050
Raw,1727328866999,7775951066,18,0.0,-1411364077224048896,0.0,10.012020111083984,-5.230747699737549,0.0,0,9,0.0,3072,14591819,27,24.899999618530273,-110.10176849365234,0.252518892288208,16,0.0,0.17855611443519592,1575420030,,,,0,,6,1.2999999523162842,19.899999618530273,0.0,0.0,0.0,0.0,C,1581169267444050
Raw,1727328866999,7775951066,18,0.0,-1411364077224048896,0.0,10.012020111083984,-5.230747699737549,0.0,0,25,0.0,51,3258215,23,27.399999618530273,-356.2453918457031,0.19929847121238708,16,0.0,0.14092394709587097,1561097980,,,,0,,5,1.2999999523162842,22.399999618530273,0.0,0.0,0.0,0.0,C,1581169267444050
Raw,1727328866999,7775951066,18,0.0,-1411364077224048896,0.0,10.012020111083984,-5.230747699737549,0.0,0,24,0.0,51,19933197,25,26.200000762939453,71.97654724121094,0.2224990874528885,16,0.0,0.15732909739017487,1561097980,,,,0,,5,1.2999999523162842,21.200000762939453,0.0,0.0,0.0,0.0,C,1581169267444050
Raw,1727328866999,7775951066,18,0.0,-1411364077224048896,0.0,10.012020111083984,-5.230747699737549,0.0,0,18,0.0,239,30866928868684,23,27.0,-513.0213012695312,0.20661157369613647,16,0.0,0.14609503746032715,1600312450,,,,0,,3,1.2999999523162842,22.0,0.0,0.0,0.0,0.0,C,1581169267444050
Raw,1727328866999,7775951066,18,0.0,-1411364077224048896,0.0,10.012020111083984,-5.230747699737549,0.0,0,43,0.0,47,365670921003463,33,22.600000381469727,515.9004516601562,0.32283055782318115,16,0.0,0.22827348113059998,1561097980,,,,0,,5,1.2999999523162842,17.600000381469727,0.0,0.0,0.0,0.0,C,1581169267444050
Raw,1727328866999,7775951066,18,0.0,-1411364077224048896,0.0,10.012020111083984,-5.230747699737549,0.0,0,23,0.0,51,13716922,28,24.600000381469727,-519.2816772460938,0.2603082060813904,16,0.0,0.18406392633914948,1561097980,,,,0,,5,1.2999999523162842,19.600000381469727,0.0,0.0,0.0,0.0,C,1581169267444050
Raw,1727328866999,7775951066,18,0.0,-1411364077224048896,0.0,10.012020111083984,-5.230747699737549,0.0,0,9,0.0,51,18208028,28,24.5,-40.202327728271484,0.26298487186431885,16,0.0,0.18595659732818604,1561097980,,,,0,,5,1.2999999523162842,19.5,0.0,0.0,0.0,0.0,C,1581169267444050
Raw,1727328866999,7775951066,18,0.0,-1411364077224048896,0.0,10.012020111083984,-5.230747699737549,0.0,0,33,0.0,3072,11823290,31,23.5,473.58392333984375,0.29218408465385437,16,0.0,0.20660336315631866,1575420030,,,,0,,6,1.2999999523162842,18.5,0.0,0.0,0.0,0.0,C,1581169267444050
Raw,1727328866999,7775951066,18,0.0,-1411364077224048896,0.0,10.012020111083984,-5.230747699737549,0.0,0,12,0.0,239,30866924558336,32,23.0,27.02677345275879,0.3086419701576233,16,0.0,0.21824073791503906,1601437440,,,,0,,3,1.2999999523162842,18.0,0.0,0.0,0.0,0.0,C,1581169267444050
Raw,1727328867999,8775951066,18,0.0,-1411364077224048896,0.0,10.012020111083984,-7.883721828460693,0.0,0,31,0.0,15,365685923259127,10,40.599998474121094,-677.5077514648438,0.07890418916940689,25,-60176.64241051422,0.0557931512594223,1575420030,,,,0,,1,1.2999999523162842,35.599998474121094,0.0,0.0,0.0,0.0,C,1581170144489072
Raw,1727328867999,8775951066,18,0.0,-1411364077224048896,0.0,10.012020111083984,-7.883721828460693,0.0,0,28,0.0,15,365685930518922,17,31.700000762939453,-340.4808044433594,0.14027409255504608,16,0.0,0.09918781369924545,1575420030,,,,0,,1,1.2999999523162842,26.700000762939453,0.0,0.0,0.0,0.0,C,1581170144489072
Raw,1727328867999,8775951066,18,0.0,-1411364077224048896,0.0,10.012020111083984,-7.883721828460693,0.0,0,27,0.0,15,365685922031132,17,31.5,222.03639221191406,0.14239943027496338,16,0.0,0.10069064050912857,1575420030,,,,0,,1,1.2999999523162842,26.5,0.0,0.0,0.0,0.0,C,1581170144489072
Raw,1727328867999,8775951066,18,0.0,-1411364077224048896,0.0,10.012020111083984,-7.883721828460693,0.0,0,23,0.0,15,365685925085838,22,27.899999618530273,44.8688850402832,0.19069050252437592,16,0.0,0.13483725488185883,1575420030,,,,0,,1,1.2999999523162842,22.899999618530273,0.0,0.0,0.0,0.0,C,1581170144489072
Raw,1727328867999,8775951066,18,0.0,-1411364077224048896,0.0,10.012020111083984,-7.883721828460693,0.0,0,32,0.0,15,365685927368110,24,26.799999237060547,246.40342712402344,0.21042001247406006,16,0.0,0.1487879902124405,1575420030,,,,0,,1,1.2999999523162842,21.799999237060547,0.0,0.0,0.0,0.0,C,1581170144489072
Raw,1727328867999,8775951066,18,0.0,-1411364077224048896,0.0,10.012020111083984,-7.883721828460693,0.0,0,10,0.0,15,365685926134087,29,24.100000381469727,-200.82810974121094,0.27411526441574097,16,0.0,0.19382689893245697,1575420030,,,,0,,1,1.2999999523162842,19.100000381469727,0.0,0.0,0.0,0.0,C,1581170144489072
Raw,1727328867999,8775951066,18,0.0,-1411364077224048896,0.0,10.012020111083984,-7.883721828460693,0.0,0,18,0.0,15,365685923437673,29,24.299999237060547,594.71484375,0.2684636116027832,16,0.0,0.18983061611652374,1575420030,,,,0,,1,1.2999999523162842,19.299999237060547,0.0,0.0,0.0,0.0,C,1581170144489072
Raw,1727328867999,8775951066,18,0.0,-1411364077224048896,0.0,10.012020111083984,-7.883721828460693,0.0,0,38,0.0,47,365671873150989,16,32.20000076293945,-136.9883270263672,0.13516435027122498,19,-66258.69069891272,0.1915944516658783,1561097980,,,,0,,5,1.2999999523162842,27.200000762939453,0.0,0.0,0.0,0.0,C,1581170144489072
Raw,1727328867999,8775951066,18,0.0,-1411364077224048896,0.0,10.012020111083984,-7.883721828460693,0.0,0,9,0.0,3072,14592210,23,27.200000762939453,-109.87606811523438,0.2029055953025818,16,0.0,0.1434745490550995,1575420030,,,,0,,6,1.2999999523162842,22.200000762939453,0.0,0.0,0.0,0.0,C,1581170144489072
Raw,1727328867999,8775951066,18,0.0,-1411364077224048896,0.0,10.012020111083984,-7.883721828460693,0.0,0,25,0.0,51,3259392,23,27.399999618530273,-356.47271728515625,0.19929847121238708,16,0.0,0.14092394709587097,1561097980,,,,0,,5,1.2999999523162842,22.399999618530273,0.0,0.0,0.0,0.0,C,1581170144489072
Raw,1727328867999,8775951066,18,0.0,-1411364077224048896,0.0,10.012020111083984,-7.883721828460693,0.0,0,43,0.0,47,365671921001746,33,22.600000381469727,515.6377563476562,0.32283055782318115,16,0.0,0.22827348113059998,1561097980,,,,0,,5,1.2999999523162842,17.600000381469727,0.0,0.0,0.0,0.0,C,1581170144489072
Raw,1727328867999,8775951066,18,0.0,-1411364077224048896,0.0,10.012020111083984,-7.883721828460693,0.0,0,24,0.0,51,19932990,25,26.100000381469727,71.47723388671875,0.22461310029029846,16,0.0,0.1588239222764969,1561097980,,,,0,,5,1.2999999523162842,21.100000381469727,0.0,0.0,0.0,0.0,C,1581170144489072
Raw,1727328867999,8775951066,18,0.0,-1411364077224048896,0.0,10.012020111083984,-7.883721828460693,0.0,0,18,0.0,239,30867928870429,24,26.799999237060547,-514.7861938476562,0.21042001247406006,16,0.0,0.1487879902124405,1600312450,,,,0,,3,1.2999999523162842,21.799999237060547,0.0,0.0,0.0,0.0,C,1581170144489072
Raw,1727328867999,8775951066,18,0.0,-1411364077224048896,0.0,10.012020111083984,-7.883721828460693,0.0,0,23,0.0,51,13718659,28,24.600000381469727,-519.5912475585938,0.2603082060813904,16,0.0,0.18406392633914948,1561097980,,,,0,,5,1.2999999523162842,19.600000381469727,0.0,0.0,0.0,0.0,C,1581170144489072
Raw,1727328867999,8775951066,18,0.0,-1411364077224048896,0.0,10.012020111083984,-7.883721828460693,0.0,0,33,0.0,3072,11821684,31,23.5,472.8800354003906,0.29218408465385437,16,0.0,0.20660336315631866,1575420030,,,,0,,6,1.2999999523162842,18.5,0.0,0.0,0.0,0.0,C,1581170144489072
Raw,1727328867999,8775951066,18,0.0,-1411364077224048896,0.0,10.012020111083984,-7.883721828460693,0.0,0,9,0.0,51,18208228,28,24.5,-41.69037628173828,0.26298487186431885,16,0.0,0.18595659732818604,1561097980,,,,0,,5,1.2999999523162842,19.5,0.0,0.0,0.0,0.0,C,1581170144489072
Raw,1727328867999,8775951066,18,0.0,-1411364077224048896,0.0,10.012020111083984,-7.883721828460693,0.0,0,12,0.0,239,30867924557947,32,23.0,27.70157241821289,0.3086419701576233,16,0.0,0.21824073791503906,1601437440,,,,0,,3,1.2999999523162842,18.0,0.0,0.0,0.0,0.0,C,1581170144489072
Raw,1727328867999,8775951066,18,0.0,-1411364077224048896,0.0,10.012020111083984,-7.883721828460693,0.0,0,14,0.0,47,365671917271232,39,21.100000381469727,165.9336395263672,0.3857875466346741,16,0.0,0.2727903723716736,1561097980,,,,0,,5,1.2999999523162842,16.100000381469727,0.0,0.0,0.0,0.0,C,1581170144489072
Raw,1727328868999,9775951066,18,0.0,-1411364077224048896,0.0,10.012020111083984,-8.672218322753906,0.0,0,31,0.0,15,365686923261363,11,40.5,-677.4580688476562,0.0793493390083313,25,-60854.048852364256,0.05610791593790054,1575420030,,,,0,,1,1.2999999523162842,35.5,0.0,0.0,0.0,0.0,C,1581170883550455
Raw,1727328868999,9775951066,18,0.0,-1411364077224048896,0.0,10.012020111083984,-8.672218322753906,0.0,0,28,0.0,15,365686930520085,16,32.29999923706055,-341.9898681640625,0.13417595624923706,16,0.0,0.09487581998109818,1575420030,,,,0,,1,1.2999999523162842,27.299999237060547,0.0,0.0,0.0,0.0,C,1581170883550455
Raw,1727328868999,9775951066,18,0.0,-1411364077224048896,0.0,10.012020111083984,-8.672218322753906,0.0,0,27,0.0,15,365686922030369,17,31.5,221.00094604492188,0.14239943027496338,16,0.0,0.10069064050912857,1575420030,,,,0,,1,1.2999999523162842,26.5,0.0,0.0,0.0,0.0,C,1581170883550455
Raw,1727328868999,9775951066,18,0.0,-1411364077224048896,0.0,10.012020111083984,-8.672218322753906,0.0,0,23,0.0,15,365686925085669,22,27.899999618530273,44.465240478515625,0.19069050252437592,16,0.0,0.13483725488185883,1575420030,,,,0,,1,1.2999999523162842,22.899999618530273,0.0,0.0,0.0,0.0,C,1581170883550455
Raw,1727328868999,9775951066,18,0.0,-1411364077224048896,0.0,10.012020111083984,-8.672218322753906,0.0,0,32,0.0,15,365686927367412,24,26.700000762939453,246.5701904296875,0.21236379444599152,16,0.0,0.1501624435186386,1575420030,,,,0,,1,1.2999999523162842,21.700000762939453,0.0,0.0,0.0,0.0,C,1581170883550455
Raw,1727328868999,9775951066,18,0.0,-1411364077224048896,0.0,10.012020111083984,-8.672218322753906,0.0,0,10,0.0,15,365686926134771,29,24.100000381469727,-201.75135803222656,0.27411526441574097,16,0.0,0.19382689893245697,1575420030,,,,0,,1,1.2999999523162842,19.100000381469727,0.0,0.0,0.0,0.0,C,1581170883550455
Raw,1727328868999,9775951066,18,0.0,-1411364077224048896,0.0,10.012020111083984,-8.672218322753906,0.0,0,18,0.0,15,365686923435613,29,24.299999237060547,595.0310668945312,0.2684636116027832,16,0.0,0.18983061611652374,1575420030,,,,0,,1,1.2999999523162842,19.299999237060547,0.0,0.0,0.0,0.0,C,1581170883550455
Raw,1727328868999,9775951066,18,0.0,-1411364077224048896,0.0,10.012020111083984,-8.672218322753906,0.0,0,38,0.0,47,365672873151461,16,32.20000076293945,-137.0241241455078,0.13516435027122498,25,-66395.71482623991,0.09557471424341202,1561097980,,,,0,,5,1.2999999523162842,27.200000762939453,0.0,0.0,0.0,0.0,C,1581170883550455
Raw,1727328868999,9775951066,18,0.0,-1411364077224048896,0.0,10.012020111083984,-8.672218322753906,0.0,0,9,0.0,3072,14592575,21,28.600000381469727,-110.28121948242188,0.17954610288143158,16,0.0,0.12695704400539398,1575420030,,,,0,,6,1.2999999523162842,23.600000381469727,0.0,0.0,0.0,0.0,C,1581170883550455
Raw,1727328868999,9775951066,18,0.0,-1411364077224048896,0.0,10.012020111083984,-8.672218322753906,0.0,0,25,0.0,51,3260584,23,27.299999237060547,-355.9095764160156,0.20108991861343384,16,0.0,0.14219067990779877,1561097980,,,,0,,5,1.2999999523162842,22.299999237060547,0.0,0.0,0.0,0.0,C,1581170883550455
Raw,1727328868999,9775951066,18,0.0,-1411364077224048896,0.0,10.012020111083984,-8.672218322753906,0.0,0,43,0.0,47,365672921000034,25,25.799999237060547,515.6615600585938,0.23113907873630524,16,0.0,0.16343843936920166,1561097980,,,,0,,5,1.2999999523162842,20.799999237060547,0.0,0.0,0.0,0.0,C,1581170883550455
Raw,1727328868999,9775951066,18,0.0,-1411364077224048896,0.0,10.012020111083984,-8.672218322753906,0.0,0,24,0.0,51,19932703,25,26.100000381469727,71.23371124267578,0.22461310029029846,16,0.0,0.1588239222764969,1561097980,,,,0,,5,1.2999999523162842,21.100000381469727,0.0,0.0,0.0,0.0,C,1581170883550455
Raw,1727328868999,9775951066,18,0.0,-1411364077224048896,0.0,10.012020111083984,-8.672218322753906,0.0,0,23,0.0,51,13720414,28,24.700000762939453,-520.2507934570312,0.25767216086387634,16,0.0,0.18219998478889465,1561097980,,,,0,,5,1.2999999523162842,19.700000762939453,0.0,0.0,0.0,0.0,C,1581170883550455
Raw,1727328868999,9775951066,18,0.0,-1411364077224048896,0.0,10.012020111083984,-8.672218322753906,0.0,0,9,0.0,51,18208301,28,24.5,-42.67234802246094,0.26298487186431885,16,0.0,0.18595659732818604,1561097980,,,,0,,5,1.2999999523162842,19.5,0.0,0.0,0.0,0.0,C,1581170883550455
Raw,1727328868999,9775951066,18,0.0,-1411364077224048896,0.0,10.012020111083984,-8.672218322753906,0.0,0,18,0.0,239,30868928872129,24,26.700000762939453,-516.8377685546875,0.21236379444599152,16,0.0,0.1501624435186386,1600312450,,,,0,,3,1.2999999523162842,21.700000762939453,0.0,0.0,0.0,0.0,C,1581170883550455
Raw,1727328868999,9775951066,18,0.0,-1411364077224048896,0.0,10.012020111083984,-8.672218322753906,0.0,0,33,0.0,3072,11820082,28,24.5,471.9472351074219,0.26298487186431885,16,0.0,0.18595659732818604,1575420030,,,,0,,6,1.2999999523162842,19.5,0.0,0.0,0.0,0.0,C,1581170883550455
Raw,1727328868999,9775951066,18,0.0,-1411364077224048896,0.0,10.012020111083984,-8.672218322753906,0.0,0,12,0.0,239,30868924557949,31,23.399999618530273,29.379295349121094,0.29536861181259155,16,0.0,0.20885515213012695,1601437440,,,,0,,3,1.2999999523162842,18.399999618530273,0.0,0.0,0.0,0.0,C,1581170883550455
Raw,1727328868999,9775951066,18,0.0,-1411364077224048896,0.0,10.012020111083984,-8.672218322753906,0.0,0,14,0.0,47,365672917270699,39,21.100000381469727,165.69476318359375,0.3857875466346741,16,0.0,0.2727903723716736,1561097980,,,,0,,5,1.2999999523162842,16.100000381469727,0.0,0.0,0.0,0.0,C,1581170883550455
Raw,1727328869999,10775951066,18,0.0,-1411364077224048896,0.0,10.012020111083984,-8.2688627243042,0.0,0,31,0.0,15,365687923263624,11,40.5,-677.4354858398438,0.0793493390083313,25,-61531.47465354507,0.05610791593790054,1575420030,,,,0,,1,1.2999999523162842,35.5,0.0,0.0,0.0,0.0,C,1581172214987238
Raw,1727328869999,10775951066,18,0.0,-1411364077224048896,0.0,10.012020111083984,-8.2688627243042,0.0,0,28,0.0,15,365687930521160,16,32.29999923706055,-341.22039794921875,0.13417595624923706,16,0.0,0.09487581998109818,1575420030,,,,0,,1,1.2999999523162842,27.299999237060547,0.0,0.0,0.0,0.0,C,1581172214987238
Raw,1727328869999,10775951066,18,0.0,-1411364077224048896,0.0,10.012020111083984,-8.2688627243042,0.0,0,27,0.0,15,365687922029655,17,31.399999618530273,222.02420043945312,0.14348027110099792,16,0.0,0.10145489871501923,1575420030,,,,0,,1,1.2999999523162842,26.399999618530273,0.0,0.0,0.0,0.0,C,1581172214987238
Raw,1727328869999,10775951066,18,0.0,-1411364077224048896,0.0,10.012020111083984,-8.2688627243042,0.0,0,23,0.0,15,365687925085511,22,27.799999237060547,46.14786911010742,0.19236689805984497,16,0.0,0.1360226273536682,1575420030,,,,0,,1,1.2999999523162842,22.799999237060547,0.0,0.0,0.0,0.0,C,1581172214987238
Raw,1727328869999,10775951066,18,0.0,-1411364077224048896,0.0,10.012020111083984,-8.2688627243042,0.0,0,32,0.0,15,365687927366618,24,26.5,246.0436553955078,0.21633315086364746,16,0.0,0.15296916663646698,1575420030,,,,0,,1,1.2999999523162842,21.5,0.0,0.0,0.0,0.0,C,1581172214987238
Raw,1727328869999,10775951066,18,0.0,-1411364077224048896,0.0,10.012020111083984,-8.2688627243042,0.0,0,10,0.0,15,365687926135508,29,24.100000381469727,-202.5956268310547,0.27411526441574097,16,0.0,0.19382689893245697,1575420030,,,,0,,1,1.2999999523162842,19.100000381469727,0.0,0.0,0.0,0.0,C,1581172214987238
Raw,1727328869999,10775951066,18,0.0,-1411364077224048896,0.0,10.012020111083984,-8.2688627243042,0.0,0,18,0.0,15,365687923433686,29,24.200000762939453,593.9439697265625,0.2712673544883728,16,0.0,0.1918131411075592,1575420030,,,,0,,1,1.2999999523162842,19.200000762939453,0.0,0.0,0.0,0.0,C,1581172214987238
Raw,1727328869999,10775951066,18,0.0,-1411364077224048896,0.0,10.012020111083984,-8.2688627243042,0.0,0,38,0.0,47,365673873151883,16,32.20000076293945,-137.92596435546875,0.13516435027122498,16,0.0,0.09557471424341202,1561097980,,,,0,,5,1.2999999523162842,27.200000762939453,0.0,0.0,0.0,0.0,C,1581172214987238
Raw,1727328869999,10775951066,18,0.0,-1411364077224048896,0.0,10.012020111083984,-8.2688627243042,0.0,0,9,0.0,3072,14592923,21,28.600000381469727,-109.63027954101562,0.17954610288143158,16,0.0,0.12695704400539398,1575420030,,,,0,,6,1.2999999523162842,23.600000381469727,0.0,0.0,0.0,0.0,C,1581172214987238
Raw,1727328869999,10775951066,18,0.0,-1411364077224048896,0.0,10.012020111083984,-8.2688627243042,0.0,0,10,0.0,3072,21100647,27,25.100000381469727,-184.74588012695312,0.2475186139345169,16,0.0,0.17502041161060333,1575420030,,,,0,,6,1.2999999523162842,20.100000381469727,0.0,0.0,0.0,0.0,C,1581172214987238
Raw,1727328869999,10775951066,18,0.0,-1411364077224048896,0.0,10.012020111083984,-8.2688627243042,0.0,0,25,0.0,51,3261776,23,27.299999237060547,-356.88751220703125,0.20108991861343384,16,0.0,0.14219067990779877,1561097980,,,,0,,5,1.2999999523162842,22.299999237060547,0.0,0.0,0.0,0.0,C,1581172214987238
Raw,1727328869999,10775951066,18,0.0,-1411364077224048896,0.0,10.012020111083984,-8.2688627243042,0.0,0,28,0.0,47,365673924713503,30,23.899999618530273,-5.643030166625977,0.2799473702907562,16,0.0,0.19795078039169312,1561097980,,,,0,,5,1.2999999523162842,18.899999618530273,0.0,0.0,0.0,0.0,C,1581172214987238
Raw,1727328869999,10775951066,18,0.0,-1411364077224048896,0.0,10.012020111083984,-8.2688627243042,0.0,0,43,0.0,47,365673920998283,24,26.399999618530273,514.9588012695312,0.21835967898368835,16,0.0,0.15440212190151215,1561097980,,,,0,,5,1.2999999523162842,21.399999618530273,0.0,0.0,0.0,0.0,C,1581172214987238
Raw,1727328869999,10775951066,18,0.0,-1411364077224048896,0.0,10.012020111083984,-8.2688627243042,0.0,0,24,0.0,51,19932407,25,26.200000762939453,71.8202896118164,0.2224990874528885,16,0.0,0.15732909739017487,1561097980,,,,0,,5,1.2999999523162842,21.200000762939453,0.0,0.0,0.0,0.0,C,1581172214987238
Raw,1727328869999,10775951066,18,0.0,-1411364077224048896,0.0,10.012020111083984,-8.2688627243042,0.0,0,23,0.0,51,13722140,28,24.799999237060547,-520.8939208984375,0.25507602095603943,16,0.0,0.18036425113677979,1561097980,,,,0,,5,1.2999999523162842,19.799999237060547,0.0,0.0,0.0,0.0,C,1581172214987238
Raw,1727328869999,10775951066,18,0.0,-1411364077224048896,0.0,10.012020111083984,-8.2688627243042,0.0,0,9,0.0,51,18208446,28,24.5,-42.04304122924805,0.26298487186431885,16,0.0,0.18595659732818604,1561097980,,,,0,,5,1.2999999523162842,19.5,0.0,0.0,0.0,0.0,C,1581172214987238
Raw,1727328869999,10775951066,18,0.0,-1411364077224048896,0.0,10.012020111083984,-8.2688627243042,0.0,0,18,0.0,239,30869928873956,24,26.5,-516.713623046875,0.21633315086364746,16,0.0,0.15296916663646698,1600312450,,,,0,,3,1.2999999523162842,21.5,0.0,0.0,0.0,0.0,C,1581172214987238
Raw,1727328869999,10775951066,18,0.0,-1411364077224048896,0.0,10.012020111083984,-8.2688627243042,0.0,0,33,0.0,3072,11818551,28,24.5,470.51617431640625,0.26298487186431885,16,0.0,0.18595659732818604,1575420030,,,,0,,6,1.2999999523162842,19.5,0.0,0.0,0.0,0.0,C,1581172214987238
Raw,1727328869999,10775951066,18,0.0,-1411364077224048896,0.0,10.012020111083984,-8.2688627243042,0.0,0,6,0.0,47,365673878996495,34,22.30000114440918,-4.4687652587890625,0.33412405848503113,16,0.0,0.2362591177225113,1561097980,,,,0,,5,1.2999999523162842,17.30000114440918,0.0,0.0,0.0,0.0,C,1581172214987238
Raw,1727328869999,10775951066,18,0.0,-1411364077224048896,0.0,10.012020111083984,-8.2688627243042,0.0,0,12,0.0,239,30869924557425,31,23.299999237060547,28.356937408447266,0.2986055314540863,16,0.0,0.21114397048950195,1601437440,,,,0,,3,1.2999999523162842,18.299999237060547,0.0,0.0,0.0,0.0,C,1581172214987238
Raw,1727328869999,10775951066,18,0.0,-1411364077224048896,0.0,10.012020111083984,-8.2688627243042,0.0,0,14,0.0,47,365673917270187,38,21.299999237060547,164.80857849121094,0.37637853622436523,16,0.0,0.2661372721195221,1561097980,,,,0,,5,1.2999999523162842,16.299999237060547,0.0,0.0,0.0,0.0,C,1581172214987238
Fix,FLP,12.9340917000,77.5419109000,795.7000122070312,1.1963376,25.527,288.68454,1727328872514,1.5,45.0,1450118165000000,3.906738,0,,,
Raw,1727328870999,11775951066,18,0.0,-1411364077224048896,0.0,10.012020111083984,-7.119948863983154,0.0,0,31,0.0,15,365688923265890,11,40.5,-677.2489013671875,0.0793493390083313,25,-62208.78253231151,0.05610791593790054,1575420030,,,,0,,1,1.2999999523162842,35.5,0.0,0.0,0.0,0.0,C,1581173875450820
Raw,1727328870999,11775951066,18,0.0,-1411364077224048896,0.0,10.012020111083984,-7.119948863983154,0.0,0,27,0.0,15,365688922028930,17,31.399999618530273,223.54454040527344,0.14348027110099792,16,0.0,0.10145489871501923,1575420030,,,,0,,1,1.2999999523162842,26.399999618530273,0.0,0.0,0.0,0.0,C,1581173875450820
Raw,1727328870999,11775951066,18,0.0,-1411364077224048896,0.0,10.012020111083984,-7.119948863983154,0.0,0,28,0.0,15,365688930522316,16,32.20000076293945,-340.2231750488281,0.13516435027122498,16,0.0,0.09557471424341202,1575420030,,,,0,,1,1.2999999523162842,27.200000762939453,0.0,0.0,0.0,0.0,C,1581173875450820
Raw,1727328870999,11775951066,18,0.0,-1411364077224048896,0.0,10.012020111083984,-7.119948863983154,0.0,0,23,0.0,15,365688925085408,22,27.799999237060547,46.25688171386719,0.19236689805984497,16,0.0,0.1360226273536682,1575420030,,,,0,,1,1.2999999523162842,22.799999237060547,0.0,0.0,0.0,0.0,C,1581173875450820
Raw,1727328870999,11775951066,18,0.0,-1411364077224048896,0.0,10.012020111083984,-7.119948863983154,0.0,0,32,0.0,15,365688927365793,24,26.299999237060547,246.5591278076172,0.22041483223438263,16,0.0,0.15585532784461975,1575420030,,,,0,,1,1.2999999523162842,21.299999237060547,0.0,0.0,0.0,0.0,C,1581173875450820
Raw,1727328870999,11775951066,18,0.0,-1411364077224048896,0.0,10.012020111083984,-7.119948863983154,0.0,0,8,0.0,15,365688918352964,32,23.200000762939453,-2.638223886489868,0.3018958866596222,16,0.0,0.21347057819366455,1575420030,,,,0,,1,1.2999999523162842,18.200000762939453,0.0,0.0,0.0,0.0,C,1581173875450820
Raw,1727328870999,11775951066,18,0.0,-1411364077224048896,0.0,10.012020111083984,-7.119948863983154,0.0,0,10,0.0,15,365688926136191,30,24.0,-201.36526489257812,0.2770083248615265,16,0.0,0.19587258994579315,1575420030,,,,0,,1,1.2999999523162842,19.0,0.0,0.0,0.0,0.0,C,1581173875450820
Raw,1727328870999,11775951066,18,0.0,-1411364077224048896,0.0,10.012020111083984,-7.119948863983154,0.0,0,18,0.0,15,365688923431727,29,24.100000381469727,593.0963134765625,0.27411526441574097,16,0.0,0.19382689893245697,1575420030,,,,0,,1,1.2999999523162842,19.100000381469727,0.0,0.0,0.0,0.0,C,1581173875450820
Raw,1727328870999,11775951066,18,0.0,-1411364077224048896,0.0,10.012020111083984,-7.119948863983154,0.0,0,25,0.0,15,365688919287129,45,19.600000381469727,-206.82879638671875,0.4691311717033386,16,0.0,0.3317226469516754,1575420030,,,,0,,1,1.2999999523162842,14.600000381469727,0.0,0.0,0.0,0.0,C,1581173875450820
Raw,1727328870999,11775951066,18,0.0,-1411364077224048896,0.0,10.012020111083984,-7.119948863983154,0.0,0,38,0.0,47,365674873152358,16,32.099998474121094,-138.22828674316406,0.13616371154785156,16,0.0,0.09628135710954666,1561097980,,,,0,,5,1.2999999523162842,27.100000381469727,0.0,0.0,0.0,0.0,C,1581173875450820
Raw,1727328870999,11775951066,18,0.0,-1411364077224048896,0.0,10.012020111083984,-7.119948863983154,0.0,0,28,0.0,47,365674924713531,30,23.899999618530273,-4.877560615539551,0.2799473702907562,16,0.0,0.19795078039169312,1561097980,,,,0,,5,1.2999999523162842,18.899999618530273,0.0,0.0,0.0,0.0,C,1581173875450820
Raw,1727328870999,11775951066,18,0.0,-1411364077224048896,0.0,10.012020111083984,-7.119948863983154,0.0,0,9,0.0,3072,14593320,21,28.600000381469727,-109.19445037841797,0.17954610288143158,16,0.0,0.12695704400539398,1575420030,,,,0,,6,1.2999999523162842,23.600000381469727,0.0,0.0,0.0,0.0,C,1581173875450820
Raw,1727328870999,11775951066,18,0.0,-1411364077224048896,0.0,10.012020111083984,-7.119948863983154,0.0,0,10,0.0,3072,21101293,27,25.100000381469727,-185.45765686035156,0.2475186139345169,16,0.0,0.17502041161060333,1575420030,,,,0,,6,1.2999999523162842,20.100000381469727,0.0,0.0,0.0,0.0,C,1581173875450820
Raw,1727328870999,11775951066,18,0.0,-1411364077224048896,0.0,10.012020111083984,-7.119948863983154,0.0,0,25,0.0,51,3262933,23,27.299999237060547,-356.06427001953125,0.20108991861343384,16,0.0,0.14219067990779877,1561097980,,,,0,,5,1.2999999523162842,22.299999237060547,0.0,0.0,0.0,0.0,C,1581173875450820
Raw,1727328870999,11775951066,18,0.0,-1411364077224048896,0.0,10.012020111083984,-7.119948863983154,0.0,0,43,0.0,47,365674920996607,24,26.399999618530273,514.6611938476562,0.21835967898368835,16,0.0,0.15440212190151215,1561097980,,,,0,,5,1.2999999523162842,21.399999618530273,0.0,0.0,0.0,0.0,C,1581173875450820
Raw,1727328870999,11775951066,18,0.0,-1411364077224048896,0.0,10.012020111083984,-7.119948863983154,0.0,0,24,0.0,51,19932243,25,26.200000762939453,72.1893310546875,0.2224990874528885,16,0.0,0.15732909739017487,1561097980,,,,0,,5,1.2999999523162842,21.200000762939453,0.0,0.0,0.0,0.0,C,1581173875450820
Raw,1727328870999,11775951066,18,0.0,-1411364077224048896,0.0,10.012020111083984,-7.119948863983154,0.0,0,23,0.0,51,13723881,27,25.0,-521.4466552734375,0.25,16,0.0,0.1767749935388565,1561097980,,,,0,,5,1.2999999523162842,20.0,0.0,0.0,0.0,0.0,C,1581173875450820
Raw,1727328870999,11775951066,18,0.0,-1411364077224048896,0.0,10.012020111083984,-7.119948863983154,0.0,0,9,0.0,51,18208593,28,24.5,-42.74150848388672,0.26298487186431885,16,0.0,0.18595659732818604,1561097980,,,,0,,5,1.2999999523162842,19.5,0.0,0.0,0.0,0.0,C,1581173875450820
Raw,1727328870999,11775951066,18,0.0,-1411364077224048896,0.0,10.012020111083984,-7.119948863983154,0.0,0,18,0.0,239,30870928875792,24,26.299999237060547,-513.5943603515625,0.22041483223438263,16,0.0,0.15585532784461975,1600312450,,,,0,,3,1.2999999523162842,21.299999237060547,0.0,0.0,0.0,0.0,C,1581173875450820
Raw,1727328870999,11775951066,18,0.0,-1411364077224048896,0.0,10.012020111083984,-7.119948863983154,0.0,0,33,0.0,3072,11817004,29,24.399999618530273,471.58953857421875,0.2657030522823334,16,0.0,0.18787862360477448,1575420030,,,,0,,6,1.2999999523162842,19.399999618530273,0.0,0.0,0.0,0.0,C,1581173875450820
Raw,1727328870999,11775951066,18,0.0,-1411364077224048896,0.0,10.012020111083984,-7.119948863983154,0.0,0,16,0.0,47,365674876314035,32,23.200000762939453,40.33552551269531,0.3018958866596222,16,0.0,0.21347057819366455,1561097980,,,,0,,5,1.2999999523162842,18.200000762939453,0.0,0.0,0.0,0.0,C,1581173875450820
Raw,1727328870999,11775951066,18,0.0,-1411364077224048896,0.0,10.012020111083984,-7.119948863983154,0.0,0,24,0.0,239,30870927494797,36,21.899999618530273,740.5132446289062,0.35012781620025635,16,0.0,0.24757537245750427,1603124990,,,,0,,3,1.2999999523162842,16.899999618530273,0.0,0.0,0.0,0.0,C,1581173875450820
Raw,1727328870999,11775951066,18,0.0,-1411364077224048896,0.0,10.012020111083984,-7.119948863983154,0.0,0,6,0.0,47,365674878996453,34,22.299999237060547,-4.179723262786865,0.3341241180896759,16,0.0,0.23625916242599487,1561097980,,,,0,,5,1.2999999523162842,17.299999237060547,0.0,0.0,0.0,0.0,C,1581173875450820
Raw,1727328870999,11775951066,18,0.0,-1411364077224048896,0.0,10.012020111083984,-7.119948863983154,0.0,0,12,0.0,239,30870924557332,32,23.200000762939453,27.921493530273438,0.3018958866596222,16,0.0,0.21347057819366455,1601437440,,,,0,,3,1.2999999523162842,18.200000762939453,0.0,0.0,0.0,0.0,C,1581173875450820
Raw,1727328870999,11775951066,18,0.0,-1411364077224048896,0.0,10.012020111083984,-7.119948863983154,0.0,0,14,0.0,47,365674917269624,38,21.299999237060547,164.16165161132812,0.37637853622436523,16,0.0,0.2661372721195221,1561097980,,,,0,,5,1.2999999523162842,16.299999237060547,0.0,0.0,0.0,0.0,C,1581173875450820
Raw,1727328871999,12775951066,18,0.0,-1411364077224048896,0.0,10.012020111083984,-7.061057090759277,0.0,0,27,0.0,15,365689922028176,17,31.399999618530273,222.6416015625,0.14348027110099792,16,0.0,0.10145489871501923,1575420030,,,,0,,1,1.2999999523162842,26.399999618530273,0.0,0.0,0.0,0.0,C,1581175348170685
Raw,1727328871999,12775951066,18,0.0,-1411364077224048896,0.0,10.012020111083984,-7.061057090759277,0.0,0,23,0.0,15,365689925085226,22,27.700000762939453,44.89820861816406,0.19406546652317047,16,0.0,0.13722369074821472,1575420030,,,,0,,1,1.2999999523162842,22.700000762939453,0.0,0.0,0.0,0.0,C,1581175348170685
Raw,1727328871999,12775951066,18,0.0,-1411364077224048896,0.0,10.012020111083984,-7.061057090759277,0.0,0,31,0.0,15,365689923268148,11,40.5,-677.2042846679688,0.0793493390083313,16,0.0,0.05610791593790054,1575420030,,,,0,,1,1.2999999523162842,35.5,0.0,0.0,0.0,0.0,C,1581175348170685
Raw,1727328871999,12775951066,18,0.0,-1411364077224048896,0.0,10.012020111083984,-7.061057090759277,0.0,0,32,0.0,15,365689927364905,25,26.100000381469727,245.4644317626953,0.22461310029029846,16,0.0,0.1588239222764969,1575420030,,,,0,,1,1.2999999523162842,21.100000381469727,0.0,0.0,0.0,0.0,C,1581175348170685
Raw,1727328871999,12775951066,18,0.0,-1411364077224048896,0.0,10.012020111083984,-7.061057090759277,0.0,0,10,0.0,15,365689926136757,30,24.0,-201.24234008789062,0.2770083248615265,16,0.0,0.19587258994579315,1575420030,,,,0,,1,1.2999999523162842,19.0,0.0,0.0,0.0,0.0,C,1581175348170685
Raw,1727328871999,12775951066,18,0.0,-1411364077224048896,0.0,10.012020111083984,-7.061057090759277,0.0,0,28,0.0,15,365689930523521,16,32.20000076293945,-340.82830810546875,0.13516435027122498,16,0.0,0.09557471424341202,1575420030,,,,0,,1,1.2999999523162842,27.200000762939453,0.0,0.0,0.0,0.0,C,1581175348170685
Raw,1727328871999,12775951066,18,0.0,-1411364077224048896,0.0,10.012020111083984,-7.061057090759277,0.0,0,18,0.0,15,365689923429773,30,24.0,593.0615844726562,0.2770083248615265,16,0.0,0.19587258994579315,1575420030,,,,0,,1,1.2999999523162842,19.0,0.0,0.0,0.0,0.0,C,1581175348170685
Raw,1727328871999,12775951066,18,0.0,-1411364077224048896,0.0,10.012020111083984,-7.061057090759277,0.0,0,8,0.0,15,365689918352960,32,23.200000762939453,-3.1771652698516846,0.3018958866596222,16,0.0,0.21347057819366455,1575420030,,,,0,,1,1.2999999523162842,18.200000762939453,0.0,0.0,0.0,0.0,C,1581175348170685
Raw,1727328871999,12775951066,18,0.0,-1411364077224048896,0.0,10.012020111083984,-7.061057090759277,0.0,0,25,0.0,15,365689919287877,45,19.600000381469727,-206.95640563964844,0.4691311717033386,16,0.0,0.3317226469516754,1575420030,,,,0,,1,1.2999999523162842,14.600000381469727,0.0,0.0,0.0,0.0,C,1581175348170685
Raw,1727328871999,12775951066,18,0.0,-1411364077224048896,0.0,10.012020111083984,-7.061057090759277,0.0,0,28,0.0,47,365675924713558,21,28.399999618530273,-5.488247394561768,0.18262839317321777,16,0.0,0.12913653254508972,1561097980,,,,0,,5,1.2999999523162842,23.399999618530273,0.0,0.0,0.0,0.0,C,1581175348170685
Raw,1727328871999,12775951066,18,0.0,-1411364077224048896,0.0,10.012020111083984,-7.061057090759277,0.0,0,38,0.0,47,365675873152836,16,32.099998474121094,-138.39602661132812,0.13616371154785156,16,0.0,0.09628135710954666,1561097980,,,,0,,5,1.2999999523162842,27.100000381469727,0.0,0.0,0.0,0.0,C,1581175348170685
Raw,1727328871999,12775951066,18,0.0,-1411364077224048896,0.0,10.012020111083984,-7.061057090759277,0.0,0,9,0.0,3072,14593684,21,28.600000381469727,-109.56631469726562,0.17954610288143158,16,0.0,0.12695704400539398,1575420030,,,,0,,6,1.2999999523162842,23.600000381469727,0.0,0.0,0.0,0.0,C,1581175348170685
Raw,1727328871999,12775951066,18,0.0,-1411364077224048896,0.0,10.012020111083984,-7.061057090759277,0.0,0,10,0.0,3072,21101922,24,26.399999618530273,-186.83978271484375,0.21835967898368835,16,0.0,0.15440212190151215,1575420030,,,,0,,6,1.2999999523162842,21.399999618530273,0.0,0.0,0.0,0.0,C,1581175348170685
Raw,1727328871999,12775951066,18,0.0,-1411364077224048896,0.0,10.012020111083984,-7.061057090759277,0.0,0,25,0.0,51,3264179,23,27.200000762939453,-355.8386535644531,0.2029055953025818,16,0.0,0.1434745490550995,1561097980,,,,0,,5,1.2999999523162842,22.200000762939453,0.0,0.0,0.0,0.0,C,1581175348170685
Raw,1727328871999,12775951066,18,0.0,-1411364077224048896,0.0,10.012020111083984,-7.061057090759277,0.0,0,43,0.0,47,365675920994813,24,26.399999618530273,514.5497436523438,0.21835967898368835,16,0.0,0.15440212190151215,1561097980,,,,0,,5,1.2999999523162842,21.399999618530273,0.0,0.0,0.0,0.0,C,1581175348170685
Raw,1727328871999,12775951066,18,0.0,-1411364077224048896,0.0,10.012020111083984,-7.061057090759277,0.0,0,24,0.0,51,19932046,25,26.100000381469727,71.52105712890625,0.22461310029029846,16,0.0,0.1588239222764969,1561097980,,,,0,,5,1.2999999523162842,21.100000381469727,0.0,0.0,0.0,0.0,C,1581175348170685
Raw,1727328871999,12775951066,18,0.0,-1411364077224048896,0.0,10.012020111083984,-7.061057090759277,0.0,0,23,0.0,51,13725630,27,25.0,-522.5928344726562,0.25,16,0.0,0.1767749935388565,1561097980,,,,0,,5,1.2999999523162842,20.0,0.0,0.0,0.0,0.0,C,1581175348170685
Raw,1727328871999,12775951066,18,0.0,-1411364077224048896,0.0,10.012020111083984,-7.061057090759277,0.0,0,16,0.0,47,365675876313884,32,23.200000762939453,40.34899139404297,0.3018958866596222,16,0.0,0.21347057819366455,1561097980,,,,0,,5,1.2999999523162842,18.200000762939453,0.0,0.0,0.0,0.0,C,1581175348170685
Raw,1727328871999,12775951066,18,0.0,-1411364077224048896,0.0,10.012020111083984,-7.061057090759277,0.0,0,9,0.0,51,18208724,29,24.399999618530273,-43.52578353881836,0.2657030522823334,16,0.0,0.18787862360477448,1561097980,,,,0,,5,1.2999999523162842,19.399999618530273,0.0,0.0,0.0,0.0,C,1581175348170685
Raw,1727328871999,12775951066,18,0.0,-1411364077224048896,0.0,10.012020111083984,-7.061057090759277,0.0,0,18,0.0,239,30871928877493,25,26.100000381469727,-513.5133666992188,0.22461310029029846,16,0.0,0.1588239222764969,1600312450,,,,0,,3,1.2999999523162842,21.100000381469727,0.0,0.0,0.0,0.0,C,1581175348170685
Raw,1727328871999,12775951066,18,0.0,-1411364077224048896,0.0,10.012020111083984,-7.061057090759277,0.0,0,33,0.0,3072,11815323,29,24.299999237060547,473.431884765625,0.2684636116027832,16,0.0,0.18983061611652374,1575420030,,,,0,,6,1.2999999523162842,19.299999237060547,0.0,0.0,0.0,0.0,C,1581175348170685
Raw,1727328871999,12775951066,18,0.0,-1411364077224048896,0.0,10.012020111083984,-7.061057090759277,0.0,0,24,0.0,239,30871927492477,36,21.899999618530273,740.70751953125,0.35012781620025635,16,0.0,0.24757537245750427,1603124990,,,,0,,3,1.2999999523162842,16.899999618530273,0.0,0.0,0.0,0.0,C,1581175348170685
Raw,1727328871999,12775951066,18,0.0,-1411364077224048896,0.0,10.012020111083984,-7.061057090759277,0.0,0,6,0.0,47,365675878996495,34,22.299999237060547,-3.326310396194458,0.3341241180896759,16,0.0,0.23625916242599487,1561097980,,,,0,,5,1.2999999523162842,17.299999237060547,0.0,0.0,0.0,0.0,C,1581175348170685
Raw,1727328871999,12775951066,18,0.0,-1411364077224048896,0.0,10.012020111083984,-7.061057090759277,0.0,0,12,0.0,239,30871924557206,32,23.0,26.841796875,0.3086419701576233,16,0.0,0.21824073791503906,1601437440,,,,0,,3,1.2999999523162842,18.0,0.0,0.0,0.0,0.0,C,1581175348170685
Raw,1727328871999,12775951066,18,0.0,-1411364077224048896,0.0,10.012020111083984,-7.061057090759277,0.0,0,14,0.0,47,365675917269015,38,21.200000762939453,164.76173400878906,0.38103944063186646,16,0.0,0.26943299174308777,1561097980,,,,0,,5,1.2999999523162842,16.200000762939453,0.0,0.0,0.0,0.0,C,1581175348170685
Raw,1727328871999,12775951066,18,0.0,-1411364077224048896,0.0,10.012020111083984,-7.061057090759277,0.0,0,4,0.0,239,30871921166130,57,17.700000762939453,-113.96125030517578,0.6200012564659119,16,0.0,0.4384028911590576,1605374980,,,,0,,3,1.2999999523162842,12.699999809265137,0.0,0.0,0.0,0.0,C,1581175348170685
Raw,1727328872999,13775951005,18,0.0,-1411364077224048896,0.0,10.012020111083984,-8.330906867980957,0.0,0,27,0.0,15,365690922027380,17,31.600000381469727,222.7454376220703,0.1413307636976242,16,0.0,0.09993498027324677,1575420030,,,,0,,1,1.2999999523162842,26.600000381469727,0.0,0.0,0.0,0.0,C,1581176515577531
Raw,1727328872999,13775951005,18,0.0,-1411364077224048896,0.0,10.012020111083984,-8.330906867980957,0.0,0,23,0.0,15,365690925085070,22,27.600000381469727,43.505863189697266,0.19578666985034943,16,0.0,0.13844075798988342,1575420030,,,,0,,1,1.2999999523162842,22.600000381469727,0.0,0.0,0.0,0.0,C,1581176515577531
Raw,1727328872999,13775951005,18,0.0,-1411364077224048896,0.0,10.012020111083984,-8.330906867980957,0.0,0,31,0.0,15,365690923270407,11,40.0,-676.287109375,0.08163265138864517,16,0.0,0.05772244930267334,1575420030,,,,0,,1,1.2999999523162842,35.0,0.0,0.0,0.0,0.0,C,1581176515577531
Raw,1727328872999,13775951005,18,0.0,-1411364077224048896,0.0,10.012020111083984,-8.330906867980957,0.0,0,32,0.0,15,365690927364034,25,25.899999618530273,245.33706665039062,0.2289324849843979,16,0.0,0.16187815368175507,1575420030,,,,0,,1,1.2999999523162842,20.899999618530273,0.0,0.0,0.0,0.0,C,1581176515577531
Raw,1727328872999,13775951005,18,0.0,-1411364077224048896,0.0,10.012020111083984,-8.330906867980957,0.0,0,10,0.0,15,365690926137375,30,24.0,-202.06871032714844,0.2770083248615265,16,0.0,0.19587258994579315,1575420030,,,,0,,1,1.2999999523162842,19.0,0.0,0.0,0.0,0.0,C,1581176515577531
Raw,1727328872999,13775951005,18,0.0,-1411364077224048896,0.0,10.012020111083984,-8.330906867980957,0.0,0,18,0.0,15,365690923427719,30,23.899999618530273,594.0892333984375,0.2799473702907562,16,0.0,0.19795078039169312,1575420030,,,,0,,1,1.2999999523162842,18.899999618530273,0.0,0.0,0.0,0.0,C,1581176515577531
Raw,1727328872999,13775951005,18,0.0,-1411364077224048896,0.0,10.012020111083984,-8.330906867980957,0.0,0,8,0.0,15,365690918352921,31,23.399999618530273,-3.860663652420044,0.29536861181259155,16,0.0,0.20885515213012695,1575420030,,,,0,,1,1.2999999523162842,18.399999618530273,0.0,0.0,0.0,0.0,C,1581176515577531
Raw,1727328872999,13775951005,18,0.0,-1411364077224048896,0.0,10.012020111083984,-8.330906867980957,0.0,0,28,0.0,15,365690930524549,17,31.899999618530273,-341.6272277832031,0.13819599151611328,16,0.0,0.09771838784217834,1575420030,,,,0,,1,1.2999999523162842,26.899999618530273,0.0,0.0,0.0,0.0,C,1581176515577531
Raw,1727328872999,13775951005,18,0.0,-1411364077224048896,0.0,10.012020111083984,-8.330906867980957,0.0,0,25,0.0,15,365690919288527,45,19.600000381469727,-207.79287719726562,0.4691311717033386,16,0.0,0.3317226469516754,1575420030,,,,0,,1,1.2999999523162842,14.600000381469727,0.0,0.0,0.0,0.0,C,1581176515577531
Raw,1727328872999,13775951005,18,0.0,-1411364077224048896,0.0,10.012020111083984,-8.330906867980957,0.0,0,28,0.0,47,365676924713501,18,31.0,-5.1444220542907715,0.14792899787425995,16,0.0,0.10460059344768524,1561097980,,,,0,,5,1.2999999523162842,26.0,0.0,0.0,0.0,0.0,C,1581176515577531
Raw,1727328872999,13775951005,18,0.0,-1411364077224048896,0.0,10.012020111083984,-8.330906867980957,0.0,0,38,0.0,47,365676873153212,17,32.0,-138.9741973876953,0.13717420399188995,16,0.0,0.09699588268995285,1561097980,,,,0,,5,1.2999999523162842,27.0,0.0,0.0,0.0,0.0,C,1581176515577531
Raw,1727328872999,13775951005,18,0.0,-1411364077224048896,0.0,10.012020111083984,-8.330906867980957,0.0,0,9,0.0,3072,14594008,20,28.799999237060547,-109.48591613769531,0.17654122412204742,16,0.0,0.12483230233192444,1575420030,,,,0,,6,1.2999999523162842,23.799999237060547,0.0,0.0,0.0,0.0,C,1581176515577531
Raw,1727328872999,13775951005,18,0.0,-1411364077224048896,0.0,10.012020111083984,-8.330906867980957,0.0,0,10,0.0,3072,21102440,22,27.600000381469727,-184.66746520996094,0.19578666985034943,16,0.0,0.13844075798988342,1575420030,,,,0,,6,1.2999999523162842,22.600000381469727,0.0,0.0,0.0,0.0,C,1581176515577531
Raw,1727328872999,13775951005,18,0.0,-1411364077224048896,0.0,10.012020111083984,-8.330906867980957,0.0,0,25,0.0,51,3265288,23,27.200000762939453,-357.0361633300781,0.2029055953025818,16,0.0,0.1434745490550995,1561097980,,,,0,,5,1.2999999523162842,22.200000762939453,0.0,0.0,0.0,0.0,C,1581176515577531
Raw,1727328872999,13775951005,18,0.0,-1411364077224048896,0.0,10.012020111083984,-8.330906867980957,0.0,0,24,0.0,51,19931737,25,26.100000381469727,70.4026870727539,0.22461310029029846,16,0.0,0.1588239222764969,1561097980,,,,0,,5,1.2999999523162842,21.100000381469727,0.0,0.0,0.0,0.0,C,1581176515577531
Raw,1727328872999,13775951005,18,0.0,-1411364077224048896,0.0,10.012020111083984,-8.330906867980957,0.0,0,43,0.0,47,365676920993041,24,26.299999237060547,514.5390625,0.22041483223438263,16,0.0,0.15585532784461975,1561097980,,,,0,,5,1.2999999523162842,21.299999237060547,0.0,0.0,0.0,0.0,C,1581176515577531
Raw,1727328872999,13775951005,18,0.0,-1411364077224048896,0.0,10.012020111083984,-8.330906867980957,0.0,0,16,0.0,47,365676876313791,31,23.399999618530273,39.705909729003906,0.29536861181259155,16,0.0,0.20885515213012695,1561097980,,,,0,,5,1.2999999523162842,18.399999618530273,0.0,0.0,0.0,0.0,C,1581176515577531
Raw,1727328872999,13775951005,18,0.0,-1411364077224048896,0.0,10.012020111083984,-8.330906867980957,0.0,0,23,0.0,51,13727279,27,25.0,-522.1495361328125,0.25,16,0.0,0.1767749935388565,1561097980,,,,0,,5,1.2999999523162842,20.0,0.0,0.0,0.0,0.0,C,1581176515577531
Raw,1727328872999,13775951005,18,0.0,-1411364077224048896,0.0,10.012020111083984,-8.330906867980957,0.0,0,9,0.0,51,18208832,29,24.399999618530273,-43.02226638793945,0.2657030522823334,16,0.0,0.18787862360477448,1561097980,,,,0,,5,1.2999999523162842,19.399999618530273,0.0,0.0,0.0,0.0,C,1581176515577531
Raw,1727328872999,13775951005,18,0.0,-1411364077224048896,0.0,10.012020111083984,-8.330906867980957,0.0,0,18,0.0,239,30872928878988,25,25.899999618530273,-513.5606079101562,0.2289324849843979,16,0.0,0.16187815368175507,1600312450,,,,0,,3,1.2999999523162842,20.899999618530273,0.0,0.0,0.0,0.0,C,1581176515577531
Raw,1727328872999,13775951005,18,0.0,-1411364077224048896,0.0,10.012020111083984,-8.330906867980957,0.0,0,24,0.0,239,30872927489922,34,22.399999618530273,741.0894775390625,0.3302946388721466,16,0.0,0.23355133831501007,1603124990,,,,0,,3,1.2999999523162842,17.399999618530273,0.0,0.0,0.0,0.0,C,1581176515577531
Raw,1727328872999,13775951005,18,0.0,-1411364077224048896,0.0,10.012020111083984,-8.330906867980957,0.0,0,33,0.0,3072,11813734,29,24.200000762939453,474.3311767578125,0.2712673544883728,16,0.0,0.1918131411075592,1575420030,,,,0,,6,1.2999999523162842,19.200000762939453,0.0,0.0,0.0,0.0,C,1581176515577531
Raw,1727328872999,13775951005,18,0.0,-1411364077224048896,0.0,10.012020111083984,-8.330906867980957,0.0,0,6,0.0,47,365676878996400,34,22.299999237060547,-4.711205959320068,0.3341241180896759,16,0.0,0.23625916242599487,1561097980,,,,0,,5,1.2999999523162842,17.299999237060547,0.0,0.0,0.0,0.0,C,1581176515577531
Raw,1727328872999,13775951005,18,0.0,-1411364077224048896,0.0,10.012020111083984,-8.330906867980957,0.0,0,14,0.0,47,365676917268392,38,21.200000762939453,165.37448120117188,0.38103944063186646,16,0.0,0.26943299174308777,1561097980,,,,0,,5,1.2999999523162842,16.200000762939453,0.0,0.0,0.0,0.0,C,1581176515577531
Raw,1727328872999,13775951005,18,0.0,-1411364077224048896,0.0,10.012020111083984,-8.330906867980957,0.0,0,12,0.0,239,30872924556950,33,22.799999237060547,26.25983238220215,0.31561675667762756,16,0.0,0.2231726050376892,1601437440,,,,0,,3,1.2999999523162842,17.799999237060547,0.0,0.0,0.0,0.0,C,1581176515577531
Raw,1727328872999,13775951005,18,0.0,-1411364077224048896,0.0,10.012020111083984,-8.330906867980957,0.0,0,4,0.0,239,30872921166457,57,17.700000762939453,-114.27528381347656,0.6200012564659119,16,0.0,0.4384028911590576,1605374980,,,,0,,3,1.2999999523162842,12.699999809265137,0.0,0.0,0.0,0.0,C,1581176515577531
Raw,1727328873999,14775951005,18,0.0,-1411364077224048896,0.0,10.012020111083984,-9.287921905517578,0.0,0,27,0.0,15,365691922026652,17,32.0,222.20315551757812,0.13717420399188995,19,-57593.35010331409,0.19214272499084473,1575420030,,,,0,,1,1.2999999523162842,27.0,0.0,0.0,0.0,0.0,C,1581177799094725
Raw,1727328873999,14775951005,18,0.0,-1411364077224048896,0.0,10.012020111083984,-9.287921905517578,0.0,0,23,0.0,15,365691925084927,22,27.600000381469727,45.40248489379883,0.19578666985034943,16,0.0,0.13844075798988342,1575420030,,,,0,,1,1.2999999523162842,22.600000381469727,0.0,0.0,0.0,0.0,C,1581177799094725
