# 
# Header Description:
# 
# Version: v3.1.0.2 Platform: 13 Manufacturer: OPPO Model: CPH2371 GNSS Hardware Model Name: MTK_MNLD_default,MNL_VER_default
# 
# Raw,utcTimeMillis,TimeNanos,LeapSecond,TimeUncertaintyNanos,FullBiasNanos,BiasNanos,BiasUncertaintyNanos,DriftNanosPerSecond,DriftUncertaintyNanosPerSecond,HardwareClockDiscontinuityCount,Svid,TimeOffsetNanos,State,ReceivedSvTimeNanos,ReceivedSvTimeUncertaintyNanos,Cn0DbHz,PseudorangeRateMetersPerSecond,PseudorangeRateUncertaintyMetersPerSecond,AccumulatedDeltaRangeState,AccumulatedDeltaRangeMeters,AccumulatedDeltaRangeUncertaintyMeters,CarrierFrequencyHz,CarrierCycles,CarrierPhase,CarrierPhaseUncertainty,MultipathIndicator,SnrInDb,ConstellationType,AgcDb,BasebandCn0DbHz,FullInterSignalBiasNanos,FullInterSignalBiasUncertaintyNanos,SatelliteInterSignalBiasNanos,SatelliteInterSignalBiasUncertaintyNanos,CodeType,ChipsetElapsedRealtimeNanos,IsFullTracking
# 
# UncalAccel,utcTimeMillis,elapsedRealtimeNanos,UncalAccelXMps2,UncalAccelYMps2,UncalAccelZMps2,BiasXMps2,BiasYMps2,BiasZMps2
# 
# Accel,utcTimeMillis,elapsedRealtimeNanos,AccelXMps2,AccelYMps2,AccelZMps2
# 
# UncalGyro,utcTimeMillis,elapsedRealtimeNanos,UncalGyroXRadPerSec,UncalGyroYRadPerSec,UncalGyroZRadPerSec,DriftXRadPerSec,DriftYRadPerSec,DriftZRadPerSec
# 
# Gyro,utcTimeMillis,elapsedRealtimeNanos,GyroXRadPerSec,GyroYRadPerSec,GyroZRadPerSec
# 
# UncalMag,utcTimeMillis,elapsedRealtimeNanos,UncalMagXMicroT,UncalMagYMicroT,UncalMagZMicroT,BiasXMicroT,BiasYMicroT,BiasZMicroT
# 
# Mag,utcTimeMillis,elapsedRealtimeNanos,MagXMicroT,MagYMicroT,MagZMicroT
# 
# Pressure,utcTimeMillis,elapsedRealtimeNanos,PressureHpa
# 
# OrientationDeg,utcTimeMillis,elapsedRealtimeNanos,yawDeg,rollDeg,pitchDeg
# 
# Fix,Provider,LatitudeDegrees,LongitudeDegrees,AltitudeMeters,SpeedMps,AccuracyMeters,BearingDegrees,UnixTimeMillis,SpeedAccuracyMps,BearingAccuracyDegrees,elapsedRealtimeNanos,VerticalAccuracyMeters,MockLocation,NumberOfUsedSignals,VerticalSpeedAccuracyMps,SolutionType
# 
# Nav,Svid,Type,Status,MessageId,Sub-messageId,Data(Bytes)
# 
# Status,UnixTimeMillis,SignalCount,SignalIndex,ConstellationType,Svid,CarrierFrequencyHz,Cn0DbHz,AzimuthDegrees,ElevationDegrees,UsedInFix,HasAlmanacData,HasEphemerisData,BasebandCn0DbHz
# 
# Agc,utcTimeMillis,TimeNanos,LeapSecond,TimeUncertaintyNanos,FullBiasNanos,BiasNanos,BiasUncertaintyNanos,DriftNanosPerSecond,DriftUncertaintyNanosPerSecond,HardwareClockDiscontinuityCount,AgcDb,CarrierFrequencyHz,ConstellationType
# 
Fix,FLP,12.9341119000,77.5420432000,798.2999877929688,0.00037625074,2.533,,1727328867004,2.1,,117597145000000,1.4276475,0,,,
Status,,66,0,1,28,1575420030,25.30,177.0,62.0,1,0,0,25.3
Status,,66,1,1,32,1575420030,19.70,341.0,50.0,1,0,0,19.7
Status,,66,2,1,10,1575420030,24.80,15.0,40.0,1,0,0,24.8
Status,,66,3,2,123,1575420030,0.00,257.0,35.0,0,0,0,0.0
Status,,66,4,1,23,1575420030,22.20,65.0,32.0,1,0,0,22.2
Status,,66,5,1,18,1575420030,0.00,144.0,30.0,0,0,0,0.0
Status,,66,6,1,27,1575420030,26.20,253.0,27.0,1,0,0,26.2
Status,,66,7,1,31,1575420030,24.60,200.0,27.0,1,0,0,24.6
Status,,66,8,2,132,1575420030,0.00,348.0,16.0,0,0,0,0.0
Status,,66,9,2,122,1575420030,0.00,92.0,15.0,0,0,0,0.0
Status,,66,10,1,8,1575420030,0.00,283.0,13.0,0,0,0,0.0
Status,,66,11,1,25,1575420030,0.00,109.0,12.0,0,0,0,0.0
Status,,66,12,1,26,1575420030,11.60,193.0,8.0,1,0,0,11.6
Status,,66,13,1,21,1575420030,0.00,324.0,7.0,0,0,0,0.0
Status,,66,14,3,17,1602000000,19.70,250.0,69.0,1,0,0,19.7
Status,,66,15,3,18,1602000000,0.00,322.0,34.0,0,0,0,0.0
Status,,66,16,3,24,1602000000,23.10,173.0,30.0,1,0,0,23.1
Status,,66,17,3,13,1602000000,0.00,121.0,30.0,0,0,0,0.0
Status,,66,18,3,3,1602000000,0.00,320.0,28.0,0,0,0,0.0
Status,,66,19,3,2,1602000000,0.00,16.0,20.0,0,0,0,0.0
Status,,66,20,3,12,1602000000,16.00,72.0,20.0,1,0,0,16.0
Status,,66,21,3,4,1602000000,13.80,273.0,9.0,1,0,0,13.8
Status,,66,22,3,14,1602000000,0.00,177.0,8.0,0,0,0,0.0
Status,,66,23,6,12,1575420030,18.40,120.0,80.0,1,0,0,18.4
Status,,66,24,6,10,1575420030,20.20,338.0,71.0,1,0,0,20.2
Status,,66,25,6,4,1575420030,0.00,336.0,54.0,0,0,0,0.0
Status,,66,26,6,6,1575420030,17.80,290.0,51.0,1,0,0,17.8
Status,,66,27,6,11,1575420030,13.90,329.0,42.0,1,0,0,13.9
Status,,66,28,6,9,1575420030,20.20,264.0,35.0,1,0,0,20.2
Status,,66,29,6,33,1575420030,0.00,143.0,24.0,0,0,0,0.0
Status,,66,30,6,19,1575420030,0.00,35.0,16.0,0,0,0,0.0
Status,,66,31,6,31,1575420030,0.00,169.0,13.0,0,0,0,0.0
Status,,66,32,5,2,1561097980,0.00,147.0,76.0,0,0,0,0.0
Status,,66,33,5,60,1561097980,26.30,167.0,76.0,1,0,0,26.3
Status,,66,34,5,9,1561097980,0.00,98.0,75.0,0,0,0,0.0
Status,,66,35,5,6,1561097980,17.60,64.0,68.0,1,0,0,17.6
Status,,66,36,5,5,1561097980,0.00,241.0,65.0,0,0,0,0.0
Status,,66,37,5,16,1561097980,0.00,53.0,60.0,0,0,0,0.0
Status,,66,38,5,39,1561097980,0.00,44.0,53.0,0,0,0,0.0
Status,,66,39,5,28,1561097980,30.40,273.0,51.0,1,0,0,30.4
Status,,66,40,5,3,1561097980,27.40,107.0,50.0,1,0,0,27.4
Status,,66,41,5,56,1561097980,0.00,134.0,49.0,0,0,0,0.0
Status,,66,42,5,61,1561097980,0.00,108.0,49.0,0,0,0,0.0
Status,,66,43,5,13,1561097980,19.20,47.0,47.0,1,0,0,19.2
Status,,66,44,5,25,1561097980,21.70,142.0,43.0,1,0,0,21.7
Status,,66,45,5,8,1561097980,13.80,66.0,40.0,1,0,0,13.8
Status,,66,46,5,43,1561097980,24.50,180.0,36.0,1,0,0,24.5
Status,,66,47,5,33,1561097980,21.00,12.0,35.0,1,0,0,21.0
Status,,66,48,5,38,1561097980,26.20,84.0,35.0,1,0,0,26.2
Status,,66,49,5,24,1561097980,18.20,76.0,29.0,1,0,0,18.2
Status,,66,50,5,41,1561097980,0.00,312.0,28.0,0,0,0,0.0
Status,,66,51,5,14,1561097980,13.40,40.0,24.0,1,0,0,13.4
Status,,66,52,5,11,1561097980,0.00,164.0,19.0,0,0,0,0.0
Status,,66,53,5,59,1561097980,0.00,94.0,19.0,0,0,0,0.0
Status,,66,54,5,10,1561097980,0.00,167.0,18.0,0,0,0,0.0
Status,,66,55,5,27,1561097980,0.00,311.0,17.0,0,0,0,0.0
Status,,66,56,5,1,1561097980,0.00,95.0,14.0,0,0,0,0.0
Status,,66,57,5,23,1561097980,0.00,193.0,14.0,0,0,0,0.0
Status,,66,58,5,7,1561097980,0.00,156.0,13.0,0,0,0,0.0
Status,,66,59,5,42,1561097980,0.00,61.0,8.0,0,0,0,0.0
Status,,66,60,5,57,1561097980,0.00,119.0,5.0,0,0,0,0.0
Status,,66,61,5,40,1561097980,0.00,153.0,2.0,0,0,0,0.0
Status,,66,62,4,196,1575420030,0.00,60.0,36.0,0,0,0,0.0
Status,,66,63,4,199,1575420030,0.00,44.0,26.0,0,0,0,0.0
Status,,66,64,4,195,1575420030,0.00,134.0,16.0,0,0,0,0.0
Status,,66,65,4,194,1575420030,0.00,102.0,3.0,0,0,0,0.0
Fix,GPS,12.9341116667,77.5420433333,779.2,0.0,2.4,112.31,1727328868000,2.1,179.9,117598145000000,20.4,0,,,
Raw,1727328868000,513605000000,18,48.41700134342886,-1411363572395000064,0.0,48.41700134342886,-4387.0652076276265,0.0,0,32,0.0,16431,365685927542822,487,19.7450008392334,-1068.4028967580953,0.14999,16,-458856.191086155,0.009999999776482582,1575420030,,,,0,0.0,1,6.0,19.7450008392334,0.0,0.0,0.0,66.7128,C,,
Raw,1727328868000,513605000000,18,48.41700134342886,-1411363572395000064,0.0,48.41700134342886,-4387.0652076276265,0.0,0,23,0.0,16431,365685925260524,396,22.170000076293945,-1267.995779061994,0.14999,16,-457845.2890249024,0.004900000058114529,1575420030,,,,0,4.177675449039774,1,6.0,22.170000076293945,0.0,0.0,0.0,66.7128,C,,
Raw,1727328868000,513605000000,18,48.41700134342886,-1411363572395000064,0.0,48.41700134342886,-4387.0652076276265,0.0,0,9,0.0,16431,365685914766856,487,20.200000762939453,-1422.983564294825,0.14999,28,-460739.2451160918,0.009999999776482582,1575420030,,,,0,0.0,6,6.0,20.200000762939453,0.0,0.0,32.91110607079288,66.7128,C,,
Raw,1727328868000,513605000000,18,48.41700134342886,-1411363572395000064,0.0,48.41700134342886,-4387.0652076276265,0.0,0,14,0.0,16905,365671917445921,1837,13.399999618530273,-1147.5758056640625,0.14999,16,-462269.7684532137,0.02250000089406967,1561097980,,,,0,0.0,5,6.0,13.399999618530273,0.0,0.0,-0.23728513850973154,66.7128,I,,
Raw,1727328868000,513605000000,18,48.41700134342886,-1411363572395000064,0.0,48.41700134342886,-4387.0652076276265,0.0,0,24,0.0,16905,365671920107643,797,18.200000762939453,-1241.030517578125,0.14999,16,-463515.220177934,0.02250000089406967,1561097980,,,,0,0.0,5,6.0,18.200000762939453,0.0,0.0,-0.23728513850973154,66.7128,I,,
Raw,1727328868000,513605000000,18,48.41700134342886,-1411363572395000064,0.0,48.41700134342886,-4387.0652076276265,0.0,0,43,0.0,16905,365671921176384,316,24.452999114990234,-797.9813842773438,0.14999,20,-460443.96263631614,0.002025000052526593,1561097980,,,,0,3.6335423435459018,5,6.0,24.452999114990234,0.0,0.0,-0.23728513850973154,66.7128,I,,
Raw,1727328868000,513605000000,18,48.41700134342886,-1411363572395000064,0.0,48.41700134342886,-4387.0652076276265,0.0,0,38,0.0,16905,365671873325655,316,26.200000762939453,-1449.906494140625,0.14999,21,-503043.28360347584,0.002025000052526593,1561097980,,,,0,7.614759571288307,5,6.0,26.200000762939453,0.0,0.0,-0.23728513850973154,66.7128,I,,
Raw,1727328868000,513605000000,18,48.41700134342886,-1411363572395000064,0.0,48.41700134342886,-4387.0652076276265,0.0,0,25,0.0,16905,365671923434073,396,21.684999465942383,-1669.095458984375,0.14999,16,-583286.3774399696,0.004900000058114529,1561097980,,,,0,1.2906136115796851,5,6.0,21.684999465942383,0.0,0.0,-0.23728513850973154,66.7128,I,,
Raw,1727328868000,513605000000,18,48.41700134342886,-1411363572395000064,0.0,48.41700134342886,-4387.0652076276265,0.0,0,31,0.0,16431,365685923433786,396,24.58300018310547,-1989.7039527677687,0.14999,16,-686699.2117193256,0.004900000058114529,1575420030,,,,0,4.444270994132062,1,6.0,24.58300018310547,0.0,0.0,0.0,66.7128,C,,
Raw,1727328868000,513605000000,18,48.41700134342886,-1411363572395000064,0.0,48.41700134342886,-4387.0652076276265,0.0,0,28,0.0,16905,365671924888145,74,30.399999618530273,-1318.924560546875,0.14999,21,-463799.3873837061,0.0006249999860301614,1561097980,,,,0,12.442871506921126,5,6.0,30.399999618530273,0.0,0.0,-0.23728513850973154,66.7128,I,,
Raw,1727328868000,513605000000,18,48.41700134342886,-1411363572395000064,0.0,48.41700134342886,-4387.0652076276265,0.0,0,26,0.0,16431,365685916989834,1797,11.600000381469727,-1654.0770182092847,0.14999,16,-466920.32597517,0.02250000089406967,1575420030,,,,0,0.0,1,6.0,11.600000381469727,0.0,0.0,0.0,66.7128,C,,
Raw,1727328868000,513605000000,18,48.41700134342886,-1411363572395000064,0.0,48.41700134342886,-4387.0652076276265,0.0,0,8,0.0,16905,365671873941356,1797,13.800000190734863,-1495.847900390625,0.14999,16,-465383.3609561758,0.02250000089406967,1561097980,,,,0,0.0,5,6.0,13.800000190734863,0.0,0.0,-0.23728513850973154,66.7128,I,,
Raw,1727328868000,513605000000,18,48.41700134342886,-1411363572395000064,0.0,48.41700134342886,-4387.0652076276265,0.0,0,17,0.0,32995,30867935454064,797,16.0,-1165.095730062043,0.14999,16,-450345.1404059061,0.02250000089406967,1604249980,,,,0,0.0,3,6.0,16.0,0.0,0.0,-14.61424522770537,66.7128,C,,
Raw,1727328868000,513605000000,18,48.41700134342886,-1411363572395000064,0.0,48.41700134342886,-4387.0652076276265,0.0,0,4,0.0,32995,30867921338951,487,0.0,-1429.5931210315737,0.14999,16,-452181.0805663439,0.009999999776482582,1605374980,,,,0,0.0,3,6.0,18.0,0.0,0.0,-14.61424522770537,66.7128,C,,
Raw,1727328868000,513605000000,18,48.41700134342886,-1411363572395000064,0.0,48.41700134342886,-4387.0652076276265,0.0,0,12,0.0,32995,30867924732915,797,0.0,-1286.184072278668,0.14999,16,-452519.66123943275,0.02250000089406967,1601437440,,,,0,0.0,3,6.0,17.0,0.0,0.0,-14.61424522770537,66.7128,C,,
Raw,1727328868000,513605000000,18,48.41700134342886,-1411363572395000064,0.0,48.41700134342886,-4387.0652076276265,0.0,0,24,0.0,32995,30867927677023,487,0.0,-571.6703957909771,0.14999,16,-223946.9329096691,0.009999999776482582,1603124990,,,,0,3.59869196274883,3,6.0,18.0,0.0,0.0,-14.61424522770537,66.7128,C,,
Raw,1727328868000,513605000000,18,48.41700134342886,-1411363572395000064,0.0,48.41700134342886,-4387.0652076276265,0.0,0,28,0.0,16431,365685930693594,316,25.275999069213867,-1654.3072661200242,0.14999,16,-494783.0445228287,0.002025000052526593,1575420030,,,,0,5.7047145696149855,1,6.0,25.275999069213867,0.0,0.0,0.0,66.7128,C,,
Raw,1727328868000,513605000000,18,48.41700134342886,-1411363572395000064,0.0,48.41700134342886,-4387.0652076276265,0.0,0,27,0.0,16431,365685922205818,316,26.235000610351562,-1091.156277764536,0.14999,17,-450459.60051697574,0.002025000052526593,1575420030,,,,0,6.73827172074861,1,6.0,26.235000610351562,0.0,0.0,0.0,66.7128,C,,
Raw,1727328868000,513605000000,18,48.41700134342886,-1411363572395000064,0.0,48.41700134342886,-4387.0652076276265,0.0,0,10,0.0,16431,365685926308695,316,24.833999633789062,-1514.5430676278947,0.14999,16,-460506.32915367873,0.002025000052526593,1575420030,,,,0,4.787461891997782,1,6.0,24.833999633789062,0.0,0.0,0.0,66.7128,C,,
Raw,1727328868000,513605000000,18,48.41700134342886,-1411363572395000064,0.0,48.41700134342886,-4387.0652076276265,0.0,0,6,0.0,16905,365671879171105,797,17.600000381469727,-1314.94873046875,0.14999,16,-464036.6938332213,0.02250000089406967,1561097980,,,,0,0.0,5,6.0,17.600000381469727,0.0,0.0,-0.23728513850973154,66.7128,I,,
Raw,1727328868000,513605000000,18,48.41700134342886,-1411363572395000064,0.0,48.41700134342886,-4387.0652076276265,0.0,0,10,0.0,16431,365685921274117,487,20.200000762939453,-1499.1041925864733,0.14999,24,-461320.0379882233,0.009999999776482582,1575420030,,,,0,0.0,6,6.0,20.200000762939453,0.0,0.0,32.91110607079288,66.7128,C,,
Raw,1727328868000,513605000000,18,48.41700134342886,-1411363572395000064,0.0,48.41700134342886,-4387.0652076276265,0.0,0,6,0.0,16431,365685918851236,487,17.799999237060547,-1277.578384906412,0.14999,24,-459600.45624372,0.009999999776482582,1575420030,,,,0,0.0,6,6.0,17.799999237060547,0.0,0.0,32.91110607079288,66.7128,C,,
Raw,1727328868000,513605000000,18,48.41700134342886,-1411363572395000064,0.0,48.41700134342886,-4387.0652076276265,0.0,0,11,0.0,16431,365685918668572,797,13.899999618530273,-1722.393375912222,0.14999,24,-463000.7384286788,0.02250000089406967,1575420030,,,,0,0.0,6,6.0,13.899999618530273,0.0,0.0,32.91110607079288,66.7128,C,,
Raw,1727328868000,513605000000,18,48.41700134342886,-1411363572395000064,0.0,48.41700134342886,-4387.0652076276265,0.0,0,13,0.0,16905,365671876364612,396,19.155000686645508,-1504.381591796875,0.14999,16,-465789.06111901155,0.004900000058114529,1561097980,,,,0,0.0,5,6.0,19.155000686645508,0.0,0.0,-0.23728513850973154,66.7128,I,,
Raw,1727328868000,513605000000,18,48.41700134342886,-1411363572395000064,0.0,48.41700134342886,-4387.0652076276265,0.0,0,3,0.0,16905,365671877226635,235,27.395000457763672,-1311.13427734375,0.14999,16,-463993.9791443783,0.0008999999845400453,1561097980,,,,0,8.88574803196473,5,6.0,27.395000457763672,0.0,0.0,-0.23728513850973154,66.7128,I,,
Raw,1727328868000,513605000000,18,48.41700134342886,-1411363572395000064,0.0,48.41700134342886,-4387.0652076276265,0.0,0,12,0.0,16431,365685921210635,487,18.399999618530273,-1251.6119398348503,0.14999,24,-459791.34166898025,0.009999999776482582,1575420030,,,,0,0.0,6,6.0,18.399999618530273,0.0,0.0,32.91110607079288,66.7128,C,,
Raw,1727328868000,513605000000,18,48.41700134342886,-1411363572395000064,0.0,48.41700134342886,-4387.0652076276265,0.0,0,60,0.0,16905,365671880340976,316,26.27899932861328,-1310.46923828125,0.14999,16,-464044.1992672147,0.002025000052526593,1561097980,,,,0,6.84461963287357,5,6.0,26.27899932861328,0.0,0.0,-0.23728513850973154,66.7128,I,,
Raw,1727328868000,513605000000,18,48.41700134342886,-1411363572395000064,0.0,48.41700134342886,-4387.0652076276265,0.0,0,33,0.0,16905,365671919889126,396,20.969999313354492,-1215.139404296875,0.14999,16,-463399.714590182,0.004900000058114529,1561097980,,,,0,2.5093094692221856,5,6.0,20.969999313354492,0.0,0.0,-0.23728513850973154,66.7128,I,,
Fix,FLP,12.9341117000,77.5420433000,798.2999877929688,0.000057976904,2.5,,1727328868004,2.1,,117598145000000,1.4376475,0,,,
Status,1727328868000,66,0,1,28,1575420030,26.70,177.0,62.0,1,0,0,26.7
Status,1727328868000,66,1,1,32,1575420030,19.70,341.0,50.0,1,0,0,19.7
Status,1727328868000,66,2,1,10,1575420030,25.30,15.0,40.0,1,0,0,25.3
Status,1727328868000,66,3,2,123,1575420030,0.00,257.0,35.0,0,0,0,0.0
Status,1727328868000,66,4,1,23,1575420030,22.20,65.0,32.0,1,0,0,22.2
Status,1727328868000,66,5,1,18,1575420030,0.00,144.0,30.0,0,0,0,0.0
Status,1727328868000,66,6,1,27,1575420030,26.20,253.0,27.0,1,0,0,26.2
Status,1727328868000,66,7,1,31,1575420030,35.10,200.0,27.0,1,0,0,35.1
Status,1727328868000,66,8,2,132,1575420030,0.00,348.0,16.0,0,0,0,0.0
Status,1727328868000,66,9,2,122,1575420030,0.00,92.0,15.0,0,0,0,0.0
Status,1727328868000,66,10,1,8,1575420030,0.00,283.0,13.0,0,0,0,0.0
Status,1727328868000,66,11,1,25,1575420030,19.70,109.0,12.0,1,0,0,19.7
Status,1727328868000,66,12,1,26,1575420030,13.80,193.0,8.0,1,0,0,13.8
Status,1727328868000,66,13,1,21,1575420030,0.00,324.0,7.0,0,0,0,0.0
Status,1727328868000,66,14,3,17,1602000000,23.60,250.0,69.0,1,0,0,23.6
Status,1727328868000,66,15,3,18,1602000000,0.00,322.0,34.0,0,0,0,0.0
Status,1727328868000,66,16,3,24,1602000000,23.10,173.0,30.0,1,0,0,23.1
Status,1727328868000,66,17,3,13,1602000000,0.00,121.0,30.0,0,0,0,0.0
Status,1727328868000,66,18,3,3,1602000000,0.00,320.0,28.0,0,0,0,0.0
Status,1727328868000,66,19,3,2,1602000000,19.10,16.0,20.0,1,0,0,19.1
Status,1727328868000,66,20,3,12,1602000000,15.90,72.0,20.0,1,0,0,15.9
Status,1727328868000,66,21,3,4,1602000000,16.50,273.0,9.0,1,0,0,16.5
Status,1727328868000,66,22,3,14,1602000000,0.00,177.0,8.0,0,0,0,0.0
Status,1727328868000,66,23,6,12,1575420030,18.40,120.0,80.0,1,0,0,18.4
Status,1727328868000,66,24,6,10,1575420030,18.60,338.0,71.0,1,0,0,18.6
Status,1727328868000,66,25,6,4,1575420030,0.00,336.0,54.0,0,0,0,0.0
Status,1727328868000,66,26,6,6,1575420030,14.40,290.0,51.0,1,0,0,14.4
Status,1727328868000,66,27,6,11,1575420030,13.90,329.0,42.0,1,0,0,13.9
Status,1727328868000,66,28,6,9,1575420030,19.80,264.0,35.0,1,0,0,19.8
Status,1727328868000,66,29,6,33,1575420030,0.00,143.0,24.0,0,0,0,0.0
Status,1727328868000,66,30,6,19,1575420030,0.00,35.0,16.0,0,0,0,0.0
Status,1727328868000,66,31,6,31,1575420030,0.00,169.0,13.0,0,0,0,0.0
Status,1727328868000,66,32,5,2,1561097980,0.00,147.0,76.0,0,0,0,0.0
Status,1727328868000,66,33,5,60,1561097980,23.00,167.0,76.0,1,0,0,23.0
Status,1727328868000,66,34,5,9,1561097980,18.00,98.0,75.0,1,0,0,18.0
Status,1727328868000,66,35,5,6,1561097980,17.60,64.0,68.0,1,0,0,17.6
Status,1727328868000,66,36,5,5,1561097980,0.00,241.0,65.0,0,0,0,0.0
Status,1727328868000,66,37,5,16,1561097980,0.00,53.0,60.0,0,0,0,0.0
Status,1727328868000,66,38,5,39,1561097980,18.90,44.0,53.0,1,0,0,18.9
Status,1727328868000,66,39,5,28,1561097980,23.30,273.0,51.0,1,0,0,23.3
Status,1727328868000,66,40,5,3,1561097980,23.00,107.0,50.0,1,0,0,23.0
Status,1727328868000,66,41,5,56,1561097980,0.00,134.0,49.0,0,0,0,0.0
Status,1727328868000,66,42,5,61,1561097980,0.00,108.0,49.0,0,0,0,0.0
Status,1727328868000,66,43,5,13,1561097980,19.20,47.0,47.0,1,0,0,19.2
Status,1727328868000,66,44,5,25,1561097980,25.40,142.0,43.0,1,0,0,25.4
Status,1727328868000,66,45,5,8,1561097980,11.50,66.0,40.0,1,0,0,11.5
Status,1727328868000,66,46,5,43,1561097980,21.10,180.0,36.0,1,0,0,21.1
Status,1727328868000,66,47,5,33,1561097980,21.00,12.0,35.0,1,0,0,21.0
Status,1727328868000,66,48,5,38,1561097980,26.30,84.0,35.0,1,0,0,26.3
Status,1727328868000,66,49,5,24,1561097980,20.80,76.0,29.0,1,0,0,20.8
Status,1727328868000,66,50,5,41,1561097980,0.00,312.0,28.0,0,0,0,0.0
Status,1727328868000,66,51,5,14,1561097980,0.00,40.0,24.0,0,0,0,0.0
Status,1727328868000,66,52,5,11,1561097980,0.00,164.0,19.0,0,0,0,0.0
Status,1727328868000,66,53,5,59,1561097980,0.00,94.0,19.0,0,0,0,0.0
Status,1727328868000,66,54,5,10,1561097980,0.00,167.0,18.0,0,0,0,0.0
Status,1727328868000,66,55,5,27,1561097980,0.00,311.0,17.0,0,0,0,0.0
Status,1727328868000,66,56,5,1,1561097980,0.00,95.0,14.0,0,0,0,0.0
Status,1727328868000,66,57,5,23,1561097980,0.00,193.0,14.0,0,0,0,0.0
Status,1727328868000,66,58,5,7,1561097980,0.00,156.0,13.0,0,0,0,0.0
Status,1727328868000,66,59,5,42,1561097980,0.00,61.0,8.0,0,0,0,0.0
Status,1727328868000,66,60,5,57,1561097980,0.00,119.0,5.0,0,0,0,0.0
Status,1727328868000,66,61,5,40,1561097980,0.00,153.0,2.0,0,0,0,0.0
Status,1727328868000,66,62,4,196,1575420030,0.00,60.0,36.0,0,0,0,0.0
Status,1727328868000,66,63,4,199,1575420030,0.00,44.0,26.0,0,0,0,0.0
Status,1727328868000,66,64,4,195,1575420030,0.00,134.0,16.0,0,0,0,0.0
Status,1727328868000,66,65,4,194,1575420030,0.00,102.0,3.0,0,0,0,0.0
Fix,GPS,12.9341116667,77.5420433333,779.2,0.0,2.4,27.47,1727328869000,2.2,150.2,117599145000000,18.6,0,,,
Raw,1727328869000,514605000000,18,44.194363704585435,-1411363572395000064,0.0,44.194363704585435,-4393.671303213264,0.0,0,32,0.0,16431,365686927546424,797,19.742000579833984,-1070.323487684239,0.14999,16,-459924.94900709594,0.02250000089406967,1575420030,,,,0,0.0,1,6.0,19.742000579833984,0.0,0.0,0.0,66.7128,C,,
Raw,1727328869000,514605000000,18,44.194363704585435,-1411363572395000064,0.0,44.194363704585435,-4393.671303213264,0.0,0,25,0.0,16431,365686919464925,797,19.7450008392334,-1521.461004552141,0.14999,16,-461929.7865218084,0.02250000089406967,1575420030,,,,0,0.0,1,6.0,19.7450008392334,0.0,0.0,0.0,66.7128,C,,
Raw,1727328869000,514605000000,18,44.194363704585435,-1411363572395000064,0.0,44.194363704585435,-4393.671303213264,0.0,0,23,0.0,16431,365686925264752,396,22.23200035095215,-1269.6883520813763,0.14999,16,-459114.0146749748,0.004900000058114529,1575420030,,,,0,2.7594159120754824,1,6.0,22.23200035095215,0.0,0.0,0.0,66.7128,C,,
Raw,1727328869000,514605000000,18,44.194363704585435,-1411363572395000064,0.0,44.194363704585435,-4393.671303213264,0.0,0,9,0.0,16431,365686914771607,487,19.799999237060547,-1425.8286777035585,0.14999,24,-462163.8867615164,0.009999999776482582,1575420030,,,,0,0.0,6,6.0,19.799999237060547,0.0,0.0,31.11535463435315,66.7128,C,,
Raw,1727328869000,514605000000,18,44.194363704585435,-1411363572395000064,0.0,44.194363704585435,-4393.671303213264,0.0,0,24,0.0,16905,365672920111781,487,20.799999237060547,-1246.49853515625,0.14999,16,-464758.89213296317,0.009999999776482582,1561097980,,,,0,0.37142479092903846,5,6.0,20.799999237060547,0.0,0.0,-1.252692341274338,66.7128,I,,
Raw,1727328869000,514605000000,18,44.194363704585435,-1411363572395000064,0.0,44.194363704585435,-4393.671303213264,0.0,0,43,0.0,16905,365672921179050,396,21.100000381469727,-799.5219116210938,0.14999,16,-461243.2059392454,0.004900000058114529,1561097980,,,,0,0.9193652394146914,5,6.0,21.100000381469727,0.0,0.0,-1.252692341274338,66.7128,I,,
Raw,1727328869000,514605000000,18,44.194363704585435,-1411363572395000064,0.0,44.194363704585435,-4393.671303213264,0.0,0,38,0.0,16905,365672873330494,396,26.260000228881836,-1450.92626953125,0.14999,17,-504494.1990750985,0.004900000058114529,1561097980,,,,0,8.976226867165655,5,6.0,26.260000228881836,0.0,0.0,-1.252692341274338,66.7128,I,,
Raw,1727328869000,514605000000,18,44.194363704585435,-1411363572395000064,0.0,44.194363704585435,-4393.671303213264,0.0,0,25,0.0,16905,365672923439645,396,25.399999618530273,-1672.015869140625,0.14999,16,-584957.1386563443,0.004900000058114529,1561097980,,,,0,6.57194599745936,5,6.0,25.399999618530273,0.0,0.0,-1.252692341274338,66.7128,I,,
Raw,1727328869000,514605000000,18,44.194363704585435,-1411363572395000064,0.0,44.194363704585435,-4393.671303213264,0.0,0,31,0.0,16431,365686923440428,58,35.09000015258789,-1993.1381588940517,0.14999,17,-688690.6563417689,0.00039999998989515007,1575420030,,,,0,17.462209414975792,1,6.0,35.09000015258789,0.0,0.0,0.0,66.7128,C,,
Raw,1727328869000,514605000000,18,44.194363704585435,-1411363572395000064,0.0,44.194363704585435,-4393.671303213264,0.0,0,28,0.0,16905,365672924892548,396,23.299999237060547,-1321.4432373046875,0.14999,20,-465119.5650982236,0.004900000058114529,1561097980,,,,0,3.852756240714373,5,6.0,23.299999237060547,0.0,0.0,-1.252692341274338,66.7128,I,,
Raw,1727328869000,514605000000,18,44.194363704585435,-1411363572395000064,0.0,44.194363704585435,-4393.671303213264,0.0,0,26,0.0,16431,365686916995366,797,13.800000190734863,-1655.2981312209624,0.14999,16,-468575.07536338863,0.02250000089406967,1575420030,,,,0,0.0,1,6.0,13.800000190734863,0.0,0.0,0.0,66.7128,C,,
Raw,1727328869000,514605000000,18,44.194363704585435,-1411363572395000064,0.0,44.194363704585435,-4393.671303213264,0.0,0,8,0.0,16905,365672873946355,797,11.5,-1496.26708984375,0.14999,16,-466880.253766067,0.02250000089406967,1561097980,,,,0,0.0,5,6.0,11.5,0.0,0.0,-1.252692341274338,66.7128,I,,
Raw,1727328869000,514605000000,18,44.194363704585435,-1411363572395000064,0.0,44.194363704585435,-4393.671303213264,0.0,0,17,0.0,32995,30868935457970,316,15.899999618530273,-1168.7090209131093,0.14999,16,-451512.6388702484,0.002025000052526593,1604249980,,,,0,4.271073011709477,3,6.0,15.899999618530273,0.0,0.0,-12.635028215201006,66.7128,C,,
Raw,1727328869000,514605000000,18,44.194363704585435,-1411363572395000064,0.0,44.194363704585435,-4393.671303213264,0.0,0,4,0.0,32995,30868921343804,797,0.0,-1432.537422666225,0.14999,16,-453612.12069502857,0.02250000089406967,1605374980,,,,0,0.0,3,6.0,16.0,0.0,0.0,-12.635028215201006,66.7128,C,,
Raw,1727328869000,514605000000,18,44.194363704585435,-1411363572395000064,0.0,44.194363704585435,-4393.671303213264,0.0,0,2,0.0,32995,30868924614437,487,16.5,-1036.5012427358797,0.14999,16,-453365.5030441871,0.009999999776482582,1599750020,,,,0,0.0,3,6.0,16.5,0.0,0.0,-12.635028215201006,66.7128,C,,
Raw,1727328869000,514605000000,18,44.194363704585435,-1411363572395000064,0.0,44.194363704585435,-4393.671303213264,0.0,0,12,0.0,32995,30868924737165,797,0.0,-1288.5349759550838,0.14999,16,-453807.0063674753,0.02250000089406967,1601437440,,,,0,0.0,3,6.0,17.0,0.0,0.0,-12.635028215201006,66.7128,C,,
Raw,1727328869000,514605000000,18,44.194363704585435,-1411363572395000064,0.0,44.194363704585435,-4393.671303213264,0.0,0,24,0.0,32995,30868927678933,797,0.0,-573.7416044669073,0.14999,16,-224519.4379461491,0.02250000089406967,1603124990,,,,0,3.59869196274883,3,6.0,17.0,0.0,0.0,-12.635028215201006,66.7128,C,,
Raw,1727328869000,514605000000,18,44.194363704585435,-1411363572395000064,0.0,44.194363704585435,-4393.671303213264,0.0,0,28,0.0,16431,365686930699114,487,26.74799919128418,-1654.8907838276284,0.14999,17,-496438.19732399355,0.009999999776482582,1575420030,,,,0,7.416697016598227,1,6.0,26.74799919128418,0.0,0.0,0.0,66.7128,C,,
Raw,1727328869000,514605000000,18,44.194363704585435,-1411363572395000064,0.0,44.194363704585435,-4393.671303213264,0.0,0,27,0.0,16431,365686922209462,316,26.235000610351562,-1093.49750319105,0.14999,20,-451551.9135082569,0.002025000052526593,1575420030,,,,0,6.73827172074861,1,6.0,26.235000610351562,0.0,0.0,0.0,66.7128,C,,
Raw,1727328869000,514605000000,18,44.194363704585435,-1411363572395000064,0.0,44.194363704585435,-4393.671303213264,0.0,0,10,0.0,16431,365686926313812,487,25.312000274658203,-1516.9152343596047,0.14999,17,-462022.3133067889,0.009999999776482582,1575420030,,,,0,5.47461132150849,1,6.0,25.312000274658203,0.0,0.0,0.0,66.7128,C,,
Raw,1727328869000,514605000000,18,44.194363704585435,-1411363572395000064,0.0,44.194363704585435,-4393.671303213264,0.0,0,6,0.0,16905,365672879175497,487,17.600000381469727,-1317.0009765625,0.14999,16,-465353.4408168751,0.009999999776482582,1561097980,,,,0,0.0,5,6.0,17.600000381469727,0.0,0.0,-1.252692341274338,66.7128,I,,
Raw,1727328869000,514605000000,18,44.194363704585435,-1411363572395000064,0.0,44.194363704585435,-4393.671303213264,0.0,0,10,0.0,16431,365686921279114,487,18.600000381469727,-1500.346862303273,0.14999,24,-462819.8397109552,0.009999999776482582,1575420030,,,,0,0.0,6,6.0,18.600000381469727,0.0,0.0,31.11535463435315,66.7128,C,,
Raw,1727328869000,514605000000,18,44.194363704585435,-1411363572395000064,0.0,44.194363704585435,-4393.671303213264,0.0,0,39,0.0,16905,365672876619583,487,18.899999618530273,-1234.9915771484375,0.14999,16,-465048.09889261436,0.009999999776482582,1561097980,,,,0,0.0,5,6.0,18.899999618530273,0.0,0.0,-1.252692341274338,66.7128,I,,
Raw,1727328869000,514605000000,18,44.194363704585435,-1411363572395000064,0.0,44.194363704585435,-4393.671303213264,0.0,0,6,0.0,16431,365686918855501,797,14.399999618530273,-1279.5730305479954,0.14999,24,-460878.8513071875,0.02250000089406967,1575420030,,,,0,0.0,6,6.0,14.399999618530273,0.0,0.0,31.11535463435315,66.7128,C,,
Raw,1727328869000,514605000000,18,44.194363704585435,-1411363572395000064,0.0,44.194363704585435,-4393.671303213264,0.0,0,9,0.0,16905,365672878387364,797,18.0,-1356.197021484375,0.14999,16,-465614.09063395066,0.02250000089406967,1561097980,,,,0,0.0,5,6.0,18.0,0.0,0.0,-1.252692341274338,66.7128,I,,
Raw,1727328869000,514605000000,18,44.194363704585435,-1411363572395000064,0.0,44.194363704585435,-4393.671303213264,0.0,0,11,0.0,16431,365686918674320,797,13.899999618530273,-1724.1751490907286,0.14999,24,-464724.0936250516,0.02250000089406967,1575420030,,,,0,0.0,6,6.0,13.899999618530273,0.0,0.0,31.11535463435315,66.7128,C,,
Raw,1727328869000,514605000000,18,44.194363704585435,-1411363572395000064,0.0,44.194363704585435,-4393.671303213264,0.0,0,13,0.0,16905,365672876369634,487,19.18199920654297,-1507.717041015625,0.14999,16,-467294.9439269613,0.009999999776482582,1561097980,,,,0,0.0,5,6.0,19.18199920654297,0.0,0.0,-1.252692341274338,66.7128,I,,
Raw,1727328869000,514605000000,18,44.194363704585435,-1411363572395000064,0.0,44.194363704585435,-4393.671303213264,0.0,0,3,0.0,16905,365672877231031,316,23.0,-1320.137451171875,0.14999,16,-465311.9490552881,0.002025000052526593,1561097980,,,,0,3.4654231021606616,5,6.0,23.0,0.0,0.0,-1.252692341274338,66.7128,I,,
Raw,1727328869000,514605000000,18,44.194363704585435,-1411363572395000064,0.0,44.194363704585435,-4393.671303213264,0.0,0,12,0.0,16431,365686921214814,797,18.399999618530273,-1254.1952136098212,0.14999,24,-461044.3003401577,0.02250000089406967,1575420030,,,,0,0.0,6,6.0,18.399999618530273,0.0,0.0,31.11535463435315,66.7128,C,,
Raw,1727328869000,514605000000,18,44.194363704585435,-1411363572395000064,0.0,44.194363704585435,-4393.671303213264,0.0,0,60,0.0,16905,365672880345355,316,23.0,-1319.52587890625,0.14999,16,-465356.7779572044,0.002025000052526593,1561097980,,,,0,3.4654231021606616,5,6.0,23.0,0.0,0.0,-1.252692341274338,66.7128,I,,
Raw,1727328869000,514605000000,18,44.194363704585435,-1411363572395000064,0.0,44.194363704585435,-4393.671303213264,0.0,0,33,0.0,16905,365672919893184,487,20.95599937438965,-1217.592529296875,0.14999,16,-464616.19999380887,0.009999999776482582,1561097980,,,,0,0.2083046985707852,5,6.0,20.95599937438965,0.0,0.0,-1.252692341274338,66.7128,I,,
Fix,FLP,12.9341117000,77.5420433000,798.2999877929688,0.000003132111,2.466,,1727328869004,2.2,,117599145000000,1.4476475,0,,,
Status,1727328869000,66,0,1,28,1575420030,20.50,177.0,62.0,1,0,0,20.5
Status,1727328869000,66,1,1,32,1575420030,19.70,341.0,50.0,1,0,0,19.7
Status,1727328869000,66,2,1,10,1575420030,18.80,15.0,40.0,1,0,0,18.8
Status,1727328869000,66,3,2,123,1575420030,0.00,257.0,35.0,0,0,0,0.0
Status,1727328869000,66,4,1,23,1575420030,22.20,65.0,32.0,1,0,0,22.2
Status,1727328869000,66,5,1,18,1575420030,0.00,144.0,30.0,0,0,0,0.0
Status,1727328869000,66,6,1,27,1575420030,23.70,253.0,27.0,1,0,0,23.7
Status,1727328869000,66,7,1,31,1575420030,31.70,200.0,27.0,1,0,0,31.7
Status,1727328869000,66,8,2,132,1575420030,0.00,348.0,16.0,0,0,0,0.0
Status,1727328869000,66,9,2,122,1575420030,0.00,92.0,15.0,0,0,0,0.0
Status,1727328869000,66,10,1,8,1575420030,0.00,283.0,13.0,0,0,0,0.0
Status,1727328869000,66,11,1,25,1575420030,19.70,109.0,12.0,1,0,0,19.7
Status,1727328869000,66,12,1,26,1575420030,13.80,193.0,8.0,1,0,0,13.8
Status,1727328869000,66,13,1,21,1575420030,0.00,324.0,7.0,0,0,0,0.0
Status,1727328869000,66,14,3,17,1602000000,23.70,250.0,69.0,1,0,0,23.7
Status,1727328869000,66,15,3,18,1602000000,0.00,322.0,34.0,0,0,0,0.0
Status,1727328869000,66,16,3,24,1602000000,23.10,173.0,30.0,1,0,0,23.1
Status,1727328869000,66,17,3,13,1602000000,0.00,121.0,30.0,0,0,0,0.0
Status,1727328869000,66,18,3,3,1602000000,0.00,320.0,28.0,0,0,0,0.0
Status,1727328869000,66,19,3,2,1602000000,19.10,16.0,20.0,1,0,0,19.1
Status,1727328869000,66,20,3,12,1602000000,13.40,72.0,20.0,1,0,0,13.4
Status,1727328869000,66,21,3,4,1602000000,16.50,273.0,9.0,1,0,0,16.5
Status,1727328869000,66,22,3,14,1602000000,0.00,177.0,8.0,0,0,0,0.0
Status,1727328869000,66,23,6,12,1575420030,16.90,120.0,80.0,1,0,0,16.9
Status,1727328869000,66,24,6,10,1575420030,19.30,338.0,71.0,1,0,0,19.3
Status,1727328869000,66,25,6,4,1575420030,0.00,336.0,54.0,0,0,0,0.0
Status,1727328869000,66,26,6,6,1575420030,14.40,290.0,51.0,1,0,0,14.4
Status,1727328869000,66,27,6,11,1575420030,13.90,329.0,42.0,1,0,0,13.9
Status,1727328869000,66,28,6,9,1575420030,17.80,264.0,35.0,1,0,0,17.8
Status,1727328869000,66,29,6,33,1575420030,0.00,143.0,24.0,0,0,0,0.0
Status,1727328869000,66,30,6,19,1575420030,0.00,35.0,16.0,0,0,0,0.0
Status,1727328869000,66,31,6,31,1575420030,0.00,169.0,13.0,0,0,0,0.0
Status,1727328869000,66,32,5,2,1561097980,0.00,147.0,76.0,0,0,0,0.0
Status,1727328869000,66,33,5,60,1561097980,23.00,167.0,76.0,1,0,0,23.0
Status,1727328869000,66,34,5,9,1561097980,17.00,98.0,75.0,1,0,0,17.0
Status,1727328869000,66,35,5,6,1561097980,17.70,64.0,68.0,1,0,0,17.7
Status,1727328869000,66,36,5,5,1561097980,22.50,241.0,65.0,1,0,0,22.5
Status,1727328869000,66,37,5,16,1561097980,0.00,53.0,60.0,0,0,0,0.0
Status,1727328869000,66,38,5,39,1561097980,17.90,44.0,53.0,1,0,0,17.9
Status,1727328869000,66,39,5,28,1561097980,23.30,273.0,51.0,1,0,0,23.3
Status,1727328869000,66,40,5,3,1561097980,26.40,107.0,50.0,1,0,0,26.4
Status,1727328869000,66,41,5,56,1561097980,0.00,134.0,49.0,0,0,0,0.0
Status,1727328869000,66,42,5,61,1561097980,0.00,108.0,49.0,0,0,0,0.0
Status,1727328869000,66,43,5,13,1561097980,19.20,47.0,47.0,1,0,0,19.2
Status,1727328869000,66,44,5,25,1561097980,21.80,142.0,43.0,1,0,0,21.8
Status,1727328869000,66,45,5,8,1561097980,11.50,66.0,40.0,1,0,0,11.5
Status,1727328869000,66,46,5,43,1561097980,21.00,180.0,36.0,1,0,0,21.0
Status,1727328869000,66,47,5,33,1561097980,20.90,12.0,35.0,1,0,0,20.9
Status,1727328869000,66,48,5,38,1561097980,26.30,84.0,35.0,1,0,0,26.3
Status,1727328869000,66,49,5,24,1561097980,20.80,76.0,29.0,1,0,0,20.8
Status,1727328869000,66,50,5,41,1561097980,12.70,312.0,28.0,1,0,0,12.7
Status,1727328869000,66,51,5,14,1561097980,16.60,40.0,24.0,1,0,0,16.6
Status,1727328869000,66,52,5,11,1561097980,0.00,164.0,19.0,0,0,0,0.0
Status,1727328869000,66,53,5,59,1561097980,0.00,94.0,19.0,0,0,0,0.0
Status,1727328869000,66,54,5,10,1561097980,0.00,167.0,18.0,0,0,0,0.0
Status,1727328869000,66,55,5,27,1561097980,0.00,311.0,17.0,0,0,0,0.0
Status,1727328869000,66,56,5,1,1561097980,0.00,95.0,14.0,0,0,0,0.0
Status,1727328869000,66,57,5,23,1561097980,0.00,193.0,14.0,0,0,0,0.0
Status,1727328869000,66,58,5,7,1561097980,0.00,156.0,13.0,0,0,0,0.0
Status,1727328869000,66,59,5,42,1561097980,0.00,61.0,8.0,0,0,0,0.0
Status,1727328869000,66,60,5,57,1561097980,0.00,119.0,5.0,0,0,0,0.0
Status,1727328869000,66,61,5,40,1561097980,0.00,153.0,2.0,0,0,0,0.0
Status,1727328869000,66,62,4,196,1575420030,0.00,60.0,36.0,0,0,0,0.0
Status,1727328869000,66,63,4,199,1575420030,0.00,44.0,26.0,0,0,0,0.0
Status,1727328869000,66,64,4,195,1575420030,16.00,134.0,16.0,1,0,0,16.0
Status,1727328869000,66,65,4,194,1575420030,0.00,102.0,3.0,0,0,0,0.0
Fix,GPS,12.9341116667,77.5420433333,779.2,0.0,2.4,27.47,1727328870000,2.1,179.9,117600145000000,18.3,0,,,
Fix,FLP,12.9341117000,77.5420433000,798.2999877929688,0.0000015780231,2.433,,1727328870003,2.1,,117600145000000,1.4576474,0,,,
Raw,1727328870000,515605000000,18,43.54896952880717,-1411363572395000064,0.0,43.54896952880717,-4404.092070554977,0.0,0,32,0.0,16431,365687927549999,797,19.73900032043457,-1072.825366314009,0.14999,16,-460996.8144376512,0.02250000089406967,1575420030,,,,0,0.0,1,6.0,19.73900032043457,0.0,0.0,0.0,66.7128,C,,
Raw,1727328870000,515605000000,18,43.54896952880717,-1411363572395000064,0.0,43.54896952880717,-4404.092070554977,0.0,0,25,0.0,16431,365687919469988,487,19.68899917602539,-1524.4086981438672,0.14999,16,-463453.28844423627,0.009999999776482582,1575420030,,,,0,0.0,1,6.0,19.68899917602539,0.0,0.0,0.0,66.7128,C,,
Raw,1727328870000,515605000000,18,43.54896952880717,-1411363572395000064,0.0,43.54896952880717,-4404.092070554977,0.0,0,23,0.0,16431,365687925269002,487,22.179000854492188,-1272.851705641152,0.14999,16,-460386.1438241348,0.009999999776482582,1575420030,,,,0,0.0,1,6.0,22.179000854492188,0.0,0.0,0.0,66.7128,C,,
Raw,1727328870000,515605000000,18,43.54896952880717,-1411363572395000064,0.0,43.54896952880717,-4404.092070554977,0.0,0,9,0.0,16431,365687914776370,487,17.799999237060547,-1427.4744206394007,0.14999,24,-463591.7571497924,0.009999999776482582,1575420030,,,,0,0.0,6,6.0,17.799999237060547,0.0,0.0,28.8183842426845,66.7128,C,,
Raw,1727328870000,515605000000,18,43.54896952880717,-1411363572395000064,0.0,43.54896952880717,-4404.092070554977,0.0,0,14,0.0,16905,365673917453568,797,16.600000381469727,-1151.587890625,0.14999,16,-464566.2008584462,0.02250000089406967,1561097980,,,,0,0.0,5,6.0,16.600000381469727,0.0,0.0,-2.7443204956008014,66.7128,I,,
Raw,1727328870000,515605000000,18,43.54896952880717,-1411363572395000064,0.0,43.54896952880717,-4404.092070554977,0.0,0,24,0.0,16905,365673920115939,797,20.799999237060547,-1246.2965087890625,0.14999,16,-466005.55834535253,0.02250000089406967,1561097980,,,,0,0.37142479092903846,5,6.0,20.799999237060547,0.0,0.0,-2.7443204956008014,66.7128,I,,
Raw,1727328870000,515605000000,18,43.54896952880717,-1411363572395000064,0.0,43.54896952880717,-4404.092070554977,0.0,0,43,0.0,16905,365673921181723,487,21.030000686645508,-802.068115234375,0.14999,16,-462044.79826431384,0.009999999776482582,1561097980,,,,0,0.0,5,6.0,21.030000686645508,0.0,0.0,-2.7443204956008014,66.7128,I,,
Raw,1727328870000,515605000000,18,43.54896952880717,-1411363572395000064,0.0,43.54896952880717,-4404.092070554977,0.0,0,38,0.0,16905,365673873335341,487,26.316999435424805,-1454.681884765625,0.14999,17,-505947.4266940901,0.009999999776482582,1561097980,,,,0,8.976226867165655,5,6.0,26.316999435424805,0.0,0.0,-2.7443204956008014,66.7128,I,,
Raw,1727328870000,515605000000,18,43.54896952880717,-1411363572395000064,0.0,43.54896952880717,-4404.092070554977,0.0,0,25,0.0,16905,365673923445232,487,21.799999237060547,-1674.9376220703125,0.14999,16,-586631.9091561853,0.009999999776482582,1561097980,,,,0,1.8035326069817605,5,6.0,21.799999237060547,0.0,0.0,-2.7443204956008014,66.7128,I,,
Raw,1727328870000,515605000000,18,43.54896952880717,-1411363572395000064,0.0,43.54896952880717,-4404.092070554977,0.0,0,31,0.0,16431,365687923447076,74,31.663999557495117,-1994.9100828883218,0.14999,21,-690684.4927151408,0.0006249999860301614,1575420030,,,,0,13.537712957378867,1,6.0,31.663999557495117,0.0,0.0,0.0,66.7128,C,,
Raw,1727328870000,515605000000,18,43.54896952880717,-1411363572395000064,0.0,43.54896952880717,-4404.092070554977,0.0,0,28,0.0,16905,365673924896959,316,23.34000015258789,-1322.6126708984375,0.14999,16,-466442.36062745773,0.002025000052526593,1561097980,,,,0,4.9556896742151215,5,6.0,23.34000015258789,0.0,0.0,-2.7443204956008014,66.7128,I,,
Raw,1727328870000,515605000000,18,43.54896952880717,-1411363572395000064,0.0,43.54896952880717,-4404.092070554977,0.0,0,26,0.0,16431,365687917000896,1797,13.800000190734863,-1659.4682386600205,0.14999,16,-470232.95413152105,0.02250000089406967,1575420030,,,,0,0.0,1,6.0,13.800000190734863,0.0,0.0,0.0,66.7128,C,,
Raw,1727328870000,515605000000,18,43.54896952880717,-1411363572395000064,0.0,43.54896952880717,-4404.092070554977,0.0,0,8,0.0,16905,365673873951358,487,11.5,-1500.4483642578125,0.14999,16,-468380.27220701287,0.009999999776482582,1561097980,,,,0,0.0,5,6.0,11.5,0.0,0.0,-2.7443204956008014,66.7128,I,,
Raw,1727328870000,515605000000,18,43.54896952880717,-1411363572395000064,0.0,43.54896952880717,-4404.092070554977,0.0,0,17,0.0,32995,30869935461873,396,13.399999618530273,-1170.6127987942843,0.14999,16,-452682.62400609476,0.004900000058114529,1604249980,,,,0,6.365780022109738,3,6.0,13.399999618530273,0.0,0.0,-12.228708237537179,66.7128,C,,
Raw,1727328870000,515605000000,18,43.54896952880717,-1411363572395000064,0.0,43.54896952880717,-4404.092070554977,0.0,0,4,0.0,32995,30869921348586,797,0.0,-1434.8125316809721,0.14999,16,-455046.00100190775,0.02250000089406967,1605374980,,,,0,0.0,3,6.0,16.0,0.0,0.0,-12.228708237537179,66.7128,C,,
Raw,1727328870000,515605000000,18,43.54896952880717,-1411363572395000064,0.0,43.54896952880717,-4404.092070554977,0.0,0,2,0.0,32995,30869924617902,797,16.5,-1041.352128120789,0.14999,16,-454404.6171031043,0.02250000089406967,1599750020,,,,0,0.0,3,6.0,16.5,0.0,0.0,-12.228708237537179,66.7128,C,,
Raw,1727328870000,515605000000,18,43.54896952880717,-1411363572395000064,0.0,43.54896952880717,-4404.092070554977,0.0,0,12,0.0,32995,30869924741541,797,0.0,-1291.800775035568,0.14999,16,-455097.7005885626,0.02250000089406967,1601437440,,,,0,0.0,3,6.0,17.0,0.0,0.0,-12.228708237537179,66.7128,C,,
Raw,1727328870000,515605000000,18,43.54896952880717,-1411363572395000064,0.0,43.54896952880717,-4404.092070554977,0.0,0,24,0.0,32995,30869927680857,797,0.0,-577.8900483484424,0.14999,16,-225096.6657949655,0.02250000089406967,1603124990,,,,0,3.59869196274883,3,6.0,16.0,0.0,0.0,-12.228708237537179,66.7128,C,,
Raw,1727328870000,515605000000,18,43.54896952880717,-1411363572395000064,0.0,43.54896952880717,-4404.092070554977,0.0,0,28,0.0,16431,365687930704642,487,20.47800064086914,-1659.0371045575866,0.14999,20,-498094.7043028559,0.009999999776482582,1575420030,,,,0,0.0,1,6.0,20.47800064086914,0.0,0.0,0.0,66.7128,C,,
Raw,1727328870000,515605000000,18,43.54896952880717,-1411363572395000064,0.0,43.54896952880717,-4404.092070554977,0.0,0,27,0.0,16431,365687922213117,396,23.6560001373291,-1095.6693412320603,0.14999,16,-452646.5561413715,0.004900000058114529,1575420030,,,,0,3.123548438719715,1,6.0,23.6560001373291,0.0,0.0,0.0,66.7128,C,,
Raw,1727328870000,515605000000,18,43.54896952880717,-1411363572395000064,0.0,43.54896952880717,-4404.092070554977,0.0,0,10,0.0,16431,365687926318888,487,18.781999588012695,-1519.794541162669,0.14999,20,-463541.4394532728,0.009999999776482582,1575420030,,,,0,0.0,1,6.0,18.781999588012695,0.0,0.0,0.0,66.7128,C,,
Raw,1727328870000,515605000000,18,43.54896952880717,-1411363572395000064,0.0,43.54896952880717,-4404.092070554977,0.0,0,41,0.0,16905,365673918108694,1797,12.699999809265137,-1378.1480712890625,0.14999,16,-467156.8148117034,0.02250000089406967,1561097980,,,,0,0.0,5,6.0,12.699999809265137,0.0,0.0,-2.7443204956008014,66.7128,I,,
Raw,1727328870000,515605000000,18,43.54896952880717,-1411363572395000064,0.0,43.54896952880717,-4404.092070554977,0.0,0,6,0.0,16905,365673879179910,487,17.665000915527344,-1322.2427978515625,0.14999,16,-466673.5363914941,0.009999999776482582,1561097980,,,,0,0.0,5,6.0,17.665000915527344,0.0,0.0,-2.7443204956008014,66.7128,I,,
Raw,1727328870000,515605000000,18,43.54896952880717,-1411363572395000064,0.0,43.54896952880717,-4404.092070554977,0.0,0,10,0.0,16431,365687921284123,487,19.299999237060547,-1504.0987510796035,0.14999,24,-464322.3775024565,0.009999999776482582,1575420030,,,,0,0.0,6,6.0,19.299999237060547,0.0,0.0,28.8183842426845,66.7128,C,,
Raw,1727328870000,515605000000,18,43.54896952880717,-1411363572395000064,0.0,43.54896952880717,-4404.092070554977,0.0,0,39,0.0,16905,365673876623693,487,17.899999618530273,-1237.7098388671875,0.14999,16,-466284.78427038353,0.009999999776482582,1561097980,,,,0,0.0,5,6.0,17.899999618530273,0.0,0.0,-2.7443204956008014,66.7128,I,,
Raw,1727328870000,515605000000,18,43.54896952880717,-1411363572395000064,0.0,43.54896952880717,-4404.092070554977,0.0,0,6,0.0,16431,365687918859772,797,14.399999618530273,-1280.657555816014,0.14999,24,-462159.46545307245,0.02250000089406967,1575420030,,,,0,0.0,6,6.0,14.399999618530273,0.0,0.0,28.8183842426845,66.7128,C,,
Raw,1727328870000,515605000000,18,43.54896952880717,-1411363572395000064,0.0,43.54896952880717,-4404.092070554977,0.0,0,9,0.0,16905,365673878391906,797,17.0,-1359.8995361328125,0.14999,16,-466972.5190998841,0.02250000089406967,1561097980,,,,0,0.0,5,6.0,17.0,0.0,0.0,-2.7443204956008014,66.7128,I,,
Raw,1727328870000,515605000000,18,43.54896952880717,-1411363572395000064,0.0,43.54896952880717,-4404.092070554977,0.0,0,11,0.0,16431,365687918680078,1797,13.899999618530273,-1727.4348574057246,0.14999,24,-466450.2341796698,0.02250000089406967,1575420030,,,,0,0.0,6,6.0,13.899999618530273,0.0,0.0,28.8183842426845,66.7128,C,,
Raw,1727328870000,515605000000,18,43.54896952880717,-1411363572395000064,0.0,43.54896952880717,-4404.092070554977,0.0,0,13,0.0,16905,365673876374665,487,19.211999893188477,-1509.1978759765625,0.14999,16,-468803.91016978875,0.009999999776482582,1561097980,,,,0,0.0,5,6.0,19.211999893188477,0.0,0.0,-2.7443204956008014,66.7128,I,,
Raw,1727328870000,515605000000,18,43.54896952880717,-1411363572395000064,0.0,43.54896952880717,-4404.092070554977,0.0,0,3,0.0,16905,365673877235427,316,26.399999618530273,-1319.3414306640625,0.14999,16,-466630.9483820209,0.002025000052526593,1561097980,,,,0,7.756007546423155,5,6.0,26.399999618530273,0.0,0.0,-2.7443204956008014,66.7128,I,,
Raw,1727328870000,515605000000,18,43.54896952880717,-1411363572395000064,0.0,43.54896952880717,-4404.092070554977,0.0,0,195,0.0,16431,365687875669543,797,16.0,-1269.9650584083263,0.14999,16,-462287.77078483405,0.02250000089406967,1575420030,,,,0,0.0,4,6.0,16.0,0.0,,0.0,,C,,
Raw,1727328870000,515605000000,18,43.54896952880717,-1411363572395000064,0.0,43.54896952880717,-4404.092070554977,0.0,0,12,0.0,16431,365687921219008,797,16.899999618530273,-1255.293676402703,0.14999,24,-462299.8164794343,0.02250000089406967,1575420030,,,,0,0.0,6,6.0,16.899999618530273,0.0,0.0,28.8183842426845,66.7128,C,,
Raw,1727328870000,515605000000,18,43.54896952880717,-1411363572395000064,0.0,43.54896952880717,-4404.092070554977,0.0,0,5,0.0,16905,365673878640650,396,22.5,-1323.8746337890625,0.14999,16,-466846.5025352938,0.004900000058114529,1561097980,,,,0,2.826583055929386,5,6.0,22.5,0.0,0.0,-2.7443204956008014,66.7128,I,,
Raw,1727328870000,515605000000,18,43.54896952880717,-1411363572395000064,0.0,43.54896952880717,-4404.092070554977,0.0,0,60,0.0,16905,365673880349785,396,22.969999313354492,-1330.6929931640625,0.14999,16,-466684.65607455745,0.004900000058114529,1561097980,,,,0,2.758384303102737,5,6.0,22.969999313354492,0.0,0.0,-2.7443204956008014,66.7128,I,,
Raw,1727328870000,515605000000,18,43.54896952880717,-1411363572395000064,0.0,43.54896952880717,-4404.092070554977,0.0,0,33,0.0,16905,365673919897251,797,20.94300079345703,-1220.234619140625,0.14999,16,-465835.70775334735,0.02250000089406967,1561097980,,,,0,0.2083046985707852,5,6.0,20.94300079345703,0.0,0.0,-2.7443204956008014,66.7128,I,,
Status,1727328870000,66,0,1,28,1575420030,20.50,177.0,62.0,1,0,0,20.5
Status,1727328870000,66,1,1,32,1575420030,19.70,341.0,50.0,1,0,0,19.7
Status,1727328870000,66,2,1,10,1575420030,17.90,15.0,40.0,1,0,0,17.9
Status,1727328870000,66,3,2,123,1575420030,0.00,257.0,35.0,0,0,0,0.0
Status,1727328870000,66,4,1,23,1575420030,28.70,65.0,32.0,1,0,0,28.7
Status,1727328870000,66,5,1,18,1575420030,17.00,144.0,30.0,1,0,0,17.0
Status,1727328870000,66,6,1,27,1575420030,22.90,253.0,27.0,1,0,0,22.9
Status,1727328870000,66,7,1,31,1575420030,24.30,200.0,27.0,1,0,0,24.3
Status,1727328870000,66,8,2,132,1575420030,0.00,348.0,16.0,0,0,0,0.0
Status,1727328870000,66,9,2,122,1575420030,0.00,92.0,15.0,0,0,0,0.0
Status,1727328870000,66,10,1,8,1575420030,0.00,283.0,13.0,0,0,0,0.0
Status,1727328870000,66,11,1,25,1575420030,19.70,109.0,12.0,1,0,0,19.7
Status,1727328870000,66,12,1,26,1575420030,13.80,193.0,8.0,1,0,0,13.8
Status,1727328870000,66,13,1,21,1575420030,0.00,324.0,7.0,0,0,0,0.0
Status,1727328870000,66,14,3,17,1602000000,20.40,250.0,69.0,1,0,0,20.4
Status,1727328870000,66,15,3,18,1602000000,0.00,322.0,34.0,0,0,0,0.0
Status,1727328870000,66,16,3,24,1602000000,17.30,173.0,30.0,1,0,0,17.3
Status,1727328870000,66,17,3,13,1602000000,0.00,121.0,30.0,0,0,0,0.0
Status,1727328870000,66,18,3,3,1602000000,0.00,320.0,28.0,0,0,0,0.0
Status,1727328870000,66,19,3,2,1602000000,19.10,16.0,20.0,1,0,0,19.1
Status,1727328870000,66,20,3,12,1602000000,13.40,72.0,20.0,1,0,0,13.4
Status,1727328870000,66,21,3,4,1602000000,16.50,273.0,9.0,1,0,0,16.5
Status,1727328870000,66,22,3,14,1602000000,0.00,177.0,8.0,0,0,0,0.0
Status,1727328870000,66,23,6,12,1575420030,16.90,120.0,80.0,1,0,0,16.9
Status,1727328870000,66,24,6,10,1575420030,25.10,338.0,71.0,1,0,0,25.1
Status,1727328870000,66,25,6,4,1575420030,0.00,336.0,54.0,0,0,0,0.0
Status,1727328870000,66,26,6,6,1575420030,14.40,290.0,51.0,1,0,0,14.4
Status,1727328870000,66,27,6,11,1575420030,10.40,329.0,42.0,1,0,0,10.4
Status,1727328870000,66,28,6,9,1575420030,18.10,264.0,35.0,1,0,0,18.1
Status,1727328870000,66,29,6,33,1575420030,0.00,143.0,24.0,0,0,0,0.0
Status,1727328870000,66,30,6,19,1575420030,0.00,35.0,16.0,0,0,0,0.0
Status,1727328870000,66,31,6,31,1575420030,0.00,169.0,13.0,0,0,0,0.0
Status,1727328870000,66,32,5,2,1561097980,0.00,147.0,76.0,0,0,0,0.0
Status,1727328870000,66,33,5,60,1561097980,0.00,167.0,76.0,0,0,0,0.0
Status,1727328870000,66,34,5,9,1561097980,17.00,98.0,75.0,1,0,0,17.0
Status,1727328870000,66,35,5,6,1561097980,17.70,64.0,68.0,1,0,0,17.7
Status,1727328870000,66,36,5,5,1561097980,0.00,241.0,65.0,0,0,0,0.0
Status,1727328870000,66,37,5,16,1561097980,0.00,53.0,60.0,0,0,0,0.0
Status,1727328870000,66,38,5,39,1561097980,18.60,44.0,53.0,1,0,0,18.6
Status,1727328870000,66,39,5,28,1561097980,23.40,273.0,51.0,1,0,0,23.4
Status,1727328870000,66,40,5,3,1561097980,21.80,107.0,50.0,1,0,0,21.8
Status,1727328870000,66,41,5,56,1561097980,0.00,134.0,49.0,0,0,0,0.0
Status,1727328870000,66,42,5,61,1561097980,0.00,108.0,49.0,0,0,0,0.0
Status,1727328870000,66,43,5,13,1561097980,19.20,47.0,47.0,1,0,0,19.2
Status,1727328870000,66,44,5,25,1561097980,21.80,142.0,43.0,1,0,0,21.8
Status,1727328870000,66,45,5,8,1561097980,19.40,66.0,40.0,1,0,0,19.4
Status,1727328870000,66,46,5,43,1561097980,20.90,180.0,36.0,1,0,0,20.9
Status,1727328870000,66,47,5,33,1561097980,20.90,12.0,35.0,1,0,0,20.9
Status,1727328870000,66,48,5,38,1561097980,26.20,84.0,35.0,1,0,0,26.2
Status,1727328870000,66,49,5,24,1561097980,20.80,76.0,29.0,1,0,0,20.8
Status,1727328870000,66,50,5,41,1561097980,12.70,312.0,28.0,1,0,0,12.7
Status,1727328870000,66,51,5,14,1561097980,16.60,40.0,24.0,1,0,0,16.6
Status,1727328870000,66,52,5,11,1561097980,0.00,164.0,19.0,0,0,0,0.0
Status,1727328870000,66,53,5,59,1561097980,0.00,94.0,19.0,0,0,0,0.0
Status,1727328870000,66,54,5,10,1561097980,0.00,167.0,18.0,0,0,0,0.0
Status,1727328870000,66,55,5,27,1561097980,0.00,311.0,17.0,0,0,0,0.0
Status,1727328870000,66,56,5,1,1561097980,0.00,95.0,14.0,0,0,0,0.0
Status,1727328870000,66,57,5,23,1561097980,0.00,193.0,14.0,0,0,0,0.0
Status,1727328870000,66,58,5,7,1561097980,0.00,156.0,13.0,0,0,0,0.0
Status,1727328870000,66,59,5,42,1561097980,0.00,61.0,8.0,0,0,0,0.0
Status,1727328870000,66,60,5,57,1561097980,0.00,119.0,5.0,0,0,0,0.0
Status,1727328870000,66,61,5,40,1561097980,0.00,153.0,2.0,0,0,0,0.0
Status,1727328870000,66,62,4,196,1575420030,0.00,60.0,36.0,0,0,0,0.0
Status,1727328870000,66,63,4,199,1575420030,0.00,44.0,26.0,0,0,0,0.0
Status,1727328870000,66,64,4,195,1575420030,15.00,134.0,16.0,1,0,0,15.0
Status,1727328870000,66,65,4,194,1575420030,0.00,102.0,3.0,0,0,0,0.0
Fix,GPS,12.9341116667,77.5420433333,779.2,0.0,2.4,27.47,1727328871000,2.0,122.8,117601145000000,17.3,0,,,
Raw,1727328871000,516605000000,18,42.19862434026125,-1411363572395000064,0.0,42.19862434026125,-4408.92539515232,0.0,0,32,0.0,16431,365688927553582,487,19.736000061035156,-1073.7593663135056,0.14999,16,-462070.91512192745,0.009999999776482582,1575420030,,,,0,0.0,1,6.0,19.736000061035156,0.0,0.0,0.0,66.7128,C,,
Raw,1727328871000,516605000000,18,42.19862434026125,-1411363572395000064,0.0,42.19862434026125,-4408.92539515232,0.0,0,25,0.0,16431,365688919475078,797,19.68899917602539,-1527.5073815882777,0.14999,16,-464979.2845011985,0.02250000089406967,1575420030,,,,0,0.0,1,6.0,19.68899917602539,0.0,0.0,0.0,66.7128,C,,
Raw,1727328871000,516605000000,18,42.19862434026125,-1411363572395000064,0.0,42.19862434026125,-4408.92539515232,0.0,0,23,0.0,16431,365688925273251,235,28.700000762939453,-1275.041848298149,0.14999,17,-461660.5913469297,0.0008999999845400453,1575420030,,,,0,9.934872895177737,1,6.0,28.700000762939453,0.0,0.0,0.0,66.7128,C,,
Raw,1727328871000,516605000000,18,42.19862434026125,-1411363572395000064,0.0,42.19862434026125,-4408.92539515232,0.0,0,9,0.0,16431,365688914781138,487,18.100000381469727,-1429.7918593568147,0.14999,24,-465021.3958353444,0.009999999776482582,1575420030,,,,0,0.0,6,6.0,18.100000381469727,0.0,0.0,23.677920188263908,66.7128,C,,
Raw,1727328871000,516605000000,18,42.19862434026125,-1411363572395000064,0.0,42.19862434026125,-4408.92539515232,0.0,0,14,0.0,16905,365674917457415,797,16.600000381469727,-1155.4052734375,0.14999,16,-465719.65983882087,0.02250000089406967,1561097980,,,,0,0.0,5,6.0,16.600000381469727,0.0,0.0,-5.845853970092959,66.7128,I,,
Raw,1727328871000,516605000000,18,42.19862434026125,-1411363572395000064,0.0,42.19862434026125,-4408.92539515232,0.0,0,24,0.0,16905,365674920120100,487,20.799999237060547,-1248.1900634765625,0.14999,16,-467253.08023754583,0.009999999776482582,1561097980,,,,0,0.37142479092903846,5,6.0,20.799999237060547,0.0,0.0,-5.845853970092959,66.7128,I,,
Raw,1727328871000,516605000000,18,42.19862434026125,-1411363572395000064,0.0,42.19862434026125,-4408.92539515232,0.0,0,43,0.0,16905,365674921184406,487,20.917999267578125,-805.8641967773438,0.14999,16,-462849.28757664264,0.009999999776482582,1561097980,,,,0,0.0,5,6.0,20.917999267578125,0.0,0.0,-5.845853970092959,66.7128,I,,
Raw,1727328871000,516605000000,18,42.19862434026125,-1411363572395000064,0.0,42.19862434026125,-4408.92539515232,0.0,0,38,0.0,16905,365674873340201,316,26.240999221801758,-1457.081298828125,0.14999,20,-507403.8923743846,0.002025000052526593,1561097980,,,,0,5.894410435139479,5,6.0,26.240999221801758,0.0,0.0,-5.845853970092959,66.7128,I,,
Raw,1727328871000,516605000000,18,42.19862434026125,-1411363572395000064,0.0,42.19862434026125,-4408.92539515232,0.0,0,25,0.0,16905,365674923450823,396,21.799999237060547,-1676.923095703125,0.14999,16,-588308.3904970316,0.004900000058114529,1561097980,,,,0,1.8711274200093726,5,6.0,21.799999237060547,0.0,0.0,-5.845853970092959,66.7128,I,,
Raw,1727328871000,516605000000,18,42.19862434026125,-1411363572395000064,0.0,42.19862434026125,-4408.92539515232,0.0,0,31,0.0,16431,365688923453735,396,24.326000213623047,-1996.396566373394,0.14999,20,-692680.7891545098,0.004900000058114529,1575420030,,,,0,4.086960372382148,1,6.0,24.326000213623047,0.0,0.0,0.0,66.7128,C,,
Raw,1727328871000,516605000000,18,42.19862434026125,-1411363572395000064,0.0,42.19862434026125,-4408.92539515232,0.0,0,28,0.0,16905,365674924901375,316,23.363000869750977,-1324.8756103515625,0.14999,16,-467766.4566076431,0.002025000052526593,1561097980,,,,0,4.618798541260525,5,6.0,23.363000869750977,0.0,0.0,-5.845853970092959,66.7128,I,,
Raw,1727328871000,516605000000,18,42.19862434026125,-1411363572395000064,0.0,42.19862434026125,-4408.92539515232,0.0,0,26,0.0,16431,365688917006440,797,13.800000190734863,-1666.060502086631,0.14999,16,-471895.23393149575,0.02250000089406967,1575420030,,,,0,0.0,1,6.0,13.800000190734863,0.0,0.0,0.0,66.7128,C,,
Raw,1727328871000,516605000000,18,42.19862434026125,-1411363572395000064,0.0,42.19862434026125,-4408.92539515232,0.0,0,8,0.0,16905,365674873956366,487,19.399999618530273,-1501.6688232421875,0.14999,16,-469882.047474006,0.009999999776482582,1561097980,,,,0,0.0,5,6.0,19.399999618530273,0.0,0.0,-5.845853970092959,66.7128,I,,
Raw,1727328871000,516605000000,18,42.19862434026125,-1411363572395000064,0.0,42.19862434026125,-4408.92539515232,0.0,0,17,0.0,32995,30870935465781,487,13.399999618530273,-1172.050486883615,0.14999,16,-453854.66704168945,0.009999999776482582,1604249980,,,,0,0.0,3,6.0,13.399999618530273,0.0,0.0,-10.15019287771034,66.7128,C,,
Raw,1727328871000,516605000000,18,42.19862434026125,-1411363572395000064,0.0,42.19862434026125,-4408.92539515232,0.0,0,4,0.0,32995,30870921353372,1797,0.0,-1434.0285395640713,0.14999,16,-456480.7120435729,0.02250000089406967,1605374980,,,,0,0.0,3,6.0,13.0,0.0,0.0,-10.15019287771034,66.7128,C,,
Raw,1727328871000,516605000000,18,42.19862434026125,-1411363572395000064,0.0,42.19862434026125,-4408.92539515232,0.0,0,2,0.0,32995,30870924621374,487,16.5,-1039.902343576649,0.14999,16,-455445.5657081081,0.009999999776482582,1599750020,,,,0,0.0,3,6.0,16.5,0.0,0.0,-10.15019287771034,66.7128,C,,
Raw,1727328871000,516605000000,18,42.19862434026125,-1411363572395000064,0.0,42.19862434026125,-4408.92539515232,0.0,0,12,0.0,32995,30870924745856,797,0.0,-1294.4772714214744,0.14999,16,-456391.40800752834,0.02250000089406967,1601437440,,,,0,0.0,3,6.0,17.0,0.0,0.0,-10.15019287771034,66.7128,C,,
Raw,1727328871000,516605000000,18,42.19862434026125,-1411363572395000064,0.0,42.19862434026125,-4408.92539515232,0.0,0,24,0.0,32995,30870927682755,797,0.0,-577.1875010860606,0.14999,16,-225675.29818182276,0.02250000089406967,1603124990,,,,0,0.0,3,6.0,16.0,0.0,0.0,-10.15019287771034,66.7128,C,,
Raw,1727328871000,516605000000,18,42.19862434026125,-1411363572395000064,0.0,42.19862434026125,-4408.92539515232,0.0,0,28,0.0,16431,365688930710179,797,20.47800064086914,-1659.468796161015,0.14999,16,-499754.7504315413,0.02250000089406967,1575420030,,,,0,0.0,1,6.0,20.47800064086914,0.0,0.0,0.0,66.7128,C,,
Raw,1727328871000,516605000000,18,42.19862434026125,-1411363572395000064,0.0,42.19862434026125,-4408.92539515232,0.0,0,27,0.0,16431,365688922216778,487,22.886999130249023,-1098.0719846848044,0.14999,16,-453743.95784394623,0.009999999776482582,1575420030,,,,0,1.9235898452140079,1,6.0,22.886999130249023,0.0,0.0,0.0,66.7128,C,,
Raw,1727328871000,516605000000,18,42.19862434026125,-1411363572395000064,0.0,42.19862434026125,-4408.92539515232,0.0,0,18,0.0,16431,365688923619615,487,17.038999557495117,-724.895964392477,0.14999,16,-462898.1417411593,0.009999999776482582,1575420030,,,,0,0.0,1,6.0,17.038999557495117,0.0,0.0,0.0,66.7128,C,,
Raw,1727328871000,516605000000,18,42.19862434026125,-1411363572395000064,0.0,42.19862434026125,-4408.92539515232,0.0,0,10,0.0,16431,365688926323971,797,17.86400032043457,-1520.5971567611223,0.14999,16,-465062.1813188829,0.02250000089406967,1575420030,,,,0,0.0,1,6.0,17.86400032043457,0.0,0.0,0.0,66.7128,C,,
Raw,1727328871000,516605000000,18,42.19862434026125,-1411363572395000064,0.0,42.19862434026125,-4408.92539515232,0.0,0,41,0.0,16905,365674918113293,797,12.699999809265137,-1379.4852294921875,0.14999,16,-468535.6751499533,0.02250000089406967,1561097980,,,,0,0.0,5,6.0,12.699999809265137,0.0,0.0,-5.845853970092959,66.7128,I,,
Raw,1727328871000,516605000000,18,42.19862434026125,-1411363572395000064,0.0,42.19862434026125,-4408.92539515232,0.0,0,6,0.0,16905,365674879184325,487,17.72599983215332,-1325.207763671875,0.14999,16,-467997.15163708216,0.009999999776482582,1561097980,,,,0,0.0,5,6.0,17.72599983215332,0.0,0.0,-5.845853970092959,66.7128,I,,
Raw,1727328871000,516605000000,18,42.19862434026125,-1411363572395000064,0.0,42.19862434026125,-4408.92539515232,0.0,0,10,0.0,16431,365688921289139,316,25.100000381469727,-1504.7357888826825,0.14999,25,-465826.8065753724,0.002025000052526593,1575420030,,,,0,6.183295630915033,6,6.0,25.100000381469727,0.0,0.0,23.677920188263908,66.7128,C,,
Raw,1727328871000,516605000000,18,42.19862434026125,-1411363572395000064,0.0,42.19862434026125,-4408.92539515232,0.0,0,39,0.0,16905,365674876627831,487,18.600000381469727,-1238.3604736328125,0.14999,16,-467523.623631064,0.009999999776482582,1561097980,,,,0,0.0,5,6.0,18.600000381469727,0.0,0.0,-5.845853970092959,66.7128,I,,
Raw,1727328871000,516605000000,18,42.19862434026125,-1411363572395000064,0.0,42.19862434026125,-4408.92539515232,0.0,0,6,0.0,16431,365688918864054,797,14.449999809265137,-1281.4973381474358,0.14999,24,-463440.67203371914,0.02250000089406967,1575420030,,,,0,0.0,6,6.0,14.449999809265137,0.0,0.0,23.677920188263908,66.7128,C,,
