# 
# Header Description:
# 
# Version: v3.1.0.2 Platform: 13 Manufacturer: OPPO Model: CPH2371 GNSS Hardware Model Name: MTK_MNLD_default,MNL_VER_default
# 
# Raw,utcTimeMillis,TimeNanos,LeapSecond,TimeUncertaintyNanos,FullBiasNanos,BiasNanos,BiasUncertaintyNanos,DriftNanosPerSecond,DriftUncertaintyNanosPerSecond,HardwareClockDiscontinuityCount,Svid,TimeOffsetNanos,State,ReceivedSvTimeNanos,ReceivedSvTimeUncertaintyNanos,Cn0DbHz,PseudorangeRateMetersPerSecond,PseudorangeRateUncertaintyMetersPerSecond,AccumulatedDeltaRangeState,AccumulatedDeltaRangeMeters,AccumulatedDeltaRangeUncertaintyMeters,CarrierFrequencyHz,CarrierCycles,CarrierPhase,CarrierPhaseUncertainty,MultipathIndicator,SnrInDb,ConstellationType,AgcDb,BasebandCn0DbHz,FullInterSignalBiasNanos,FullInterSignalBiasUncertaintyNanos,SatelliteInterSignalBiasNanos,SatelliteInterSignalBiasUncertaintyNanos,CodeType,ChipsetElapsedRealtimeNanos,IsFullTracking
# 
# UncalAccel,utcTimeMillis,elapsedRealtimeNanos,UncalAccelXMps2,UncalAccelYMps2,UncalAccelZMps2,BiasXMps2,BiasYMps2,BiasZMps2
# 
# Accel,utcTimeMillis,elapsedRealtimeNanos,AccelXMps2,AccelYMps2,AccelZMps2
# 
# UncalGyro,utcTimeMillis,elapsedRealtimeNanos,UncalGyroXRadPerSec,UncalGyroYRadPerSec,UncalGyroZRadPerSec,DriftXRadPerSec,DriftYRadPerSec,DriftZRadPerSec
# 
# Gyro,utcTimeMillis,elapsedRealtimeNanos,GyroXRadPerSec,GyroYRadPerSec,GyroZRadPerSec
# 
# UncalMag,utcTimeMillis,elapsedRealtimeNanos,UncalMagXMicroT,UncalMagYMicroT,UncalMagZMicroT,BiasXMicroT,BiasYMicroT,BiasZMicroT
# 
# Mag,utcTimeMillis,elapsedRealtimeNanos,MagXMicroT,MagYMicroT,MagZMicroT
# 
# Pressure,utcTimeMillis,elapsedRealtimeNanos,PressureHpa
# 
# OrientationDeg,utcTimeMillis,elapsedRealtimeNanos,yawDeg,rollDeg,pitchDeg
# 
# Fix,Provider,LatitudeDegrees,LongitudeDegrees,AltitudeMeters,SpeedMps,AccuracyMeters,BearingDegrees,UnixTimeMillis,SpeedAccuracyMps,BearingAccuracyDegrees,elapsedRealtimeNanos,VerticalAccuracyMeters,MockLocation,NumberOfUsedSignals,VerticalSpeedAccuracyMps,SolutionType
# 
# Nav,Svid,Type,Status,MessageId,Sub-messageId,Data(Bytes)
# 
# Status,UnixTimeMillis,SignalCount,SignalIndex,ConstellationType,Svid,CarrierFrequencyHz,Cn0DbHz,AzimuthDegrees,ElevationDegrees,UsedInFix,HasAlmanacData,HasEphemerisData,BasebandCn0DbHz
# 
# Agc,utcTimeMillis,TimeNanos,LeapSecond,TimeUncertaintyNanos,FullBiasNanos,BiasNanos,BiasUncertaintyNanos,DriftNanosPerSecond,DriftUncertaintyNanosPerSecond,HardwareClockDiscontinuityCount,AgcDb,CarrierFrequencyHz,ConstellationType
# 
Fix,FLP,12.9342767000,77.5434550000,805.7999877929688,0.0,1.55,,1727332472003,1.1,,121202145000000,1.04696,0,,,
Status,,73,0,1,28,1575420030,23.20,41.0,83.0,1,0,0,23.2
Status,,73,1,2,128,1575420030,29.00,156.0,73.0,0,0,0,29.0
Status,,73,2,1,31,1575420030,23.90,209.0,56.0,1,0,0,23.9
Status,,73,3,1,10,1575420030,29.80,54.0,47.0,1,0,0,29.8
Status,,73,4,1,32,1575420030,21.10,12.0,35.0,1,0,0,21.1
Status,,73,5,1,21,1575420030,25.70,312.0,28.0,1,0,0,25.7
Status,,73,6,1,23,1575420030,16.20,99.0,26.0,1,0,0,16.2
Status,,73,7,1,26,1575420030,18.60,173.0,23.0,1,0,0,18.6
Status,,73,8,1,27,1575420030,18.70,225.0,17.0,1,0,0,18.7
Status,,73,9,1,25,1575420030,27.80,80.0,15.0,1,0,0,27.8
Status,,73,10,2,122,1575420030,0.00,92.0,15.0,0,0,0,0.0
Status,,73,11,2,137,1575420030,0.00,95.0,13.0,0,0,0,0.0
Status,,73,12,1,2,1575420030,0.00,319.0,12.0,0,0,0,0.0
Status,,73,13,1,8,1575420030,0.00,256.0,10.0,0,0,0,0.0
Status,,73,14,1,18,1575420030,0.00,151.0,5.0,0,0,0,0.0
Status,,73,15,1,16,1575420030,0.00,198.0,3.0,0,0,0,0.0
Status,,73,16,3,18,1602000000,18.60,280.0,48.0,1,0,0,18.6
Status,,73,17,3,17,1602000000,19.00,205.0,41.0,1,0,0,19.0
Status,,73,18,3,13,1602000000,19.50,81.0,41.0,0,0,0,19.5
Status,,73,19,3,14,1602000000,14.30,160.0,33.0,1,0,0,14.3
Status,,73,20,3,3,1602000000,0.00,353.0,25.0,0,0,0,0.0
Status,,73,21,3,19,1602000000,0.00,320.0,19.0,0,0,0,0.0
Status,,73,22,3,2,1602000000,11.70,45.0,13.0,1,0,0,11.7
Status,,73,23,3,4,1602000000,15.90,304.0,12.0,1,0,0,15.9
Status,,73,24,3,12,1602000000,17.10,42.0,11.0,1,0,0,17.1
Status,,73,25,3,24,1602000000,0.00,168.0,2.0,0,0,0,0.0
Status,,73,26,6,10,1575420030,22.90,219.0,78.0,1,0,0,22.9
Status,,73,27,6,11,1575420030,18.90,307.0,61.0,1,0,0,18.9
Status,,73,28,6,12,1575420030,15.00,167.0,58.0,1,0,0,15.0
Status,,73,29,6,6,1575420030,19.80,324.0,46.0,1,0,0,19.8
Status,,73,30,6,4,1575420030,0.00,1.0,41.0,0,0,0,0.0
Status,,73,31,6,9,1575420030,28.30,293.0,37.0,1,0,0,28.3
Status,,73,32,6,31,1575420030,0.00,151.0,24.0,0,0,0,0.0
Status,,73,33,6,36,1575420030,0.00,324.0,13.0,0,0,0,0.0
Status,,73,34,6,33,1575420030,0.00,151.0,6.0,0,0,0,0.0
Status,,73,35,6,19,1575420030,0.00,49.0,5.0,0,0,0,0.0
Status,,73,36,6,24,1575420030,0.00,198.0,5.0,0,0,0,0.0
Status,,73,37,6,5,1575420030,0.00,253.0,3.0,0,0,0,0.0
Status,,73,38,6,18,1575420030,0.00,146.0,2.0,0,0,0,0.0
Status,,73,39,5,9,1561097980,24.80,34.0,76.0,1,0,0,24.8
Status,,73,40,5,2,1561097980,29.30,147.0,76.0,1,0,0,29.3
Status,,73,41,5,60,1561097980,0.00,168.0,76.0,0,0,0,0.0
Status,,73,42,5,5,1561097980,0.00,241.0,65.0,0,0,0,0.0
Status,,73,43,5,6,1561097980,23.70,32.0,64.0,1,0,0,23.7
Status,,73,44,5,56,1561097980,0.00,124.0,63.0,0,0,0,0.0
Status,,73,45,5,13,1561097980,17.80,65.0,57.0,1,0,0,17.8
Status,,73,46,5,25,1561097980,28.80,105.0,57.0,1,0,0,28.8
Status,,73,47,5,16,1561097980,19.30,32.0,54.0,1,0,0,19.3
Status,,73,48,5,3,1561097980,0.00,108.0,49.0,0,0,0,0.0
Status,,73,49,5,61,1561097980,0.00,108.0,49.0,0,0,0,0.0
Status,,73,50,5,8,1561097980,17.90,86.0,47.0,1,0,0,17.9
Status,,73,51,5,39,1561097980,17.00,30.0,46.0,1,0,0,17.0
Status,,73,52,5,28,1561097980,19.00,234.0,43.0,1,0,0,19.0
Status,,73,53,5,38,1561097980,13.30,103.0,40.0,1,0,0,13.3
Status,,73,54,5,23,1561097980,24.90,184.0,35.0,1,0,0,24.9
Status,,73,55,5,33,1561097980,12.80,39.0,32.0,1,0,0,12.8
Status,,73,56,5,41,1561097980,16.40,339.0,32.0,1,0,0,16.4
Status,,73,57,5,27,1561097980,26.50,288.0,26.0,1,0,0,26.5
Status,,73,58,5,24,1561097980,23.70,52.0,20.0,1,0,0,23.7
Status,,73,59,5,14,1561097980,33.00,64.0,19.0,1,0,0,33.0
Status,,73,60,5,59,1561097980,0.00,95.0,19.0,0,0,0,0.0
Status,,73,61,5,10,1561097980,0.00,161.0,17.0,0,0,0,0.0
Status,,73,62,5,43,1561097980,17.20,170.0,15.0,1,0,0,17.2
Status,,73,63,5,7,1561097980,0.00,150.0,14.0,0,0,0,0.0
Status,,73,64,5,1,1561097980,0.00,95.0,14.0,0,0,0,0.0
Status,,73,65,5,57,1561097980,0.00,95.0,11.0,0,0,0,0.0
Status,,73,66,5,42,1561097980,0.00,84.0,3.0,0,0,0,0.0
Status,,73,67,5,32,1561097980,0.00,294.0,2.0,0,0,0,0.0
Status,,73,68,5,40,1561097980,0.00,145.0,2.0,0,0,0,0.0
Status,,73,69,4,196,1575420030,0.00,66.0,38.0,0,0,0,0.0
Status,,73,70,4,199,1575420030,0.00,47.0,21.0,0,0,0,0.0
Status,,73,71,4,195,1575420030,0.00,137.0,9.0,0,0,0,0.0
Status,,73,72,4,194,1575420030,0.00,93.0,9.0,0,0,0,0.0
Fix,GPS,12.9342766667,77.5434550000,786.9,0.0,1.8,307.06,1727332473000,1.6,114.6,121203145000000,16.2,0,,,
Fix,FLP,12.9342767000,77.5434550000,805.7999877929688,0.0,1.616,,1727332473003,1.6,,121203145000000,1.05696,0,,,
Raw,1727332473000,572845000000,18,39.0164340186982,-1411367118155000064,0.0,39.0164340186982,-4189.847391457919,0.0,0,28,0.0,16431,369290932444133,396,23.224000930786133,-1176.6988586973464,0.14999,16,-246355.97280634864,0.004900000058114529,1575420030,,,,0,2.4896461032247905,1,6.0,23.224000930786133,0.0,0.0,0.0,66.7128,C,,
Raw,1727332473000,572845000000,18,39.0164340186982,-1411367118155000064,0.0,39.0164340186982,-4189.847391457919,0.0,0,32,0.0,16431,369290924517556,797,21.142000198364258,-1003.1796474896233,0.14999,16,-207533.11918366724,0.02250000089406967,1575420030,,,,0,0.0,1,6.0,21.142000198364258,0.0,0.0,0.0,66.7128,C,,
Raw,1727332473000,572845000000,18,39.0164340186982,-1411367118155000064,0.0,39.0164340186982,-4189.847391457919,0.0,0,10,0.0,16431,369290928537972,316,29.77199935913086,-1374.0364636447207,0.14999,25,-285654.82956750836,0.002025000052526593,1575420030,,,,0,11.268823959023024,1,6.0,29.77199935913086,0.0,0.0,0.0,66.7128,C,,
Raw,1727332473000,572845000000,18,39.0164340186982,-1411367118155000064,0.0,39.0164340186982,-4189.847391457919,0.0,0,23,0.0,16431,369290923843852,797,16.18000030517578,-1024.3170189465968,0.14999,16,-213890.70300508317,0.02250000089406967,1575420030,,,,0,0.0,1,6.0,16.18000030517578,0.0,0.0,0.0,66.7128,C,,
Raw,1727332473000,572845000000,18,39.0164340186982,-1411367118155000064,0.0,39.0164340186982,-4189.847391457919,0.0,0,26,0.0,16431,369290922265013,487,18.56100082397461,-1749.4689692123939,0.14999,16,-360554.39329779963,0.009999999776482582,1575420030,,,,0,0.0,1,6.0,18.56100082397461,0.0,0.0,0.0,66.7128,C,,
Raw,1727332473000,572845000000,18,39.0164340186982,-1411367118155000064,0.0,39.0164340186982,-4189.847391457919,0.0,0,14,0.0,16905,369276915970256,58,32.99100112915039,-1144.3394775390625,0.14999,25,-237136.62862003592,0.00039999998989515007,1561097980,,,,0,15.856070765108752,5,6.0,32.99100112915039,0.0,0.0,-12.59531874349924,66.7128,I,,
Raw,1727332473000,572845000000,18,39.0164340186982,-1411367118155000064,0.0,39.0164340186982,-4189.847391457919,0.0,0,38,0.0,16905,369276874708541,797,13.300000190734863,-1321.4993896484375,0.14999,16,-274240.2921152364,0.02250000089406967,1561097980,,,,0,0.0,5,6.0,13.300000190734863,0.0,0.0,-12.59531874349924,66.7128,I,,
Raw,1727332473000,572845000000,18,39.0164340186982,-1411367118155000064,0.0,39.0164340186982,-4189.847391457919,0.0,0,9,0.0,16905,369276878349455,316,24.833999633789062,-1192.593505859375,0.14999,17,-249434.7979434358,0.002025000052526593,1561097980,,,,0,6.986693504770725,5,6.0,24.833999633789062,0.0,0.0,-12.59531874349924,66.7128,I,,
Raw,1727332473000,572845000000,18,39.0164340186982,-1411367118155000064,0.0,39.0164340186982,-4189.847391457919,0.0,0,33,0.0,16905,369276919281390,396,12.800000190734863,-1226.44580078125,0.14999,16,-255054.19890709672,0.004900000058114529,1561097980,,,,0,0.0,5,6.0,12.800000190734863,0.0,0.0,-12.59531874349924,66.7128,I,,
Raw,1727332473000,572845000000,18,39.0164340186982,-1411367118155000064,0.0,39.0164340186982,-4189.847391457919,0.0,0,27,0.0,16905,369276919061273,316,26.47800064086914,-1349.2176513671875,0.14999,20,-267004.043557388,0.002025000052526593,1561097980,,,,0,5.403068583818228,5,6.0,26.47800064086914,0.0,0.0,-12.59531874349924,66.7128,I,,
Raw,1727332473000,572845000000,18,39.0164340186982,-1411367118155000064,0.0,39.0164340186982,-4189.847391457919,0.0,0,11,0.0,16431,369290922352823,487,18.899999618530273,-1416.7166956153533,0.14999,24,-267519.63916358893,0.009999999776482582,1575420030,,,,0,0.0,6,6.0,18.899999618530273,0.0,0.0,0.3587290276096011,66.7128,C,,
Raw,1727332473000,572845000000,18,39.0164340186982,-1411367118155000064,0.0,39.0164340186982,-4189.847391457919,0.0,0,25,0.0,16905,369276926440962,74,28.780000686645508,-1351.5047607421875,0.14999,17,-272964.2390841915,0.0006249999860301614,1561097980,,,,0,12.272277024087554,5,6.0,28.780000686645508,0.0,0.0,-12.59531874349924,66.7128,I,,
Raw,1727332473000,572845000000,18,39.0164340186982,-1411367118155000064,0.0,39.0164340186982,-4189.847391457919,0.0,0,31,0.0,16431,369290930479503,396,23.875999450683594,-1688.2542450113997,0.14999,16,-348253.24894849217,0.004900000058114529,1575420030,,,,0,3.4239549666262126,1,6.0,23.875999450683594,0.0,0.0,0.0,66.7128,C,,
Raw,1727332473000,572845000000,18,39.0164340186982,-1411367118155000064,0.0,39.0164340186982,-4189.847391457919,0.0,0,14,0.0,32995,34472928907766,797,0.0,-1880.7520567140166,0.14999,16,-381617.1696914266,0.02250000089406967,1598062460,,,,0,0.0,3,6.0,15.0,0.0,0.0,-37.741829299576054,66.7128,C,,
Raw,1727332473000,572845000000,18,39.0164340186982,-1411367118155000064,0.0,39.0164340186982,-4189.847391457919,0.0,0,4,0.0,32995,34472922508039,1797,14.300000190734863,-1346.2415739317137,0.14999,16,-262810.9415561914,0.02250000089406967,1605374980,,,,0,0.0,3,6.0,14.300000190734863,0.0,0.0,-37.741829299576054,66.7128,C,,
Raw,1727332473000,572845000000,18,39.0164340186982,-1411367118155000064,0.0,39.0164340186982,-4189.847391457919,0.0,0,2,0.0,32995,34472922300138,1797,15.899999618530273,-1125.2640360901478,0.14999,16,-256845.66688364316,0.02250000089406967,1599750020,,,,0,0.0,3,6.0,15.899999618530273,0.0,0.0,-37.741829299576054,66.7128,C,,
Raw,1727332473000,572845000000,18,39.0164340186982,-1411367118155000064,0.0,39.0164340186982,-4189.847391457919,0.0,0,18,0.0,32995,34472932259341,797,0.0,-1234.053872820021,0.14999,16,-258045.76088995568,0.02250000089406967,1600312450,,,,0,0.0,3,6.0,17.0,0.0,0.0,-37.741829299576054,66.7128,C,,
Raw,1727332473000,572845000000,18,39.0164340186982,-1411367118155000064,0.0,39.0164340186982,-4189.847391457919,0.0,0,12,0.0,32995,34472921820037,1797,0.0,-778.400578303953,0.14999,16,-251714.81873943165,0.02250000089406967,1601437440,,,,0,0.0,3,6.0,13.0,0.0,0.0,-37.741829299576054,66.7128,C,,
Raw,1727332473000,572845000000,18,39.0164340186982,-1411367118155000064,0.0,39.0164340186982,-4189.847391457919,0.0,0,17,0.0,32995,34472930730782,487,17.09600067138672,-653.4920145523548,0.14999,16,-153474.6469055398,0.009999999776482582,1604249980,,,,0,0.996927452901955,3,6.0,17.09600067138672,0.0,0.0,-37.741829299576054,66.7128,C,,
Raw,1727332473000,572845000000,18,39.0164340186982,-1411367118155000064,0.0,39.0164340186982,-4189.847391457919,0.0,0,13,0.0,17,586724,487,0.0,-1256.2185941420494,0.14999,16,-258008.18117292027,0.009999999776482582,1600875010,,,,0,0.0,3,6.0,20.0,0.0,0.0,-37.741829299576054,66.7128,C,,
Raw,1727332473000,572845000000,18,39.0164340186982,-1411367118155000064,0.0,39.0164340186982,-4189.847391457919,0.0,0,21,0.0,16431,369290921665297,316,25.738000869750977,-1647.933543083268,0.14999,17,-316249.9282895924,0.002025000052526593,1575420030,,,,0,6.075171127161026,1,6.0,25.738000869750977,0.0,0.0,0.0,66.7128,C,,
Raw,1727332473000,572845000000,18,39.0164340186982,-1411367118155000064,0.0,39.0164340186982,-4189.847391457919,0.0,0,25,0.0,16431,369290921036147,235,27.83799934387207,-1257.1719901700951,0.14999,20,-261716.45995875399,0.0008999999845400453,1575420030,,,,0,8.846169150749958,1,6.0,27.83799934387207,0.0,0.0,0.0,66.7128,C,,
Raw,1727332473000,572845000000,18,39.0164340186982,-1411367118155000064,0.0,39.0164340186982,-4189.847391457919,0.0,0,27,0.0,16431,369290919132565,797,18.711000442504883,-984.6181164610271,0.14999,16,-247255.5807814595,0.02250000089406967,1575420030,,,,0,0.0,1,6.0,18.711000442504883,0.0,0.0,0.0,66.7128,C,,
Raw,1727332473000,572845000000,18,39.0164340186982,-1411367118155000064,0.0,39.0164340186982,-4189.847391457919,0.0,0,24,0.0,16905,369276917530591,797,23.663000106811523,-886.957275390625,0.14999,16,-216478.03387997285,0.02250000089406967,1561097980,,,,0,2.6882925698435507,5,6.0,23.663000106811523,0.0,0.0,-12.59531874349924,66.7128,I,,
Raw,1727332473000,572845000000,18,39.0164340186982,-1411367118155000064,0.0,39.0164340186982,-4189.847391457919,0.0,0,8,0.0,16905,369276875998269,487,17.895999908447266,-1386.313720703125,0.14999,16,-273422.57447684207,0.009999999776482582,1561097980,,,,0,0.0,5,6.0,17.895999908447266,0.0,0.0,-12.59531874349924,66.7128,I,,
Raw,1727332473000,572845000000,18,39.0164340186982,-1411367118155000064,0.0,39.0164340186982,-4189.847391457919,0.0,0,10,0.0,16431,369290921787468,396,22.899999618530273,-1129.7279132391734,0.14999,24,-253660.00990735425,0.004900000058114529,1575420030,,,,0,3.374603188186243,6,6.0,22.899999618530273,0.0,0.0,0.3587290276096011,66.7128,C,,
Raw,1727332473000,572845000000,18,39.0164340186982,-1411367118155000064,0.0,39.0164340186982,-4189.847391457919,0.0,0,16,0.0,16905,369276875543369,797,19.299999237060547,-1126.1107177734375,0.14999,16,-260803.40020462844,0.02250000089406967,1561097980,,,,0,0.0,5,6.0,19.299999237060547,0.0,0.0,-12.59531874349924,66.7128,I,,
Raw,1727332473000,572845000000,18,39.0164340186982,-1411367118155000064,0.0,39.0164340186982,-4189.847391457919,0.0,0,9,0.0,16431,369290915345197,235,28.299999237060547,-1241.0918031513038,0.14999,24,-257545.3784493126,0.0008999999845400453,1575420030,,,,0,10.096153994281218,6,6.0,28.299999237060547,0.0,0.0,0.3587290276096011,66.7128,C,,
Raw,1727332473000,572845000000,18,39.0164340186982,-1411367118155000064,0.0,39.0164340186982,-4189.847391457919,0.0,0,41,0.0,16905,369276919307252,797,16.399999618530273,-1388.394775390625,0.14999,16,-271829.5413969032,0.02250000089406967,1561097980,,,,0,0.0,5,6.0,16.399999618530273,0.0,0.0,-12.59531874349924,66.7128,I,,
Raw,1727332473000,572845000000,18,39.0164340186982,-1411367118155000064,0.0,39.0164340186982,-4189.847391457919,0.0,0,43,0.0,16905,369276914987916,487,17.160999298095703,-755.1295166015625,0.14999,16,-176835.6879844039,0.009999999776482582,1561097980,,,,0,0.0,5,6.0,17.160999298095703,0.0,0.0,-12.59531874349924,66.7128,I,,
Raw,1727332473000,572845000000,18,39.0164340186982,-1411367118155000064,0.0,39.0164340186982,-4189.847391457919,0.0,0,23,0.0,16905,369276920488252,487,24.8700008392334,-1778.6112060546875,0.14999,20,-332361.4919626659,0.009999999776482582,1561097980,,,,0,5.494021138832641,5,6.0,24.8700008392334,0.0,0.0,-12.59531874349924,66.7128,I,,
Raw,1727332473000,572845000000,18,39.0164340186982,-1411367118155000064,0.0,39.0164340186982,-4189.847391457919,0.0,0,12,0.0,16431,369290918784417,396,15.0,-904.4792997513293,0.14999,24,-251363.57362873456,0.004900000058114529,1575420030,,,,0,0.0,6,6.0,15.0,0.0,0.0,0.3587290276096011,66.7128,C,,
Raw,1727332473000,572845000000,18,39.0164340186982,-1411367118155000064,0.0,39.0164340186982,-4189.847391457919,0.0,0,28,0.0,16905,369276923200808,487,19.0,-973.8090209960938,0.14999,16,-218099.2139578374,0.009999999776482582,1561097980,,,,0,0.0,5,6.0,19.0,0.0,0.0,-12.59531874349924,66.7128,I,,
Raw,1727332473000,572845000000,18,39.0164340186982,-1411367118155000064,0.0,39.0164340186982,-4189.847391457919,0.0,0,2,0.0,16905,369276881176229,235,29.299999237060547,-1253.4163818359375,0.14999,16,-264456.4585255593,0.0008999999845400453,1561097980,,,,0,11.238855362399597,5,6.0,29.299999237060547,0.0,0.0,-12.59531874349924,66.7128,I,,
Raw,1727332473000,572845000000,18,39.0164340186982,-1411367118155000064,0.0,39.0164340186982,-4189.847391457919,0.0,0,6,0.0,16431,369290917899714,487,19.799999237060547,-1135.8069970003223,0.14999,24,-257131.23114666072,0.009999999776482582,1575420030,,,,0,0.0,6,6.0,19.799999237060547,0.0,0.0,0.3587290276096011,66.7128,C,,
Raw,1727332473000,572845000000,18,39.0164340186982,-1411367118155000064,0.0,39.0164340186982,-4189.847391457919,0.0,0,39,0.0,16905,369276875271243,487,16.989999771118164,-1102.384765625,0.14999,16,-243981.3239456153,0.009999999776482582,1561097980,,,,0,0.0,5,6.0,16.989999771118164,0.0,0.0,-12.59531874349924,66.7128,I,,
Raw,1727332473000,572845000000,18,39.0164340186982,-1411367118155000064,0.0,39.0164340186982,-4189.847391457919,0.0,0,13,0.0,16905,369276878673845,797,17.799999237060547,-1421.556396484375,0.14999,16,-273368.356154889,0.02250000089406967,1561097980,,,,0,0.0,5,6.0,17.799999237060547,0.0,0.0,-12.59531874349924,66.7128,I,,
Raw,1727332473000,572845000000,18,39.0164340186982,-1411367118155000064,0.0,39.0164340186982,-4189.847391457919,0.0,0,6,0.0,16905,369276878694037,316,23.700000762939453,-1158.4212646484375,0.14999,20,-243348.380535408,0.002025000052526593,1561097980,,,,0,4.487918772604726,5,6.0,23.700000762939453,0.0,0.0,-12.59531874349924,66.7128,I,,
Status,1727332473000,73,0,1,28,1575420030,23.20,41.0,83.0,1,0,0,23.2
Status,1727332473000,73,1,2,128,1575420030,33.00,156.0,73.0,0,0,0,33.0
Status,1727332473000,73,2,1,31,1575420030,22.50,209.0,56.0,1,0,0,22.5
Status,1727332473000,73,3,1,10,1575420030,23.80,54.0,47.0,1,0,0,23.8
Status,1727332473000,73,4,1,32,1575420030,21.10,12.0,35.0,1,0,0,21.1
Status,1727332473000,73,5,1,21,1575420030,25.00,312.0,28.0,1,0,0,25.0
Status,1727332473000,73,6,1,23,1575420030,21.00,99.0,26.0,1,0,0,21.0
Status,1727332473000,73,7,1,26,1575420030,22.30,173.0,23.0,1,0,0,22.3
Status,1727332473000,73,8,1,27,1575420030,18.60,225.0,17.0,1,0,0,18.6
Status,1727332473000,73,9,1,25,1575420030,27.60,80.0,15.0,1,0,0,27.6
Status,1727332473000,73,10,2,122,1575420030,0.00,92.0,15.0,0,0,0,0.0
Status,1727332473000,73,11,2,137,1575420030,0.00,95.0,13.0,0,0,0,0.0
Status,1727332473000,73,12,1,2,1575420030,0.00,319.0,12.0,0,0,0,0.0
Status,1727332473000,73,13,1,8,1575420030,0.00,256.0,10.0,0,0,0,0.0
Status,1727332473000,73,14,1,18,1575420030,0.00,151.0,5.0,0,0,0,0.0
Status,1727332473000,73,15,1,16,1575420030,0.00,198.0,3.0,0,0,0,0.0
Status,1727332473000,73,16,3,18,1602000000,17.50,280.0,48.0,1,0,0,17.5
Status,1727332473000,73,17,3,17,1602000000,19.10,205.0,41.0,1,0,0,19.1
Status,1727332473000,73,18,3,13,1602000000,17.70,81.0,41.0,0,0,0,17.7
Status,1727332473000,73,19,3,14,1602000000,14.30,160.0,33.0,1,0,0,14.3
Status,1727332473000,73,20,3,3,1602000000,0.00,353.0,25.0,0,0,0,0.0
Status,1727332473000,73,21,3,19,1602000000,0.00,320.0,19.0,0,0,0,0.0
Status,1727332473000,73,22,3,2,1602000000,14.20,45.0,13.0,1,0,0,14.2
Status,1727332473000,73,23,3,4,1602000000,13.00,304.0,12.0,1,0,0,13.0
Status,1727332473000,73,24,3,12,1602000000,0.00,42.0,11.0,0,0,0,0.0
Status,1727332473000,73,25,3,24,1602000000,0.00,168.0,2.0,0,0,0,0.0
Status,1727332473000,73,26,6,10,1575420030,26.00,219.0,78.0,1,0,0,26.0
Status,1727332473000,73,27,6,11,1575420030,0.00,307.0,61.0,0,0,0,0.0
Status,1727332473000,73,28,6,12,1575420030,15.00,167.0,58.0,1,0,0,15.0
Status,1727332473000,73,29,6,6,1575420030,19.80,324.0,46.0,1,0,0,19.8
Status,1727332473000,73,30,6,4,1575420030,22.80,1.0,41.0,1,0,0,22.8
Status,1727332473000,73,31,6,9,1575420030,27.80,293.0,37.0,1,0,0,27.8
Status,1727332473000,73,32,6,31,1575420030,0.00,151.0,24.0,0,0,0,0.0
Status,1727332473000,73,33,6,36,1575420030,0.00,324.0,13.0,0,0,0,0.0
Status,1727332473000,73,34,6,33,1575420030,0.00,151.0,6.0,0,0,0,0.0
Status,1727332473000,73,35,6,19,1575420030,0.00,49.0,5.0,0,0,0,0.0
Status,1727332473000,73,36,6,24,1575420030,0.00,198.0,5.0,0,0,0,0.0
Status,1727332473000,73,37,6,5,1575420030,0.00,253.0,3.0,0,0,0,0.0
Status,1727332473000,73,38,6,18,1575420030,0.00,146.0,2.0,0,0,0,0.0
Status,1727332473000,73,39,5,9,1561097980,24.90,34.0,76.0,1,0,0,24.9
Status,1727332473000,73,40,5,2,1561097980,27.10,147.0,76.0,1,0,0,27.1
Status,1727332473000,73,41,5,60,1561097980,25.60,168.0,76.0,1,0,0,25.6
Status,1727332473000,73,42,5,5,1561097980,0.00,241.0,65.0,0,0,0,0.0
Status,1727332473000,73,43,5,6,1561097980,20.60,32.0,64.0,1,0,0,20.6
Status,1727332473000,73,44,5,56,1561097980,0.00,124.0,63.0,0,0,0,0.0
Status,1727332473000,73,45,5,13,1561097980,17.80,65.0,57.0,1,0,0,17.8
Status,1727332473000,73,46,5,25,1561097980,28.70,105.0,57.0,1,0,0,28.7
Status,1727332473000,73,47,5,16,1561097980,14.00,32.0,54.0,1,0,0,14.0
Status,1727332473000,73,48,5,3,1561097980,0.00,108.0,49.0,0,0,0,0.0
Status,1727332473000,73,49,5,61,1561097980,0.00,108.0,49.0,0,0,0,0.0
Status,1727332473000,73,50,5,8,1561097980,18.00,86.0,47.0,1,0,0,18.0
Status,1727332473000,73,51,5,39,1561097980,17.10,30.0,46.0,1,0,0,17.1
Status,1727332473000,73,52,5,28,1561097980,18.90,234.0,43.0,1,0,0,18.9
Status,1727332473000,73,53,5,38,1561097980,16.00,103.0,40.0,1,0,0,16.0
Status,1727332473000,73,54,5,23,1561097980,21.40,184.0,35.0,1,0,0,21.4
Status,1727332473000,73,55,5,33,1561097980,26.10,39.0,32.0,1,0,0,26.1
Status,1727332473000,73,56,5,41,1561097980,16.40,339.0,32.0,1,0,0,16.4
Status,1727332473000,73,57,5,27,1561097980,26.40,288.0,26.0,1,0,0,26.4
Status,1727332473000,73,58,5,24,1561097980,23.60,52.0,20.0,1,0,0,23.6
Status,1727332473000,73,59,5,14,1561097980,29.50,64.0,19.0,1,0,0,29.5
Status,1727332473000,73,60,5,59,1561097980,0.00,95.0,19.0,0,0,0,0.0
Status,1727332473000,73,61,5,10,1561097980,0.00,161.0,17.0,0,0,0,0.0
Status,1727332473000,73,62,5,43,1561097980,17.20,170.0,15.0,1,0,0,17.2
Status,1727332473000,73,63,5,7,1561097980,0.00,150.0,14.0,0,0,0,0.0
Status,1727332473000,73,64,5,1,1561097980,0.00,95.0,14.0,0,0,0,0.0
Status,1727332473000,73,65,5,57,1561097980,0.00,95.0,11.0,0,0,0,0.0
Status,1727332473000,73,66,5,42,1561097980,0.00,84.0,3.0,0,0,0,0.0
Status,1727332473000,73,67,5,32,1561097980,0.00,294.0,2.0,0,0,0,0.0
Status,1727332473000,73,68,5,40,1561097980,0.00,145.0,2.0,0,0,0,0.0
Status,1727332473000,73,69,4,196,1575420030,0.00,66.0,38.0,0,0,0,0.0
Status,1727332473000,73,70,4,199,1575420030,0.00,47.0,21.0,0,0,0,0.0
Status,1727332473000,73,71,4,195,1575420030,0.00,137.0,9.0,0,0,0,0.0
Status,1727332473000,73,72,4,194,1575420030,0.00,93.0,9.0,0,0,0,0.0
Fix,GPS,12.9342816667,77.5434600000,784.6,0.22236,1.8,28.14,1727332474000,1.6,104.4,121204145000000,15.7,0,,,
Fix,FLP,12.9342809000,77.5434592000,805.7999877929688,0.21612525,1.683,28.552568,1727332474004,1.6,104.4,121204145000000,1.06696,0,,,
Raw,1727332474000,573845000000,18,38.20667162546228,-1411367118155000064,0.0,38.20667162546228,-4206.233302578385,0.0,0,28,0.0,16431,369291932448071,487,23.190000534057617,-1181.6541133703624,0.14999,16,-247536.21846003705,0.009999999776482582,1575420030,,,,0,1.442587256971359,1,6.0,23.190000534057617,0.0,0.0,0.0,66.7128,C,,
Raw,1727332474000,573845000000,18,38.20667162546228,-1411367118155000064,0.0,38.20667162546228,-4206.233302578385,0.0,0,32,0.0,16431,369291924520917,797,21.142000198364258,-1008.982396591152,0.14999,16,-208540.85549564476,0.02250000089406967,1575420030,,,,0,0.0,1,6.0,21.142000198364258,0.0,0.0,0.0,66.7128,C,,
Raw,1727332474000,573845000000,18,38.20667162546228,-1411367118155000064,0.0,38.20667162546228,-4206.233302578385,0.0,0,10,0.0,16431,369291928542563,396,23.81399917602539,-1379.04096423892,0.14999,20,-287031.3807843682,0.004900000058114529,1575420030,,,,0,3.3249693980533586,1,6.0,23.81399917602539,0.0,0.0,0.0,66.7128,C,,
Raw,1727332474000,573845000000,18,38.20667162546228,-1411367118155000064,0.0,38.20667162546228,-4206.233302578385,0.0,0,23,0.0,16431,369291923847240,396,21.048999786376953,-1029.3965963413923,0.14999,16,-214918.04142659923,0.004900000058114529,1575420030,,,,0,0.0,1,6.0,21.048999786376953,0.0,0.0,0.0,66.7128,C,,
Raw,1727332474000,573845000000,18,38.20667162546228,-1411367118155000064,0.0,38.20667162546228,-4206.233302578385,0.0,0,26,0.0,16431,369291922270867,396,22.26300048828125,-1751.4124176793132,0.14999,16,-362305.26635919634,0.004900000058114529,1575420030,,,,0,0.9986860861612655,1,6.0,22.26300048828125,0.0,0.0,0.0,66.7128,C,,
Raw,1727332474000,573845000000,18,38.20667162546228,-1411367118155000064,0.0,38.20667162546228,-4206.233302578385,0.0,0,14,0.0,16905,369277915974081,74,29.5,-1148.7813720703125,0.14999,25,-238283.3383719282,0.0006249999860301614,1561097980,,,,0,11.377832561506157,5,6.0,29.5,0.0,0.0,-13.091385875315842,66.7128,I,,
Raw,1727332474000,573845000000,18,38.20667162546228,-1411367118155000064,0.0,38.20667162546228,-4206.233302578385,0.0,0,38,0.0,16905,369277874712958,797,16.0,-1326.696044921875,0.14999,16,-275564.698454369,0.02250000089406967,1561097980,,,,0,0.0,5,6.0,16.0,0.0,0.0,-13.091385875315842,66.7128,I,,
Raw,1727332474000,573845000000,18,38.20667162546228,-1411367118155000064,0.0,38.20667162546228,-4206.233302578385,0.0,0,9,0.0,16905,369277878353442,235,24.94700050354004,-1197.142578125,0.14999,17,-250629.89351518918,0.0008999999845400453,1561097980,,,,0,8.646178206066002,5,6.0,24.94700050354004,0.0,0.0,-13.091385875315842,66.7128,I,,
Raw,1727332474000,573845000000,18,38.20667162546228,-1411367118155000064,0.0,38.20667162546228,-4206.233302578385,0.0,0,33,0.0,16905,369277919285515,316,26.100000381469727,-1231.1466064453125,0.14999,17,-256283.2659528033,0.002025000052526593,1561097980,,,,0,7.432221398993769,5,6.0,26.100000381469727,0.0,0.0,-13.091385875315842,66.7128,I,,
Raw,1727332474000,573845000000,18,38.20667162546228,-1411367118155000064,0.0,38.20667162546228,-4206.233302578385,0.0,0,27,0.0,16905,369277919065781,316,26.388999938964844,-1353.751708984375,0.14999,16,-268355.80061742384,0.002025000052526593,1561097980,,,,0,5.67311799189117,5,6.0,26.388999938964844,0.0,0.0,-13.091385875315842,66.7128,I,,
Raw,1727332474000,573845000000,18,38.20667162546228,-1411367118155000064,0.0,38.20667162546228,-4206.233302578385,0.0,0,60,0.0,16905,369277880443394,316,25.600000381469727,-1257.0596923828125,0.14999,16,-265761.8332577972,0.002025000052526593,1561097980,,,,0,6.8329569314449055,5,6.0,25.600000381469727,0.0,0.0,-13.091385875315842,66.7128,I,,
Raw,1727332474000,573845000000,18,38.20667162546228,-1411367118155000064,0.0,38.20667162546228,-4206.233302578385,0.0,0,25,0.0,16905,369277926445479,235,28.736000061035156,-1356.125244140625,0.14999,21,-274318.3524373538,0.0008999999845400453,1561097980,,,,0,9.599010894770533,5,6.0,28.736000061035156,0.0,0.0,-13.091385875315842,66.7128,I,,
Raw,1727332474000,573845000000,18,38.20667162546228,-1411367118155000064,0.0,38.20667162546228,-4206.233302578385,0.0,0,31,0.0,16431,369291930485148,487,22.523000717163086,-1694.913780224683,0.14999,16,-349945.2425005568,0.009999999776482582,1575420030,,,,0,1.3805449243417123,1,6.0,22.523000717163086,0.0,0.0,0.0,66.7128,C,,
Raw,1727332474000,573845000000,18,38.20667162546228,-1411367118155000064,0.0,38.20667162546228,-4206.233302578385,0.0,0,14,0.0,32995,34473928914048,487,0.0,-1887.5458692363043,0.14999,16,-383500.8292565926,0.009999999776482582,1598062460,,,,0,0.0,3,6.0,18.0,0.0,0.0,-36.91693292614575,66.7128,C,,
Raw,1727332474000,573845000000,18,38.20667162546228,-1411367118155000064,0.0,38.20667162546228,-4206.233302578385,0.0,0,4,0.0,32995,34473922512529,1797,14.300000190734863,-1355.1807983062781,0.14999,16,-264161.55631315504,0.02250000089406967,1605374980,,,,0,0.0,3,6.0,14.300000190734863,0.0,0.0,-36.91693292614575,66.7128,C,,
Raw,1727332474000,573845000000,18,38.20667162546228,-1411367118155000064,0.0,38.20667162546228,-4206.233302578385,0.0,0,2,0.0,32995,34473922303917,797,13.0,-1131.44209106785,0.14999,16,-257974.6934628288,0.02250000089406967,1599750020,,,,0,0.0,3,6.0,13.0,0.0,0.0,-36.91693292614575,66.7128,C,,
Raw,1727332474000,573845000000,18,38.20667162546228,-1411367118155000064,0.0,38.20667162546228,-4206.233302578385,0.0,0,18,0.0,32995,34473932263458,797,0.0,-1239.7454144871992,0.14999,16,-259283.59320001787,0.02250000089406967,1600312450,,,,0,0.0,3,6.0,16.0,0.0,0.0,-36.91693292614575,66.7128,C,,
Raw,1727332474000,573845000000,18,38.20667162546228,-1411367118155000064,0.0,38.20667162546228,-4206.233302578385,0.0,0,17,0.0,32995,34473930732968,797,0.0,-655.669807242635,0.14999,16,-154130.29162250308,0.02250000089406967,1604249980,,,,0,0.996927452901955,3,6.0,16.0,0.0,0.0,-36.91693292614575,66.7128,C,,
Raw,1727332474000,573845000000,18,38.20667162546228,-1411367118155000064,0.0,38.20667162546228,-4206.233302578385,0.0,0,13,0.0,17,590905,487,0.0,-1260.9375068277407,0.14999,16,-259266.88762411344,0.009999999776482582,1600875010,,,,0,0.0,3,6.0,19.0,0.0,0.0,-36.91693292614575,66.7128,C,,
Raw,1727332474000,573845000000,18,38.20667162546228,-1411367118155000064,0.0,38.20667162546228,-4206.233302578385,0.0,0,21,0.0,16431,369291921670804,316,24.968000411987305,-1652.7533250146141,0.14999,17,-317900.5207753928,0.002025000052526593,1575420030,,,,0,4.995268206370607,1,6.0,24.968000411987305,0.0,0.0,0.0,66.7128,C,,
Raw,1727332474000,573845000000,18,38.20667162546228,-1411367118155000064,0.0,38.20667162546228,-4206.233302578385,0.0,0,25,0.0,16431,369291921040353,235,27.586999893188477,-1261.6980619941583,0.14999,17,-262976.2505512177,0.0008999999845400453,1575420030,,,,0,8.523935364709274,1,6.0,27.586999893188477,0.0,0.0,0.0,66.7128,C,,
Raw,1727332474000,573845000000,18,38.20667162546228,-1411367118155000064,0.0,38.20667162546228,-4206.233302578385,0.0,0,27,0.0,16431,369291919135881,797,18.5939998626709,-990.5699970785915,0.14999,16,-248244.2247633886,0.02250000089406967,1575420030,,,,0,0.0,1,6.0,18.5939998626709,0.0,0.0,0.0,66.7128,C,,
Raw,1727332474000,573845000000,18,38.20667162546228,-1411367118155000064,0.0,38.20667162546228,-4206.233302578385,0.0,0,24,0.0,16905,369277917533554,487,23.599000930786133,-889.7786865234375,0.14999,16,-217366.30981734884,0.009999999776482582,1561097980,,,,0,2.6882925698435507,5,6.0,23.599000930786133,0.0,0.0,-13.091385875315842,66.7128,I,,
Raw,1727332474000,573845000000,18,38.20667162546228,-1411367118155000064,0.0,38.20667162546228,-4206.233302578385,0.0,0,8,0.0,16905,369277876002908,797,17.97100067138672,-1392.8128662109375,0.14999,16,-274813.3664202016,0.02250000089406967,1561097980,,,,0,0.0,5,6.0,17.97100067138672,0.0,0.0,-13.091385875315842,66.7128,I,,
Raw,1727332474000,573845000000,18,38.20667162546228,-1411367118155000064,0.0,38.20667162546228,-4206.233302578385,0.0,0,10,0.0,16431,369291921791242,316,26.0,-1134.4251378685562,0.14999,25,-254792.33603344962,0.002025000052526593,1575420030,,,,0,7.354320521323286,6,6.0,26.0,0.0,0.0,1.0689861584966165,66.7128,C,,
Raw,1727332474000,573845000000,18,38.20667162546228,-1411367118155000064,0.0,38.20667162546228,-4206.233302578385,0.0,0,16,0.0,16905,369277875547144,797,14.0,-1131.2432861328125,0.14999,16,-261932.06059750752,0.02250000089406967,1561097980,,,,0,0.0,5,6.0,14.0,0.0,0.0,-13.091385875315842,66.7128,I,,
Raw,1727332474000,573845000000,18,38.20667162546228,-1411367118155000064,0.0,38.20667162546228,-4206.233302578385,0.0,0,9,0.0,16431,369291915349340,235,27.799999237060547,-1245.562775293741,0.14999,25,-258788.87052343052,0.0008999999845400453,1575420030,,,,0,9.481385562531091,6,6.0,27.799999237060547,0.0,0.0,1.0689861584966165,66.7128,C,,
Raw,1727332474000,573845000000,18,38.20667162546228,-1411367118155000064,0.0,38.20667162546228,-4206.233302578385,0.0,0,41,0.0,16905,369277919311893,797,16.399999618530273,-1394.1680908203125,0.14999,16,-273220.86422970484,0.02250000089406967,1561097980,,,,0,0.0,5,6.0,16.399999618530273,0.0,0.0,-13.091385875315842,66.7128,I,,
Raw,1727332474000,573845000000,18,38.20667162546228,-1411367118155000064,0.0,38.20667162546228,-4206.233302578385,0.0,0,43,0.0,16905,369277914990444,797,17.246999740600586,-759.2745361328125,0.14999,16,-177593.7690917484,0.02250000089406967,1561097980,,,,0,0.0,5,6.0,17.246999740600586,0.0,0.0,-13.091385875315842,66.7128,I,,
Raw,1727332474000,573845000000,18,38.20667162546228,-1411367118155000064,0.0,38.20667162546228,-4206.233302578385,0.0,0,23,0.0,16905,369277920494199,396,21.399999618530273,-1785.713134765625,0.14999,16,-334144.42693828803,0.004900000058114529,1561097980,,,,0,1.2656367108841573,5,6.0,21.399999618530273,0.0,0.0,-13.091385875315842,66.7128,I,,
Raw,1727332474000,573845000000,18,38.20667162546228,-1411367118155000064,0.0,38.20667162546228,-4206.233302578385,0.0,0,12,0.0,16431,369291918787443,487,15.0,-909.1951077471962,0.14999,24,-252270.8612204929,0.009999999776482582,1575420030,,,,0,0.0,6,6.0,15.0,0.0,0.0,1.0689861584966165,66.7128,C,,
Raw,1727332474000,573845000000,18,38.20667162546228,-1411367118155000064,0.0,38.20667162546228,-4206.233302578385,0.0,0,28,0.0,16905,369277923204074,797,18.905000686645508,-978.4173583984375,0.14999,16,-219076.83793222252,0.02250000089406967,1561097980,,,,0,0.0,5,6.0,18.905000686645508,0.0,0.0,-13.091385875315842,66.7128,I,,
Raw,1727332474000,573845000000,18,38.20667162546228,-1411367118155000064,0.0,38.20667162546228,-4206.233302578385,0.0,0,2,0.0,16905,369277881180429,235,27.100000381469727,-1259.778076171875,0.14999,16,-265713.1854084681,0.0008999999845400453,1561097980,,,,0,8.583007821169407,5,6.0,27.100000381469727,0.0,0.0,-13.091385875315842,66.7128,I,,
Raw,1727332474000,573845000000,18,38.20667162546228,-1411367118155000064,0.0,38.20667162546228,-4206.233302578385,0.0,0,6,0.0,16431,369291917903509,487,19.799999237060547,-1140.5821788521064,0.14999,24,-258269.08026379344,0.009999999776482582,1575420030,,,,0,0.0,6,6.0,19.799999237060547,0.0,0.0,1.0689861584966165,66.7128,C,,
Raw,1727332474000,573845000000,18,38.20667162546228,-1411367118155000064,0.0,38.20667162546228,-4206.233302578385,0.0,0,39,0.0,16905,369277875274930,487,17.079999923706055,-1107.078125,0.14999,16,-245086.57035094337,0.009999999776482582,1561097980,,,,0,0.0,5,6.0,17.079999923706055,0.0,0.0,-13.091385875315842,66.7128,I,,
Raw,1727332474000,573845000000,18,38.20667162546228,-1411367118155000064,0.0,38.20667162546228,-4206.233302578385,0.0,0,13,0.0,16905,369277878678597,797,17.799999237060547,-1425.6781005859375,0.14999,16,-274793.04983422847,0.02250000089406967,1561097980,,,,0,0.0,5,6.0,17.799999237060547,0.0,0.0,-13.091385875315842,66.7128,I,,
Raw,1727332474000,573845000000,18,38.20667162546228,-1411367118155000064,0.0,38.20667162546228,-4206.233302578385,0.0,0,4,0.0,16431,369291916769503,396,22.799999237060547,-1036.507428609745,0.14999,24,-253074.4797051623,0.004900000058114529,1575420030,,,,0,3.275050354687235,6,6.0,22.799999237060547,0.0,0.0,1.0689861584966165,66.7128,C,,
Raw,1727332474000,573845000000,18,38.20667162546228,-1411367118155000064,0.0,38.20667162546228,-4206.233302578385,0.0,0,6,0.0,16905,369277878697912,487,20.600000381469727,-1164.6463623046875,0.14999,16,-244510.31848024984,0.009999999776482582,1561097980,,,,0,0.08474105886509258,5,6.0,20.600000381469727,0.0,0.0,-13.091385875315842,66.7128,I,,
Status,1727332474000,73,0,1,28,1575420030,23.20,41.0,83.0,1,0,0,23.2
Status,1727332474000,73,1,2,128,1575420030,31.00,156.0,73.0,0,0,0,31.0
Status,1727332474000,73,2,1,31,1575420030,19.70,209.0,56.0,1,0,0,19.7
Status,1727332474000,73,3,1,10,1575420030,23.80,54.0,47.0,1,0,0,23.8
Status,1727332474000,73,4,1,32,1575420030,14.90,12.0,35.0,1,0,0,14.9
Status,1727332474000,73,5,1,21,1575420030,21.90,312.0,28.0,1,0,0,21.9
Status,1727332474000,73,6,1,23,1575420030,23.50,99.0,26.0,1,0,0,23.5
Status,1727332474000,73,7,1,26,1575420030,22.30,173.0,23.0,1,0,0,22.3
Status,1727332474000,73,8,1,27,1575420030,21.40,225.0,17.0,1,0,0,21.4
Status,1727332474000,73,9,1,25,1575420030,27.00,80.0,15.0,1,0,0,27.0
Status,1727332474000,73,10,2,122,1575420030,0.00,92.0,15.0,0,0,0,0.0
Status,1727332474000,73,11,2,137,1575420030,0.00,95.0,13.0,0,0,0,0.0
Status,1727332474000,73,12,1,2,1575420030,0.00,319.0,12.0,0,0,0,0.0
Status,1727332474000,73,13,1,8,1575420030,0.00,256.0,10.0,0,0,0,0.0
Status,1727332474000,73,14,1,18,1575420030,0.00,151.0,5.0,0,0,0,0.0
Status,1727332474000,73,15,1,16,1575420030,0.00,198.0,3.0,0,0,0,0.0
Status,1727332474000,73,16,3,18,1602000000,17.50,280.0,48.0,1,0,0,17.5
Status,1727332474000,73,17,3,17,1602000000,19.20,205.0,41.0,1,0,0,19.2
Status,1727332474000,73,18,3,13,1602000000,19.30,81.0,41.0,0,0,0,19.3
Status,1727332474000,73,19,3,14,1602000000,20.00,160.0,33.0,1,0,0,20.0
Status,1727332474000,73,20,3,3,1602000000,26.50,353.0,25.0,1,0,0,26.5
Status,1727332474000,73,21,3,19,1602000000,0.00,320.0,19.0,0,0,0,0.0
Status,1727332474000,73,22,3,2,1602000000,14.20,45.0,13.0,1,0,0,14.2
Status,1727332474000,73,23,3,4,1602000000,13.00,304.0,12.0,1,0,0,13.0
Status,1727332474000,73,24,3,12,1602000000,0.00,42.0,11.0,0,0,0,0.0
Status,1727332474000,73,25,3,24,1602000000,0.00,168.0,2.0,0,0,0,0.0
Status,1727332474000,73,26,6,10,1575420030,25.60,219.0,78.0,1,0,0,25.6
Status,1727332474000,73,27,6,11,1575420030,0.00,307.0,61.0,0,0,0,0.0
Status,1727332474000,73,28,6,12,1575420030,15.00,167.0,58.0,1,0,0,15.0
Status,1727332474000,73,29,6,6,1575420030,15.20,324.0,46.0,1,0,0,15.2
Status,1727332474000,73,30,6,4,1575420030,22.60,1.0,41.0,1,0,0,22.6
Status,1727332474000,73,31,6,9,1575420030,27.20,293.0,37.0,1,0,0,27.2
Status,1727332474000,73,32,6,31,1575420030,0.00,151.0,24.0,0,0,0,0.0
Status,1727332474000,73,33,6,36,1575420030,0.00,324.0,13.0,0,0,0,0.0
Status,1727332474000,73,34,6,33,1575420030,0.00,151.0,6.0,0,0,0,0.0
Status,1727332474000,73,35,6,19,1575420030,0.00,49.0,5.0,0,0,0,0.0
Status,1727332474000,73,36,6,24,1575420030,0.00,198.0,5.0,0,0,0,0.0
Status,1727332474000,73,37,6,5,1575420030,0.00,253.0,3.0,0,0,0,0.0
Status,1727332474000,73,38,6,18,1575420030,0.00,146.0,2.0,0,0,0,0.0
Status,1727332474000,73,39,5,9,1561097980,25.00,34.0,76.0,1,0,0,25.0
Status,1727332474000,73,40,5,2,1561097980,29.30,147.0,76.0,1,0,0,29.3
Status,1727332474000,73,41,5,60,1561097980,23.90,168.0,76.0,1,0,0,23.9
Status,1727332474000,73,42,5,5,1561097980,0.00,241.0,65.0,0,0,0,0.0
Status,1727332474000,73,43,5,6,1561097980,17.60,32.0,64.0,1,0,0,17.6
Status,1727332474000,73,44,5,56,1561097980,0.00,124.0,63.0,0,0,0,0.0
Status,1727332474000,73,45,5,13,1561097980,14.70,65.0,57.0,1,0,0,14.7
Status,1727332474000,73,46,5,25,1561097980,28.80,105.0,57.0,1,0,0,28.8
Status,1727332474000,73,47,5,16,1561097980,14.00,32.0,54.0,1,0,0,14.0
Status,1727332474000,73,48,5,3,1561097980,0.00,108.0,49.0,0,0,0,0.0
Status,1727332474000,73,49,5,61,1561097980,0.00,108.0,49.0,0,0,0,0.0
Status,1727332474000,73,50,5,8,1561097980,18.00,86.0,47.0,1,0,0,18.0
Status,1727332474000,73,51,5,39,1561097980,17.00,30.0,46.0,1,0,0,17.0
Status,1727332474000,73,52,5,28,1561097980,18.80,234.0,43.0,1,0,0,18.8
Status,1727332474000,73,53,5,38,1561097980,16.00,103.0,40.0,1,0,0,16.0
Status,1727332474000,73,54,5,23,1561097980,21.30,184.0,35.0,1,0,0,21.3
Status,1727332474000,73,55,5,33,1561097980,26.10,39.0,32.0,1,0,0,26.1
Status,1727332474000,73,56,5,41,1561097980,16.40,339.0,32.0,1,0,0,16.4
Status,1727332474000,73,57,5,27,1561097980,23.50,288.0,26.0,1,0,0,23.5
Status,1727332474000,73,58,5,24,1561097980,19.40,52.0,20.0,1,0,0,19.4
Status,1727332474000,73,59,5,14,1561097980,29.60,64.0,19.0,1,0,0,29.6
Status,1727332474000,73,60,5,59,1561097980,0.00,95.0,19.0,0,0,0,0.0
Status,1727332474000,73,61,5,10,1561097980,0.00,161.0,17.0,0,0,0,0.0
Status,1727332474000,73,62,5,43,1561097980,17.30,170.0,15.0,1,0,0,17.3
Status,1727332474000,73,63,5,7,1561097980,0.00,150.0,14.0,0,0,0,0.0
Status,1727332474000,73,64,5,1,1561097980,0.00,95.0,14.0,0,0,0,0.0
Status,1727332474000,73,65,5,57,1561097980,0.00,95.0,11.0,0,0,0,0.0
Status,1727332474000,73,66,5,42,1561097980,0.00,84.0,3.0,0,0,0,0.0
Status,1727332474000,73,67,5,32,1561097980,0.00,294.0,2.0,0,0,0,0.0
Status,1727332474000,73,68,5,40,1561097980,0.00,145.0,2.0,0,0,0,0.0
Status,1727332474000,73,69,4,196,1575420030,0.00,67.0,38.0,0,0,0,0.0
Status,1727332474000,73,70,4,199,1575420030,0.00,47.0,21.0,0,0,0,0.0
Status,1727332474000,73,71,4,195,1575420030,0.00,137.0,9.0,0,0,0,0.0
Status,1727332474000,73,72,4,194,1575420030,0.00,93.0,9.0,0,0,0,0.0
Fix,GPS,12.9342833333,77.5434616667,784.7,0.0,1.9,11.72,1727332475000,1.7,179.9,121205145000000,16.3,0,,,
Fix,FLP,12.9342832000,77.5434615000,805.7999877929688,0.008770856,1.75,,1727332475004,1.7,,121205145000000,1.07696,0,,,
Raw,1727332475000,574845000000,18,39.20760949314281,-1411367118155000064,0.0,39.20760949314281,-4222.506376641075,0.0,0,28,0.0,16431,369292932452020,797,23.158000946044922,-1187.1865674063781,0.14999,16,-248720.42787512168,0.02250000089406967,1575420030,,,,0,1.442587256971359,1,6.0,23.158000946044922,0.0,0.0,0.0,66.7128,C,,
Raw,1727332475000,574845000000,18,39.20760949314281,-1411367118155000064,0.0,39.20760949314281,-4222.506376641075,0.0,0,32,0.0,16431,369292924524288,797,14.899999618530273,-1013.6941162463924,0.14999,16,-209551.39577821255,0.02250000089406967,1575420030,,,,0,0.0,1,6.0,14.899999618530273,0.0,0.0,0.0,66.7128,C,,
Raw,1727332475000,574845000000,18,39.20760949314281,-1411367118155000064,0.0,39.20760949314281,-4222.506376641075,0.0,0,10,0.0,16431,369292928547168,487,23.81399917602539,-1383.4436425095278,0.14999,16,-288412.27497944655,0.009999999776482582,1575420030,,,,0,3.3249693980533586,1,6.0,23.81399917602539,0.0,0.0,0.0,66.7128,C,,
Raw,1727332475000,574845000000,18,39.20760949314281,-1411367118155000064,0.0,39.20760949314281,-4222.506376641075,0.0,0,23,0.0,16431,369292923850702,396,23.524999618530273,-1033.8285434142128,0.14999,16,-215949.78995003426,0.004900000058114529,1575420030,,,,0,2.917345528996158,1,6.0,23.524999618530273,0.0,0.0,0.0,66.7128,C,,
Raw,1727332475000,574845000000,18,39.20760949314281,-1411367118155000064,0.0,39.20760949314281,-4222.506376641075,0.0,0,26,0.0,16431,369292922276716,487,22.26300048828125,-1756.8762990930022,0.14999,16,-364058.9792164295,0.009999999776482582,1575420030,,,,0,0.9986860861612655,1,6.0,22.26300048828125,0.0,0.0,0.0,66.7128,C,,
Raw,1727332475000,574845000000,18,39.20760949314281,-1411367118155000064,0.0,39.20760949314281,-4222.506376641075,0.0,0,14,0.0,16905,369278915977919,74,29.6200008392334,-1153.2030029296875,0.14999,21,-239434.61959802872,0.0006249999860301614,1561097980,,,,0,14.06414114558547,5,6.0,29.6200008392334,0.0,0.0,-13.623745365140172,66.7128,I,,
Raw,1727332475000,574845000000,18,39.20760949314281,-1411367118155000064,0.0,39.20760949314281,-4222.506376641075,0.0,0,38,0.0,16905,369278874717385,797,16.0,-1328.5877685546875,0.14999,16,-276891.9949903423,0.02250000089406967,1561097980,,,,0,0.0,5,6.0,16.0,0.0,0.0,-13.623745365140172,66.7128,I,,
Raw,1727332475000,574845000000,18,39.20760949314281,-1411367118155000064,0.0,39.20760949314281,-4222.506376641075,0.0,0,9,0.0,16905,369278878357442,235,25.034000396728516,-1201.89599609375,0.14999,21,-251829.51581855176,0.0008999999845400453,1561097980,,,,0,8.194022391156558,5,6.0,25.034000396728516,0.0,0.0,-13.623745365140172,66.7128,I,,
Raw,1727332475000,574845000000,18,39.20760949314281,-1411367118155000064,0.0,39.20760949314281,-4222.506376641075,0.0,0,33,0.0,16905,369278919289626,316,26.079999923706055,-1236.75732421875,0.14999,20,-257517.00773027947,0.002025000052526593,1561097980,,,,0,6.986693504770725,5,6.0,26.079999923706055,0.0,0.0,-13.623745365140172,66.7128,I,,
Raw,1727332475000,574845000000,18,39.20760949314281,-1411367118155000064,0.0,39.20760949314281,-4222.506376641075,0.0,0,27,0.0,16905,369278919070306,487,23.5,-1359.21923828125,0.14999,16,-269712.8089144968,0.009999999776482582,1561097980,,,,0,4.23015832556275,5,6.0,23.5,0.0,0.0,-13.623745365140172,66.7128,I,,
Raw,1727332475000,574845000000,18,39.20760949314281,-1411367118155000064,0.0,39.20760949314281,-4222.506376641075,0.0,0,60,0.0,16905,369278880447598,235,23.899999618530273,-1260.8546142578125,0.14999,16,-267021.84486008005,0.0008999999845400453,1561097980,,,,0,4.738249921044646,5,6.0,23.899999618530273,0.0,0.0,-13.623745365140172,66.7128,I,,
Raw,1727332475000,574845000000,18,39.20760949314281,-1411367118155000064,0.0,39.20760949314281,-4222.506376641075,0.0,0,25,0.0,16905,369278926450009,235,28.763999938964844,-1360.419677734375,0.14999,20,-275676.93907949515,0.0008999999845400453,1561097980,,,,0,11.238855362399597,5,6.0,28.763999938964844,0.0,0.0,-13.623745365140172,66.7128,I,,
Raw,1727332475000,574845000000,18,39.20760949314281,-1411367118155000064,0.0,39.20760949314281,-4222.506376641075,0.0,0,31,0.0,16431,369292930490799,487,19.68899917602539,-1697.4518964190972,0.14999,16,-351639.9350388057,0.009999999776482582,1575420030,,,,0,0.0,1,6.0,19.68899917602539,0.0,0.0,0.0,66.7128,C,,
Raw,1727332475000,574845000000,18,39.20760949314281,-1411367118155000064,0.0,39.20760949314281,-4222.506376641075,0.0,0,14,0.0,32995,34474928920357,487,0.0,-1893.3983968718615,0.14999,16,-385392.05422573927,0.009999999776482582,1598062460,,,,0,0.0,3,6.0,20.0,0.0,0.0,-36.44054249903918,66.7128,C,,
Raw,1727332475000,574845000000,18,39.20760949314281,-1411367118155000064,0.0,39.20760949314281,-4222.506376641075,0.0,0,4,0.0,32995,34474922517061,1797,20.0,-1361.2147474041853,0.14999,16,-265520.1520448437,0.02250000089406967,1605374980,,,,0,0.0,3,6.0,20.0,0.0,0.0,-36.44054249903918,66.7128,C,,
Raw,1727332475000,574845000000,18,39.20760949314281,-1411367118155000064,0.0,39.20760949314281,-4222.506376641075,0.0,0,3,0.0,32995,34474926380398,235,19.299999237060547,-1250.6899108058014,0.14999,16,-259847.0594319535,0.0008999999845400453,1604812540,,,,0,7.911075385033508,3,6.0,19.299999237060547,0.0,0.0,-36.44054249903918,66.7128,C,,
Raw,1727332475000,574845000000,18,39.20760949314281,-1411367118155000064,0.0,39.20760949314281,-4222.506376641075,0.0,0,2,0.0,32995,34474922307699,1797,13.0,-1133.9839722122372,0.14999,16,-259108.51453727507,0.02250000089406967,1599750020,,,,0,0.0,3,6.0,13.0,0.0,0.0,-36.44054249903918,66.7128,C,,
Raw,1727332475000,574845000000,18,39.20760949314281,-1411367118155000064,0.0,39.20760949314281,-4222.506376641075,0.0,0,18,0.0,32995,34474932267604,797,0.0,-1245.2502627574645,0.14999,16,-260526.69404067536,0.02250000089406967,1600312450,,,,0,0.0,3,6.0,15.0,0.0,0.0,-36.44054249903918,66.7128,C,,
Raw,1727332475000,574845000000,18,39.20760949314281,-1411367118155000064,0.0,39.20760949314281,-4222.506376641075,0.0,0,17,0.0,32995,34474930735163,1797,0.0,-664.3018212115812,0.14999,16,-154788.43579690234,0.02250000089406967,1604249980,,,,0,0.996927452901955,3,6.0,13.0,0.0,0.0,-36.44054249903918,66.7128,C,,
Raw,1727332475000,574845000000,18,39.20760949314281,-1411367118155000064,0.0,39.20760949314281,-4222.506376641075,0.0,0,13,0.0,17,595120,487,0.0,-1265.794218676672,0.14999,16,-260530.60468725258,0.009999999776482582,1600875010,,,,0,0.0,3,6.0,20.0,0.0,0.0,-36.44054249903918,66.7128,C,,
Raw,1727332475000,574845000000,18,39.20760949314281,-1411367118155000064,0.0,39.20760949314281,-4222.506376641075,0.0,0,21,0.0,16431,369292921676326,487,21.94700050354004,-1656.9018757485503,0.14999,20,-319555.3274770075,0.009999999776482582,1575420030,,,,0,0.46193528849052395,1,6.0,21.94700050354004,0.0,0.0,0.0,66.7128,C,,
Raw,1727332475000,574845000000,18,39.20760949314281,-1411367118155000064,0.0,39.20760949314281,-4222.506376641075,0.0,0,25,0.0,16431,369292921044570,235,27.000999450683594,-1266.2376996757548,0.14999,20,-264240.51250392577,0.0008999999845400453,1575420030,,,,0,7.7519835066763765,1,6.0,27.000999450683594,0.0,0.0,0.0,66.7128,C,,
Raw,1727332475000,574845000000,18,39.20760949314281,-1411367118155000064,0.0,39.20760949314281,-4222.506376641075,0.0,0,27,0.0,16431,369292919139115,396,21.448999404907227,-996.7009284322314,0.14999,16,-249238.46604560455,0.004900000058114529,1575420030,,,,0,0.0,1,6.0,21.448999404907227,0.0,0.0,0.0,66.7128,C,,
Raw,1727332475000,574845000000,18,39.20760949314281,-1411367118155000064,0.0,39.20760949314281,-4222.506376641075,0.0,0,24,0.0,16905,369278917536559,487,19.399999618530273,-895.1420288085938,0.14999,16,-218259.90429173387,0.009999999776482582,1561097980,,,,0,0.0,5,6.0,19.399999618530273,0.0,0.0,-13.623745365140172,66.7128,I,,
Raw,1727332475000,574845000000,18,39.20760949314281,-1411367118155000064,0.0,39.20760949314281,-4222.506376641075,0.0,0,8,0.0,16905,369278876007555,487,18.04199981689453,-1396.8758544921875,0.14999,16,-276206.7598711549,0.009999999776482582,1561097980,,,,0,0.0,5,6.0,18.04199981689453,0.0,0.0,-13.623745365140172,66.7128,I,,
Raw,1727332475000,574845000000,18,39.20760949314281,-1411367118155000064,0.0,39.20760949314281,-4222.506376641075,0.0,0,10,0.0,16431,369292921795031,316,25.600000381469727,-1138.6920646469969,0.14999,28,-255929.10855419797,0.002025000052526593,1575420030,,,,0,6.838494636215247,6,6.0,25.600000381469727,0.0,0.0,1.401285069106879,66.7128,C,,
Raw,1727332475000,574845000000,18,39.20760949314281,-1411367118155000064,0.0,39.20760949314281,-4222.506376641075,0.0,0,16,0.0,16905,369278875550921,797,14.0,-1135.1190185546875,0.14999,16,-263064.4259514498,0.02250000089406967,1561097980,,,,0,0.0,5,6.0,14.0,0.0,0.0,-13.623745365140172,66.7128,I,,
Raw,1727332475000,574845000000,18,39.20760949314281,-1411367118155000064,0.0,39.20760949314281,-4222.506376641075,0.0,0,9,0.0,16431,369292915353501,235,27.200000762939453,-1249.9481710335185,0.14999,28,-260036.90641840387,0.0008999999845400453,1575420030,,,,0,8.713354794877146,6,6.0,27.200000762939453,0.0,0.0,1.401285069106879,66.7128,C,,
Raw,1727332475000,574845000000,18,39.20760949314281,-1411367118155000064,0.0,39.20760949314281,-4222.506376641075,0.0,0,41,0.0,16905,369278919316544,797,16.399999618530273,-1394.3408203125,0.14999,16,-274615.3754368734,0.02250000089406967,1561097980,,,,0,0.0,5,6.0,16.399999618530273,0.0,0.0,-13.623745365140172,66.7128,I,,
Raw,1727332475000,574845000000,18,39.20760949314281,-1411367118155000064,0.0,39.20760949314281,-4222.506376641075,0.0,0,43,0.0,16905,369278914992989,797,17.32900047302246,-766.794677734375,0.14999,16,-178356.90154639317,0.02250000089406967,1561097980,,,,0,0.0,5,6.0,17.32900047302246,0.0,0.0,-13.623745365140172,66.7128,I,,
Raw,1727332475000,574845000000,18,39.20760949314281,-1411367118155000064,0.0,39.20760949314281,-4222.506376641075,0.0,0,23,0.0,16905,369278920500164,797,21.274999618530273,-1791.6007080078125,0.14999,16,-335932.6304308678,0.02250000089406967,1561097980,,,,0,0.0,5,6.0,21.274999618530273,0.0,0.0,-13.623745365140172,66.7128,I,,
Raw,1727332475000,574845000000,18,39.20760949314281,-1411367118155000064,0.0,39.20760949314281,-4222.506376641075,0.0,0,12,0.0,16431,369292918790484,396,15.0,-914.1284340477608,0.14999,24,-253182.65120671765,0.004900000058114529,1575420030,,,,0,0.0,6,6.0,15.0,0.0,0.0,1.401285069106879,66.7128,C,,
Raw,1727332475000,574845000000,18,39.20760949314281,-1411367118155000064,0.0,39.20760949314281,-4222.506376641075,0.0,0,28,0.0,16905,369278923207349,797,18.81399917602539,-984.527587890625,0.14999,16,-220058.89535243262,0.02250000089406967,1561097980,,,,0,0.0,5,6.0,18.81399917602539,0.0,0.0,-13.623745365140172,66.7128,I,,
Raw,1727332475000,574845000000,18,39.20760949314281,-1411367118155000064,0.0,39.20760949314281,-4222.506376641075,0.0,0,2,0.0,16905,369278881184635,235,29.299999237060547,-1265.0721435546875,0.14999,17,-266974.2346469753,0.0008999999845400453,1561097980,,,,0,11.238855362399597,5,6.0,29.299999237060547,0.0,0.0,-13.623745365140172,66.7128,I,,
Raw,1727332475000,574845000000,18,39.20760949314281,-1411367118155000064,0.0,39.20760949314281,-4222.506376641075,0.0,0,6,0.0,16431,369292917907307,797,15.199999809265137,-1146.092518682006,0.14999,24,-259412.8315587621,0.02250000089406967,1575420030,,,,0,0.0,6,6.0,15.199999809265137,0.0,0.0,1.401285069106879,66.7128,C,,
Raw,1727332475000,574845000000,18,39.20760949314281,-1411367118155000064,0.0,39.20760949314281,-4222.506376641075,0.0,0,39,0.0,16905,369278875278631,797,17.041000366210938,-1111.1202392578125,0.14999,16,-246195.05697039992,0.02250000089406967,1561097980,,,,0,0.0,5,6.0,17.041000366210938,0.0,0.0,-13.623745365140172,66.7128,I,,
Raw,1727332475000,574845000000,18,39.20760949314281,-1411367118155000064,0.0,39.20760949314281,-4222.506376641075,0.0,0,13,0.0,16905,369278878683354,797,14.699999809265137,-1428.6094970703125,0.14999,16,-276220.53142570367,0.02250000089406967,1561097980,,,,0,0.0,5,6.0,14.699999809265137,0.0,0.0,-13.623745365140172,66.7128,I,,
Raw,1727332475000,574845000000,18,39.20760949314281,-1411367118155000064,0.0,39.20760949314281,-4222.506376641075,0.0,0,4,0.0,16431,369292916772972,396,22.600000381469727,-1041.1421202109082,0.14999,24,-254113.48345362325,0.004900000058114529,1575420030,,,,0,2.9693569996066667,6,6.0,22.600000381469727,0.0,0.0,1.401285069106879,66.7128,C,,
Raw,1727332475000,574845000000,18,39.20760949314281,-1411367118155000064,0.0,39.20760949314281,-4222.506376641075,0.0,0,6,0.0,16905,369278878701804,487,17.600000381469727,-1168.498779296875,0.14999,16,-245677.46601977665,0.009999999776482582,1561097980,,,,0,0.0,5,6.0,17.600000381469727,0.0,0.0,-13.623745365140172,66.7128,I,,
Status,1727332475000,73,0,1,28,1575420030,16.60,41.0,83.0,1,0,0,16.6
Status,1727332475000,73,1,2,128,1575420030,28.00,156.0,73.0,0,0,0,28.0
Status,1727332475000,73,2,1,31,1575420030,19.70,209.0,56.0,1,0,0,19.7
Status,1727332475000,73,3,1,10,1575420030,21.20,54.0,47.0,1,0,0,21.2
Status,1727332475000,73,4,1,32,1575420030,14.90,12.0,35.0,1,0,0,14.9
Status,1727332475000,73,5,1,21,1575420030,21.70,312.0,28.0,1,0,0,21.7
Status,1727332475000,73,6,1,23,1575420030,23.50,99.0,26.0,1,0,0,23.5
Status,1727332475000,73,7,1,26,1575420030,19.10,173.0,23.0,1,0,0,19.1
Status,1727332475000,73,8,1,27,1575420030,21.50,225.0,17.0,1,0,0,21.5
Status,1727332475000,73,9,1,25,1575420030,27.10,80.0,15.0,1,0,0,27.1
Status,1727332475000,73,10,2,122,1575420030,0.00,92.0,15.0,0,0,0,0.0
Status,1727332475000,73,11,2,137,1575420030,0.00,95.0,13.0,0,0,0,0.0
Status,1727332475000,73,12,1,2,1575420030,0.00,319.0,12.0,0,0,0,0.0
Status,1727332475000,73,13,1,8,1575420030,0.00,256.0,10.0,0,0,0,0.0
Status,1727332475000,73,14,1,18,1575420030,0.00,151.0,5.0,0,0,0,0.0
Status,1727332475000,73,15,1,16,1575420030,0.00,198.0,3.0,0,0,0,0.0
Status,1727332475000,73,16,3,18,1602000000,17.40,280.0,48.0,1,0,0,17.4
Status,1727332475000,73,17,3,17,1602000000,13.90,205.0,41.0,1,0,0,13.9
Status,1727332475000,73,18,3,13,1602000000,18.60,81.0,41.0,0,0,0,18.6
Status,1727332475000,73,19,3,14,1602000000,20.00,160.0,33.0,1,0,0,20.0
Status,1727332475000,73,20,3,3,1602000000,26.60,353.0,25.0,1,0,0,26.6
Status,1727332475000,73,21,3,19,1602000000,0.00,320.0,19.0,0,0,0,0.0
Status,1727332475000,73,22,3,2,1602000000,14.20,45.0,13.0,1,0,0,14.2
Status,1727332475000,73,23,3,4,1602000000,0.00,304.0,12.0,0,0,0,0.0
Status,1727332475000,73,24,3,12,1602000000,0.00,42.0,11.0,0,0,0,0.0
Status,1727332475000,73,25,3,24,1602000000,0.00,168.0,2.0,0,0,0,0.0
Status,1727332475000,73,26,6,10,1575420030,25.10,219.0,78.0,1,0,0,25.1
Status,1727332475000,73,27,6,11,1575420030,21.60,307.0,61.0,1,0,0,21.6
Status,1727332475000,73,28,6,12,1575420030,19.80,167.0,58.0,1,0,0,19.8
Status,1727332475000,73,29,6,6,1575420030,15.20,324.0,46.0,1,0,0,15.2
Status,1727332475000,73,30,6,4,1575420030,21.90,1.0,41.0,1,0,0,21.9
Status,1727332475000,73,31,6,9,1575420030,23.40,293.0,37.0,1,0,0,23.4
Status,1727332475000,73,32,6,31,1575420030,0.00,151.0,24.0,0,0,0,0.0
Status,1727332475000,73,33,6,36,1575420030,0.00,324.0,13.0,0,0,0,0.0
Status,1727332475000,73,34,6,33,1575420030,0.00,151.0,6.0,0,0,0,0.0
Status,1727332475000,73,35,6,19,1575420030,0.00,49.0,5.0,0,0,0,0.0
Status,1727332475000,73,36,6,24,1575420030,0.00,198.0,5.0,0,0,0,0.0
Status,1727332475000,73,37,6,5,1575420030,0.00,253.0,3.0,0,0,0,0.0
Status,1727332475000,73,38,6,18,1575420030,0.00,146.0,2.0,0,0,0,0.0
Status,1727332475000,73,39,5,9,1561097980,25.00,34.0,76.0,1,0,0,25.0
Status,1727332475000,73,40,5,2,1561097980,26.00,147.0,76.0,1,0,0,26.0
Status,1727332475000,73,41,5,60,1561097980,24.70,168.0,76.0,1,0,0,24.7
Status,1727332475000,73,42,5,5,1561097980,0.00,241.0,65.0,0,0,0,0.0
Status,1727332475000,73,43,5,6,1561097980,17.60,32.0,64.0,1,0,0,17.6
Status,1727332475000,73,44,5,56,1561097980,0.00,124.0,63.0,0,0,0,0.0
Status,1727332475000,73,45,5,13,1561097980,14.70,65.0,57.0,1,0,0,14.7
Status,1727332475000,73,46,5,25,1561097980,28.80,105.0,57.0,1,0,0,28.8
Status,1727332475000,73,47,5,16,1561097980,17.30,32.0,54.0,1,0,0,17.3
Status,1727332475000,73,48,5,3,1561097980,0.00,108.0,49.0,0,0,0,0.0
Status,1727332475000,73,49,5,61,1561097980,0.00,108.0,49.0,0,0,0,0.0
Status,1727332475000,73,50,5,8,1561097980,18.10,86.0,47.0,1,0,0,18.1
Status,1727332475000,73,51,5,39,1561097980,17.00,30.0,46.0,1,0,0,17.0
Status,1727332475000,73,52,5,28,1561097980,18.70,234.0,43.0,1,0,0,18.7
Status,1727332475000,73,53,5,38,1561097980,16.00,103.0,40.0,1,0,0,16.0
Status,1727332475000,73,54,5,23,1561097980,21.20,184.0,35.0,1,0,0,21.2
Status,1727332475000,73,55,5,33,1561097980,26.10,39.0,32.0,1,0,0,26.1
Status,1727332475000,73,56,5,41,1561097980,13.50,339.0,32.0,1,0,0,13.5
Status,1727332475000,73,57,5,27,1561097980,21.50,288.0,26.0,1,0,0,21.5
Status,1727332475000,73,58,5,24,1561097980,19.50,52.0,20.0,1,0,0,19.5
Status,1727332475000,73,59,5,14,1561097980,29.60,64.0,19.0,1,0,0,29.6
Status,1727332475000,73,60,5,59,1561097980,0.00,95.0,19.0,0,0,0,0.0
Status,1727332475000,73,61,5,10,1561097980,0.00,161.0,17.0,0,0,0,0.0
Status,1727332475000,73,62,5,43,1561097980,17.20,170.0,15.0,1,0,0,17.2
Status,1727332475000,73,63,5,7,1561097980,0.00,150.0,14.0,0,0,0,0.0
Status,1727332475000,73,64,5,1,1561097980,0.00,95.0,14.0,0,0,0,0.0
Status,1727332475000,73,65,5,57,1561097980,0.00,95.0,11.0,0,0,0,0.0
Status,1727332475000,73,66,5,42,1561097980,0.00,84.0,3.0,0,0,0,0.0
Status,1727332475000,73,67,5,32,1561097980,0.00,294.0,2.0,0,0,0,0.0
Status,1727332475000,73,68,5,40,1561097980,0.00,145.0,2.0,0,0,0,0.0
Status,1727332475000,73,69,4,196,1575420030,0.00,67.0,38.0,0,0,0,0.0
Status,1727332475000,73,70,4,199,1575420030,0.00,47.0,21.0,0,0,0,0.0
Status,1727332475000,73,71,4,195,1575420030,0.00,137.0,9.0,0,0,0,0.0
Status,1727332475000,73,72,4,194,1575420030,0.00,93.0,9.0,0,0,0,0.0
Fix,GPS,12.9342833333,77.5434600000,784.7,0.0,2.0,9.05,1727332476000,1.7,179.9,121206145000000,16.4,0,,,
Fix,FLP,12.9342833000,77.5434602000,805.7999877929688,0.00040734894,1.816,,1727332476004,1.7,,121206145000000,1.03576,0,,,
