# 
# Header Description:
# 
# Version: v3.1.0.2 Platform: 14 Manufacturer: samsung Model: SM-S918B GNSS Hardware Model Name: Qualcomm GNSS GEN9
# 
# Raw,utcTimeMillis,TimeNanos,LeapSecond,TimeUncertaintyNanos,FullBiasNanos,BiasNanos,BiasUncertaintyNanos,DriftNanosPerSecond,DriftUncertaintyNanosPerSecond,HardwareClockDiscontinuityCount,Svid,TimeOffsetNanos,State,ReceivedSvTimeNanos,ReceivedSvTimeUncertaintyNanos,Cn0DbHz,PseudorangeRateMetersPerSecond,PseudorangeRateUncertaintyMetersPerSecond,AccumulatedDeltaRangeState,AccumulatedDeltaRangeMeters,AccumulatedDeltaRangeUncertaintyMeters,CarrierFrequencyHz,CarrierCycles,CarrierPhase,CarrierPhaseUncertainty,MultipathIndicator,SnrInDb,ConstellationType,AgcDb,BasebandCn0DbHz,FullInterSignalBiasNanos,FullInterSignalBiasUncertaintyNanos,SatelliteInterSignalBiasNanos,SatelliteInterSignalBiasUncertaintyNanos,CodeType,ChipsetElapsedRealtimeNanos,IsFullTracking
# 
# UncalAccel,utcTimeMillis,elapsedRealtimeNanos,UncalAccelXMps2,UncalAccelYMps2,UncalAccelZMps2,BiasXMps2,BiasYMps2,BiasZMps2
# 
# Accel,utcTimeMillis,elapsedRealtimeNanos,AccelXMps2,AccelYMps2,AccelZMps2
# 
# UncalGyro,utcTimeMillis,elapsedRealtimeNanos,UncalGyroXRadPerSec,UncalGyroYRadPerSec,UncalGyroZRadPerSec,DriftXRadPerSec,DriftYRadPerSec,DriftZRadPerSec
# 
# Gyro,utcTimeMillis,elapsedRealtimeNanos,GyroXRadPerSec,GyroYRadPerSec,GyroZRadPerSec
# 
# UncalMag,utcTimeMillis,elapsedRealtimeNanos,UncalMagXMicroT,UncalMagYMicroT,UncalMagZMicroT,BiasXMicroT,BiasYMicroT,BiasZMicroT
# 
# Mag,utcTimeMillis,elapsedRealtimeNanos,MagXMicroT,MagYMicroT,MagZMicroT
# 
# Pressure,utcTimeMillis,elapsedRealtimeNanos,PressureHpa
# 
# OrientationDeg,utcTimeMillis,elapsedRealtimeNanos,yawDeg,rollDeg,pitchDeg
# 
# Fix,Provider,LatitudeDegrees,LongitudeDegrees,AltitudeMeters,SpeedMps,AccuracyMeters,BearingDegrees,UnixTimeMillis,SpeedAccuracyMps,BearingAccuracyDegrees,elapsedRealtimeNanos,VerticalAccuracyMeters,MockLocation,NumberOfUsedSignals,VerticalSpeedAccuracyMps,SolutionType
# 
# Nav,Svid,Type,Status,MessageId,Sub-messageId,Data(Bytes)
# 
# Status,UnixTimeMillis,SignalCount,SignalIndex,ConstellationType,Svid,CarrierFrequencyHz,Cn0DbHz,AzimuthDegrees,ElevationDegrees,UsedInFix,HasAlmanacData,HasEphemerisData,BasebandCn0DbHz
# 
# Agc,utcTimeMillis,TimeNanos,LeapSecond,TimeUncertaintyNanos,FullBiasNanos,BiasNanos,BiasUncertaintyNanos,DriftNanosPerSecond,DriftUncertaintyNanosPerSecond,HardwareClockDiscontinuityCount,AgcDb,CarrierFrequencyHz,ConstellationType
# 
Raw,1727332473711,902259358000000,18,0.0,-1410465432353148080,-0.5128812789916992,109545.31282186508,16.347801420677442,31.716802353687658,332,21,0.0,16399,369291632506196,14,40.2,-385.8109130859375,0.9305000305175781,16,0.0,0.0,1575420030,,,,0,0.0,1,-51.91,35.2,0.0,0.0,,,C,573229982538130,0
Raw,1727332473711,902259358000000,18,0.0,-1410465432353148080,-0.5128812789916992,109545.31282186508,16.347801420677442,31.716802353687658,332,23,0.0,16399,369291634683223,16,39.9,237.2391357421875,0.9475000500679016,16,0.0,0.0,1575420030,,,,0,0.0,1,-51.91,34.9,0.0,0.0,,,C,573229982538130,0
Raw,1727332473711,902259358000000,18,0.0,-1410465432353148080,-0.5128812789916992,109545.31282186508,16.347801420677442,31.716802353687658,332,27,0.0,16399,369291629971945,31,33.7,273.927734375,1.2000000476837158,16,0.0,0.0,1575420030,,,,0,0.0,1,-51.91,28.700000000000003,0.0,0.0,,,C,573229982538130,0
Raw,1727332473711,902259358000000,18,0.0,-1410465432353148080,-0.5128812789916992,109545.31282186508,16.347801420677442,31.716802353687658,332,28,0.0,16399,369291643283929,12,42.7,84.91854858398438,0.8090000152587891,16,0.0,0.0,1575420030,,,,0,0.0,1,-51.91,37.7,0.0,0.0,,,C,573229982538130,0
Raw,1727332473711,902259358000000,18,0.0,-1410465432353148080,-0.5128812789916992,109545.31282186508,16.347801420677442,31.716802353687658,332,31,0.0,16399,369291641320458,13,41.8,-426.9524230957031,0.8420000076293945,16,0.0,0.0,1575420030,,,,0,0.0,1,-51.91,36.8,0.0,0.0,,,C,573229982538130,0
Raw,1727332473711,902259358000000,18,0.0,-1410465432353148080,-0.5128812789916992,109545.31282186508,16.347801420677442,31.716802353687658,332,32,0.0,16399,369291635356927,17,38.4,257.8955078125,1.0509999990463257,16,0.0,0.0,1575420030,,,,0,0.0,1,-51.91,33.4,0.0,0.0,,,C,573229982538130,0
Raw,1727332473711,902259358000000,18,0.0,-1410465432353148080,-0.5128812789916992,109545.31282186508,16.347801420677442,31.716802353687658,332,14,0.0,49359,34473639745473,14,39.6,-621.2571411132812,1.0149999856948853,16,0.0,0.0,1598062460,,,,0,0.0,3,-54.85,35.6,3783.228271484375,18.871910095214844,,,C,573229982538130,0
Raw,1727332473711,902259358000000,18,0.0,-1410465432353148080,-0.5128812789916992,109545.31282186508,16.347801420677442,31.716802353687658,332,13,0.0,49359,34473641422856,27,33.6,5.3184075355529785,0.8970000743865967,16,0.0,0.0,1600875010,,,,0,0.0,3,-54.85,29.6,3783.228271484375,18.871910095214844,,,C,573229982538130,0
Raw,1727332473711,902259358000000,18,0.0,-1410465432353148080,-0.5128812789916992,109545.31282186508,16.347801420677442,31.716802353687658,332,17,0.0,49359,34473641565589,19,36.1,607.5270385742188,1.1220000982284546,16,0.0,0.0,1604249980,,,,0,0.0,3,-54.85,32.1,3783.228271484375,18.871910095214844,,,C,573229982538130,0
Raw,1727332473711,902259358000000,18,0.0,-1410465432353148080,-0.5128812789916992,109545.31282186508,16.347801420677442,31.716802353687658,332,3,0.0,49359,34473637208194,16,38.3,20.091245651245117,0.8530000448226929,16,0.0,0.0,1604812540,,,,0,0.0,3,-54.85,34.3,3783.228271484375,18.871910095214844,,,C,573229982538130,0
Raw,1727332473711,902259358000000,18,0.0,-1410465432353148080,-0.5128812789916992,109545.31282186508,16.347801420677442,31.716802353687658,332,39,0.0,16399,369277586112409,17,37.8,159.66163635253906,0.999500036239624,16,0.0,0.0,1561097980,,,,0,0.0,5,-60.7,33.5,-1539.399658203125,16.749610900878906,,,I,573229982538130,0
Raw,1727332473711,902259358000000,18,0.0,-1410465432353148080,-0.5128812789916992,109545.31282186508,16.347801420677442,31.716802353687658,332,25,0.0,16399,369277637282673,19,36.7,-88.66463470458984,1.0230000019073486,16,0.0,0.0,1561097980,,,,0,0.0,5,-60.7,32.400000000000006,-1539.399658203125,16.749610900878906,,,I,573229982538130,0
Raw,1727332473711,902259358000000,18,0.0,-1410465432353148080,-0.5128812789916992,109545.31282186508,16.347801420677442,31.716802353687658,332,9,0.0,16399,369277589190822,27,33.8,69.06700134277344,1.1549999713897705,16,0.0,0.0,1561097980,,,,0,0.0,5,-60.7,29.499999999999996,-1539.399658203125,16.749610900878906,,,I,573229982538130,0
Raw,1727332473711,902259358000000,18,0.0,-1410465432353148080,-0.5128812789916992,109545.31282186508,16.347801420677442,31.716802353687658,332,10,0.0,23567,369291632628624,16,38.5,131.97816467285156,0.7645000219345093,16,0.0,0.0,1575420030,,,,0,0.0,6,-55.71,34.2,-1461.3460693359375,17.053726196289062,,,C,573229982538130,0
Raw,1727332473711,902259358000000,18,0.0,-1410465432353148080,-0.5128812789916992,109545.31282186508,16.347801420677442,31.716802353687658,332,36,0.0,23567,369291619400507,35,31.9,-490.05377197265625,1.100000023841858,16,0.0,0.0,1575420030,,,,0,0.0,6,-55.71,27.599999999999998,-1461.3460693359375,17.053726196289062,,,C,573229982538130,0
Raw,1727332473711,902259358000000,18,0.0,-1410465432353148080,-0.5128812789916992,109545.31282186508,16.347801420677442,31.716802353687658,332,28,0.0,81935,369291643283861,11,29.4,85.01063537597656,1.3040000200271606,16,0.0,0.0,1176450050,,,,0,0.0,1,-40.31,24.4,39.60669708251953,3.9168617725372314,,,Q,573229982538130,0
Raw,1727332473711,902259358000000,18,0.0,-1410465432353148080,-0.5128812789916992,109545.31282186508,16.347801420677442,31.716802353687658,332,10,0.0,81935,369291632628588,7,34.5,131.84803771972656,0.9305000305175781,16,0.0,0.0,1176450050,,,,0,0.0,6,-40.31,29.2,-1439.6695556640625,219113.5,,,Q,573229982538130,0
Agc,1727332473711,902259358000000,18,0.0,-1410465432353148080,-0.5128812789916992,109545.31282186508,16.347801420677442,31.716802353687658,332,-51.91,1575420000,1
Agc,1727332473711,902259358000000,18,0.0,-1410465432353148080,-0.5128812789916992,109545.31282186508,16.347801420677442,31.716802353687658,332,-51.91,1575420000,4
Agc,1727332473711,902259358000000,18,0.0,-1410465432353148080,-0.5128812789916992,109545.31282186508,16.347801420677442,31.716802353687658,332,-54.85,1602000000,3
Agc,1727332473711,902259358000000,18,0.0,-1410465432353148080,-0.5128812789916992,109545.31282186508,16.347801420677442,31.716802353687658,332,-60.7,1561098000,5
Agc,1727332473711,902259358000000,18,0.0,-1410465432353148080,-0.5128812789916992,109545.31282186508,16.347801420677442,31.716802353687658,332,-55.71,1575420000,6
Agc,1727332473711,902259358000000,18,0.0,-1410465432353148080,-0.5128812789916992,109545.31282186508,16.347801420677442,31.716802353687658,332,-40.31,1176450000,1
Agc,1727332473711,902259358000000,18,0.0,-1410465432353148080,-0.5128812789916992,109545.31282186508,16.347801420677442,31.716802353687658,332,-40.31,1176450000,4
Agc,1727332473711,902259358000000,18,0.0,-1410465432353148080,-0.5128812789916992,109545.31282186508,16.347801420677442,31.716802353687658,332,-40.31,1176450000,6
Agc,1727332473711,902259358000000,18,0.0,-1410465432353148080,-0.5128812789916992,109545.31282186508,16.347801420677442,31.716802353687658,332,-40.31,1176450000,5
Agc,1727332473711,902259358000000,18,0.0,-1410465432353148080,-0.5128812789916992,109545.31282186508,16.347801420677442,31.716802353687658,332,-55.71,1575420000,5
Status,,17,0,1,21,1575420030,35.20,312.13364,27.94924,1,1,1,30.2
Status,,17,1,1,23,1575420030,34.90,98.64314,25.889477,1,1,1,29.9
Status,,17,2,1,27,1575420030,28.70,224.49611,16.949211,1,1,1,23.7
Status,,17,3,1,28,1575420030,37.70,41.202137,82.68621,1,1,1,32.7
Status,,17,4,1,31,1575420030,36.80,209.33527,55.902714,1,1,1,31.8
Status,,17,5,1,32,1575420030,33.40,11.746981,35.45158,1,1,1,28.4
Status,,17,6,3,14,1598062460,35.60,159.42897,33.6353,1,1,0,30.6
Status,,17,7,3,13,1600875010,29.60,79.59834,40.65536,0,1,0,24.6
Status,,17,8,3,17,1604249980,32.10,204.29321,40.062008,1,1,1,27.1
Status,,17,9,3,3,1604812540,34.30,354.19656,24.983236,0,1,0,29.3
Status,,17,10,5,39,1561097980,33.50,29.732422,45.76524,0,1,0,28.5
Status,,17,11,5,25,1561097980,32.40,104.247185,57.552486,1,1,1,27.4
Status,,17,12,5,9,1561097980,29.50,32.69053,76.17438,0,1,0,24.5
Status,,17,13,6,10,1575420030,34.20,215.96483,76.94226,1,1,1,29.2
Status,,17,14,6,36,1575420030,27.60,323.80148,13.939318,1,1,0,22.6
Status,,17,15,1,28,1176450050,24.40,41.202137,82.68621,1,1,1,19.4
Status,,17,16,6,10,1176450050,29.20,215.96483,76.94226,1,1,1,24.2
Status,,57,0,1,8,1575420030,25.30,255.61516,10.265273,1,1,1,20.3
Status,,57,1,1,10,1575420030,31.50,54.195477,47.33607,1,1,1,26.5
Status,,57,2,1,18,1575420030,23.60,151.32527,4.7247458,0,1,1,18.6
Status,,57,3,1,21,1575420030,33.60,312.13058,27.952045,1,1,1,28.6
Status,,57,4,1,23,1575420030,32.50,98.647964,25.88796,1,1,1,27.5
Status,,57,5,1,25,1575420030,30.90,79.95104,15.398858,1,1,0,25.9
Status,,57,6,1,26,1575420030,21.70,172.65338,22.68366,0,1,1,16.7
Status,,57,7,1,27,1575420030,29.90,224.49223,16.947695,1,1,1,24.9
Status,,57,8,1,28,1575420030,36.30,41.180035,82.68198,1,1,1,31.3
Status,,57,9,1,31,1575420030,36.80,209.3386,55.90729,1,1,1,31.8
Status,,57,10,1,32,1575420030,31.60,11.751196,35.44962,1,1,1,26.6
Status,,57,11,4,194,1575420030,23.60,93.89395,9.91654,0,1,0,18.6
Status,,57,12,4,195,1575420030,21.70,137.34036,9.044027,0,1,1,16.7
Status,,57,13,4,196,1575420030,22.50,73.56633,28.793287,1,1,0,17.5
Status,,57,14,3,14,1598062460,35.70,159.4261,33.639614,1,1,0,30.7
Status,,57,15,3,18,1600312450,24.50,277.94943,47.750565,1,1,1,19.5
Status,,57,16,3,13,1600875010,29.50,79.5914,40.65536,0,1,0,24.5
Status,,57,17,3,12,1601437440,23.30,40.98467,10.91472,1,1,0,18.3
Status,,57,18,3,17,1604249980,29.70,204.2901,40.057392,1,1,1,24.7
Status,,57,19,3,3,1604812540,34.50,354.20145,24.983116,0,1,0,29.5
Status,,57,20,3,4,1605374980,27.30,305.39423,12.33021,1,1,0,22.3
Status,,57,21,5,60,1561097980,34.20,167.93391,75.89905,1,1,1,29.2
Status,,57,22,5,43,1561097980,25.10,169.71304,14.628105,0,1,1,20.1
Status,,57,23,5,41,1561097980,28.30,339.06308,32.31436,0,1,0,23.3
Status,,57,24,5,39,1561097980,34.50,29.73108,45.76391,0,1,0,29.5
Status,,57,25,5,38,1561097980,27.80,103.286026,39.75279,1,1,1,22.8
Status,,57,26,5,28,1561097980,27.30,233.67285,42.30288,1,1,1,22.3
Status,,57,27,5,27,1561097980,32.30,287.29123,26.476042,1,1,0,27.3
Status,,57,28,5,25,1561097980,33.00,104.23907,57.55362,1,1,1,28.0
Status,,57,29,5,24,1561097980,25.30,51.174953,19.995398,0,1,0,20.3
Status,,57,30,5,23,1561097980,33.20,184.02585,35.832176,1,1,1,28.2
Status,,57,31,5,14,1561097980,33.10,65.087456,18.87232,1,1,0,28.1
Status,,57,32,5,13,1561097980,34.90,65.49589,56.814594,1,1,1,29.9
Status,,57,33,5,9,1561097980,31.10,32.68249,76.17313,0,1,0,26.1
Status,,57,34,5,3,1561097980,32.10,107.582085,49.451267,0,1,1,27.1
Status,,57,35,6,4,1575420030,31.90,2.3265965,40.913788,1,1,1,26.9
Status,,57,36,6,6,1575420030,23.40,325.5665,45.62653,1,1,1,18.4
Status,,57,37,6,9,1575420030,34.00,294.6339,37.300583,1,1,1,29.0
Status,,57,38,6,10,1575420030,35.30,215.95465,76.93859,1,1,1,30.3
Status,,57,39,6,11,1575420030,34.00,304.53644,61.776848,0,1,0,29.0
Status,,57,40,6,12,1575420030,25.30,167.46901,56.468334,1,1,1,20.3
Status,,57,41,6,31,1575420030,21.10,150.76218,24.028345,0,1,0,16.1
Status,,57,42,6,33,1575420030,23.10,151.38011,4.8512034,0,1,1,18.1
Status,,57,43,6,36,1575420030,29.70,323.80026,13.942079,1,1,0,24.7
Status,,57,44,1,23,1176450050,19.10,98.647964,25.88796,0,1,1,14.1
Status,,57,45,1,27,1176450050,22.20,224.49223,16.947695,0,1,1,17.2
Status,,57,46,1,28,1176450050,19.90,41.180035,82.68198,1,1,1,14.9
Status,,57,47,6,10,1176450050,27.20,215.95465,76.93859,1,1,1,22.2
Status,,57,48,5,28,1176450050,19.20,233.67285,42.30288,0,1,1,14.2
Status,,57,49,5,39,1176450050,19.40,29.73108,45.76391,0,1,0,14.4
Status,,57,50,5,23,1575420030,33.90,184.02585,35.832176,1,1,1,28.9
Status,,57,51,5,24,1575420030,24.40,51.174953,19.995398,1,1,0,19.4
Status,,57,52,5,25,1575420030,28.00,104.23907,57.55362,1,1,1,23.0
Status,,57,53,5,27,1575420030,27.50,287.29123,26.476042,1,1,0,22.5
Status,,57,54,5,28,1575420030,36.10,233.67285,42.30288,1,1,1,31.1
Status,,57,55,5,38,1575420030,27.20,103.286026,39.75279,1,1,1,22.2
Status,,57,56,5,39,1575420030,23.70,29.73108,45.76391,0,1,0,18.7
Raw,1727332475411,902261058000000,18,0.0,-1410465432353147892,-0.35591888427734375,52.91671914164908,15.232251156891193,11.75982702708205,332,8,0.0,16399,369293328357702,46,30.3,164.59451293945312,0.8014999628067017,16,0.0,0.0,1575420030,,,,0,0.0,1,-51.96,25.3,0.0,0.0,,,C,573231671445162,0
Raw,1727332475411,902261058000000,18,0.0,-1410465432353147892,-0.35591888427734375,52.91671914164908,15.232251156891193,11.75982702708205,332,10,0.0,16399,369293339378854,21,36.5,-113.07161712646484,0.05909104272723198,16,0.0,0.0,1575420030,,,,0,0.0,1,-51.96,31.5,0.0,0.0,,,C,573231671445162,0
Raw,1727332475411,902261058000000,18,0.0,-1410465432353147892,-0.35591888427734375,52.91671914164908,15.232251156891193,11.75982702708205,332,18,0.0,16399,369293326495394,61,28.6,711.8981323242188,0.934499979019165,16,0.0,0.0,1575420030,,,,0,0.0,1,-51.96,23.6,0.0,0.0,,,C,573231671445162,0
Raw,1727332475411,902261058000000,18,0.0,-1410465432353147892,-0.35591888427734375,52.91671914164908,15.232251156891193,11.75982702708205,332,21,0.0,16399,369293332508425,17,38.6,-386.66046142578125,0.04129437357187271,16,0.0,0.0,1575420030,,,,0,0.0,1,-51.96,33.6,0.0,0.0,,,C,573231671445162,0
Raw,1727332475411,902261058000000,18,0.0,-1410465432353147892,-0.35591888427734375,52.91671914164908,15.232251156891193,11.75982702708205,332,23,0.0,16399,369293334681868,19,37.5,236.3929443359375,0.048208676278591156,16,0.0,0.0,1575420030,,,,0,0.0,1,-51.96,32.5,0.0,0.0,,,C,573231671445162,0
Raw,1727332475411,902261058000000,18,0.0,-1410465432353147892,-0.35591888427734375,52.91671914164908,15.232251156891193,11.75982702708205,332,25,0.0,16399,369293331876094,24,35.9,3.9660232067108154,0.10300329327583313,16,0.0,0.0,1575420030,,,,0,0.0,1,-51.96,30.9,0.0,0.0,,,C,573231671445162,0
Raw,1727332475411,902261058000000,18,0.0,-1410465432353147892,-0.35591888427734375,52.91671914164908,15.232251156891193,11.75982702708205,332,26,0.0,16399,369293333108894,80,26.7,-486.2383728027344,1.4110000133514404,16,0.0,0.0,1575420030,,,,0,0.0,1,-51.96,21.7,0.0,0.0,,,C,573231671445162,0
Raw,1727332475411,902261058000000,18,0.0,-1410465432353147892,-0.35591888427734375,52.91671914164908,15.232251156891193,11.75982702708205,332,27,0.0,16399,369293329970411,27,34.9,274.0704650878906,0.5900000333786011,16,0.0,0.0,1575420030,,,,0,0.0,1,-51.96,29.9,0.0,0.0,,,C,573231671445162,0
Raw,1727332475411,902261058000000,18,0.0,-1410465432353147892,-0.35591888427734375,52.91671914164908,15.232251156891193,11.75982702708205,332,28,0.0,16399,369293343283453,13,41.3,84.35041809082031,0.04739195108413696,16,0.0,0.0,1575420030,,,,0,0.0,1,-51.96,36.3,0.0,0.0,,,C,573231671445162,0
Raw,1727332475411,902261058000000,18,0.0,-1410465432353147892,-0.35591888427734375,52.91671914164908,15.232251156891193,11.75982702708205,332,31,0.0,16399,369293341322901,13,41.8,-427.40203857421875,0.05039195343852043,16,0.0,0.0,1575420030,,,,0,0.0,1,-51.96,36.8,0.0,0.0,,,C,573231671445162,0
Raw,1727332475411,902261058000000,18,0.0,-1410465432353147892,-0.35591888427734375,52.91671914164908,15.232251156891193,11.75982702708205,332,32,0.0,16399,369293335355434,21,36.6,257.74847412109375,0.06509104371070862,16,0.0,0.0,1575420030,,,,0,0.0,1,-51.96,31.6,0.0,0.0,,,C,573231671445162,0
Raw,1727332475411,902261058000000,18,0.0,-1410465432353147892,-0.35591888427734375,52.91671914164908,15.232251156891193,11.75982702708205,332,194,0.0,16399,369293276483797,61,28.6,59.352596282958984,1.255500078201294,16,0.0,0.0,1575420030,,,,0,0.0,4,-51.96,23.6,0.0,0.0,,,C,573231671445162,0
Raw,1727332475411,902261058000000,18,0.0,-1410465432353147892,-0.35591888427734375,52.91671914164908,15.232251156891193,11.75982702708205,332,195,0.0,16399,369293285534426,80,26.7,130.5890350341797,1.3989999294281006,16,0.0,0.0,1575420030,,,,0,0.0,4,-51.96,21.7,0.0,0.0,,,C,573231671445162,0
Raw,1727332475411,902261058000000,18,0.0,-1410465432353147892,-0.35591888427734375,52.91671914164908,15.232251156891193,11.75982702708205,332,196,0.0,16399,369293276194643,70,27.5,-230.1221466064453,0.999500036239624,16,0.0,0.0,1575420030,,,,0,0.0,4,-51.96,22.5,0.0,0.0,,,C,573231671445162,0
Raw,1727332475411,902261058000000,18,0.0,-1410465432353147892,-0.35591888427734375,52.91671914164908,15.232251156891193,11.75982702708205,332,14,0.0,49359,34475339749014,14,39.7,-622.2440185546875,0.05436111241579056,16,0.0,0.0,1598062460,,,,0,0.0,3,-54.88,35.7,3785.868896484375,11.046725273132324,,,C,573231671445162,0
Raw,1727332475411,902261058000000,18,0.0,-1410465432353147892,-0.35591888427734375,52.91671914164908,15.232251156891193,11.75982702708205,332,13,0.0,49359,34475341422808,27,33.5,4.728513717651367,0.6420000195503235,16,0.0,0.0,1600875010,,,,0,0.0,3,-54.88,29.5,3785.868896484375,11.046725273132324,,,C,573231671445162,0
Raw,1727332475411,902261058000000,18,0.0,-1410465432353147892,-0.35591888427734375,52.91671914164908,15.232251156891193,11.75982702708205,332,12,0.0,49359,34475332652360,61,27.3,475.2967529296875,1.005500078201294,16,0.0,0.0,1601437440,,,,0,0.0,3,-54.88,23.3,3785.868896484375,11.046725273132324,,,C,573231671445162,0
Raw,1727332475411,902261058000000,18,0.0,-1410465432353147892,-0.35591888427734375,52.91671914164908,15.232251156891193,11.75982702708205,332,17,0.0,49359,34475341562229,27,33.7,606.88232421875,0.6420000195503235,16,0.0,0.0,1604249980,,,,0,0.0,3,-54.88,29.700000000000003,3785.868896484375,11.046725273132324,,,C,573231671445162,0
Raw,1727332475411,902261058000000,18,0.0,-1410465432353147892,-0.35591888427734375,52.91671914164908,15.232251156891193,11.75982702708205,332,3,0.0,49359,34475337208126,16,38.5,19.572668075561523,0.03214139863848686,16,0.0,0.0,1604812540,,,,0,0.0,3,-54.88,34.5,3785.868896484375,11.046725273132324,,,C,573231671445162,0
Raw,1727332475411,902261058000000,18,0.0,-1410465432353147892,-0.35591888427734375,52.91671914164908,15.232251156891193,11.75982702708205,332,4,0.0,49359,34475333344813,35,31.3,-86.22855377197266,0.7339999675750732,16,0.0,0.0,1605374980,,,,0,0.0,3,-54.88,27.3,3785.868896484375,11.046725273132324,,,C,573231671445162,0
Raw,1727332475411,902261058000000,18,0.0,-1410465432353147892,-0.35591888427734375,52.91671914164908,15.232251156891193,11.75982702708205,332,60,0.0,16399,369279291280752,16,38.5,8.997050285339355,1.6574000120162964,16,0.0,0.0,1561097980,,,,0,0.0,5,-60.79,34.2,-1538.6754150390625,9.20344066619873,,,I,573231671445162,0
Raw,1727332475411,902261058000000,18,0.0,-1410465432353147892,-0.35591888427734375,52.91671914164908,15.232251156891193,11.75982702708205,332,43,0.0,16399,369279325825457,46,29.4,504.9582214355469,1.1690000295639038,16,0.0,0.0,1561097980,,,,0,0.0,5,-60.79,25.099999999999998,-1538.6754150390625,9.20344066619873,,,I,573231671445162,0
Raw,1727332475411,902261058000000,18,0.0,-1410465432353147892,-0.35591888427734375,52.91671914164908,15.232251156891193,11.75982702708205,332,41,0.0,16399,369279330149820,31,32.6,-125.36337280273438,0.7235000133514404,16,0.0,0.0,1561097980,,,,0,0.0,5,-60.79,28.3,-1538.6754150390625,9.20344066619873,,,I,573231671445162,0
Raw,1727332475411,902261058000000,18,0.0,-1410465432353147892,-0.35591888427734375,52.91671914164908,15.232251156891193,11.75982702708205,332,39,0.0,16399,369279286111519,16,38.8,159.018798828125,0.0490373931825161,16,0.0,0.0,1561097980,,,,0,0.0,5,-60.79,34.5,-1538.6754150390625,9.20344066619873,,,I,573231671445162,0
Raw,1727332475411,902261058000000,18,0.0,-1410465432353147892,-0.35591888427734375,52.91671914164908,15.232251156891193,11.75982702708205,332,38,0.0,16399,369279285550600,35,32.1,-59.40741729736328,0.6859999895095825,16,0.0,0.0,1561097980,,,,0,0.0,5,-60.79,27.8,-1538.6754150390625,9.20344066619873,,,I,573231671445162,0
Raw,1727332475411,902261058000000,18,0.0,-1410465432353147892,-0.35591888427734375,52.91671914164908,15.232251156891193,11.75982702708205,332,28,0.0,16399,369279334039968,35,31.6,286.2828674316406,0.7324999570846558,16,0.0,0.0,1561097980,,,,0,0.0,5,-60.79,27.3,-1538.6754150390625,9.20344066619873,,,I,573231671445162,0
Raw,1727332475411,902261058000000,18,0.0,-1410465432353147892,-0.35591888427734375,52.91671914164908,15.232251156891193,11.75982702708205,332,27,0.0,16399,369279329903560,19,36.6,-88.05040740966797,0.0559445396065712,16,0.0,0.0,1561097980,,,,0,0.0,5,-60.79,32.300000000000004,-1538.6754150390625,9.20344066619873,,,I,573231671445162,0
Raw,1727332475411,902261058000000,18,0.0,-1410465432353147892,-0.35591888427734375,52.91671914164908,15.232251156891193,11.75982702708205,332,25,0.0,16399,369279337283175,17,37.3,-90.31961059570312,0.03393927961587906,16,0.0,0.0,1561097980,,,,0,0.0,5,-60.79,33.0,-1538.6754150390625,9.20344066619873,,,I,573231671445162,0
Raw,1727332475411,902261058000000,18,0.0,-1410465432353147892,-0.35591888427734375,52.91671914164908,15.232251156891193,11.75982702708205,332,24,0.0,16399,369279328369218,46,29.6,375.2643737792969,1.1735000610351562,16,0.0,0.0,1561097980,,,,0,0.0,5,-60.79,25.3,-1538.6754150390625,9.20344066619873,,,I,573231671445162,0
Raw,1727332475411,902261058000000,18,0.0,-1410465432353147892,-0.35591888427734375,52.91671914164908,15.232251156891193,11.75982702708205,332,23,0.0,16399,369279331334017,17,37.5,-519.2178344726562,0.04293927550315857,16,0.0,0.0,1561097980,,,,0,0.0,5,-60.79,33.2,-1538.6754150390625,9.20344066619873,,,I,573231671445162,0
Raw,1727332475411,902261058000000,18,0.0,-1410465432353147892,-0.35591888427734375,52.91671914164908,15.232251156891193,11.75982702708205,332,14,0.0,16399,369279326810858,17,37.4,116.85520935058594,0.05043927952647209,16,0.0,0.0,1561097980,,,,0,0.0,5,-60.79,33.1,-1538.6754150390625,9.20344066619873,,,I,573231671445162,0
Raw,1727332475411,902261058000000,18,0.0,-1410465432353147892,-0.35591888427734375,52.91671914164908,15.232251156891193,11.75982702708205,332,13,0.0,16399,369279289516655,16,39.2,-157.78936767578125,0.044537391513586044,16,0.0,0.0,1561097980,,,,0,0.0,5,-60.79,34.900000000000006,-1538.6754150390625,9.20344066619873,,,I,573231671445162,0
Raw,1727332475411,902261058000000,18,0.0,-1410465432353147892,-0.35591888427734375,52.91671914164908,15.232251156891193,11.75982702708205,332,9,0.0,16399,369279289190477,21,35.4,68.54981994628906,0.07449555397033691,16,0.0,0.0,1561097980,,,,0,0.0,5,-60.79,31.099999999999998,-1538.6754150390625,9.20344066619873,,,I,573231671445162,0
Raw,1727332475411,902261058000000,18,0.0,-1410465432353147892,-0.35591888427734375,52.91671914164908,15.232251156891193,11.75982702708205,332,3,0.0,16399,369279288164497,19,36.4,6.250885009765625,2.3712000846862793,16,0.0,0.0,1561097980,,,,0,0.0,5,-60.79,32.1,-1538.6754150390625,9.20344066619873,,,I,573231671445162,0
Raw,1727332475411,902261058000000,18,0.0,-1410465432353147892,-0.35591888427734375,52.91671914164908,15.232251156891193,11.75982702708205,332,4,0.0,23567,369293327605681,21,36.2,229.1475830078125,0.07310548424720764,16,0.0,0.0,1575420030,,,,0,0.0,6,-55.75,31.900000000000002,-1457.6959228515625,9.739971160888672,,,C,573231671445162,0
Raw,1727332475411,902261058000000,18,0.0,-1410465432353147892,-0.35591888427734375,52.91671914164908,15.232251156891193,11.75982702708205,332,6,0.0,23567,369293328740195,61,27.7,124.80410766601562,1.0355000495910645,16,0.0,0.0,1575420030,,,,0,0.0,6,-55.75,23.4,-1457.6959228515625,9.739971160888672,,,C,573231671445162,0
Raw,1727332475411,902261058000000,18,0.0,-1410465432353147892,-0.35591888427734375,52.91671914164908,15.232251156891193,11.75982702708205,332,9,0.0,23567,369293326186503,16,38.3,20.116878509521484,0.06930868327617645,16,0.0,0.0,1575420030,,,,0,0.0,6,-55.75,34.0,-1457.6959228515625,9.739971160888672,,,C,573231671445162,0
Raw,1727332475411,902261058000000,18,0.0,-1410465432353147892,-0.35591888427734375,52.91671914164908,15.232251156891193,11.75982702708205,332,10,0.0,23567,369293332627868,14,39.6,131.44313049316406,0.03501468524336815,16,0.0,0.0,1575420030,,,,0,0.0,6,-55.75,35.300000000000004,-1457.6959228515625,9.739971160888672,,,C,573231671445162,0
Raw,1727332475411,902261058000000,18,0.0,-1410465432353147892,-0.35591888427734375,52.91671914164908,15.232251156891193,11.75982702708205,332,11,0.0,23567,369293333195556,16,38.3,-156.4575958251953,0.013808680698275566,16,0.0,0.0,1575420030,,,,0,0.0,6,-55.75,34.0,-1457.6959228515625,9.739971160888672,,,C,573231671445162,0
Raw,1727332475411,902261058000000,18,0.0,-1410465432353147892,-0.35591888427734375,52.91671914164908,15.232251156891193,11.75982702708205,332,12,0.0,23567,369293329622963,46,29.6,356.15753173828125,0.1012432873249054,16,0.0,0.0,1575420030,,,,0,0.0,6,-55.75,25.3,-1457.6959228515625,9.739971160888672,,,C,573231671445162,0
Raw,1727332475411,902261058000000,18,0.0,-1410465432353147892,-0.35591888427734375,52.91671914164908,15.232251156891193,11.75982702708205,332,31,0.0,23567,369293323018021,80,25.4,-337.0005798339844,1.5699999332427979,16,0.0,0.0,1575420030,,,,0,0.0,6,-55.75,21.099999999999998,-1457.6959228515625,9.739971160888672,,,C,573231671445162,0
Raw,1727332475411,902261058000000,18,0.0,-1410465432353147892,-0.35591888427734375,52.91671914164908,15.232251156891193,11.75982702708205,332,33,0.0,23567,369293316581392,61,27.4,565.2958984375,1.3955000638961792,16,0.0,0.0,1575420030,,,,0,0.0,6,-55.75,23.099999999999998,-1457.6959228515625,9.739971160888672,,,C,573231671445162,0
Raw,1727332475411,902261058000000,18,0.0,-1410465432353147892,-0.35591888427734375,52.91671914164908,15.232251156891193,11.75982702708205,332,36,0.0,23567,369293319403309,27,34.0,-490.61785888671875,0.07164597511291504,16,0.0,0.0,1575420030,,,,0,0.0,6,-55.75,29.7,-1457.6959228515625,9.739971160888672,,,C,573231671445162,0
Raw,1727332475411,902261058000000,18,0.0,-1410465432353147892,-0.35591888427734375,52.91671914164908,15.232251156891193,11.75982702708205,332,23,0.0,81935,369293334681878,20,24.1,236.51864624023438,1.9825000762939453,16,0.0,0.0,1176450050,,,,0,0.0,1,-41.01,19.1,39.60669708251953,3.9312281608581543,,,Q,573231671445162,0
Raw,1727332475411,902261058000000,18,0.0,-1410465432353147892,-0.35591888427734375,52.91671914164908,15.232251156891193,11.75982702708205,332,27,0.0,81935,369293329970309,14,27.2,273.8764343261719,1.024999976158142,16,0.0,0.0,1176450050,,,,0,0.0,1,-41.01,22.2,39.60669708251953,3.9312281608581543,,,Q,573231671445162,0
Raw,1727332475411,902261058000000,18,0.0,-1410465432353147892,-0.35591888427734375,52.91671914164908,15.232251156891193,11.75982702708205,332,28,0.0,81935,369293343283373,20,24.9,84.67935943603516,1.815999984741211,16,0.0,0.0,1176450050,,,,0,0.0,1,-41.01,19.9,39.60669708251953,3.9312281608581543,,,Q,573231671445162,0
Raw,1727332475411,902261058000000,18,0.0,-1410465432353147892,-0.35591888427734375,52.91671914164908,15.232251156891193,11.75982702708205,332,10,0.0,81935,369293332627845,8,32.5,131.44451904296875,0.039656899869441986,16,0.0,0.0,1176450050,,,,0,0.0,6,-41.01,27.2,-1436.0289306640625,112.71600341796875,,,Q,573231671445162,0
Raw,1727332475411,902261058000000,18,0.0,-1410465432353147892,-0.35591888427734375,52.91671914164908,15.232251156891193,11.75982702708205,332,28,0.0,16399,369279334040013,20,23.7,286.8471984863281,1.8424999713897705,16,0.0,0.0,1176450050,,,,0,0.0,5,-41.01,19.2,-1505.708251953125,113.02456665039062,,,Q,573231671445162,0
Raw,1727332475411,902261058000000,18,0.0,-1410465432353147892,-0.35591888427734375,52.91671914164908,15.232251156891193,11.75982702708205,332,39,0.0,16399,369279286111453,20,23.9,159.0254364013672,1.8305001258850098,16,0.0,0.0,1176450050,,,,0,0.0,5,-41.01,19.4,-1505.708251953125,113.02456665039062,,,Q,573231671445162,0
Raw,1727332475411,902261058000000,18,0.0,-1410465432353147892,-0.35591888427734375,52.91671914164908,15.232251156891193,11.75982702708205,332,23,0.0,16399,369279331334057,5,40.9,-519.2463989257812,0.09040714800357819,16,0.0,0.0,1575420030,,,,0,0.0,5,-55.75,33.9,-1551.634521484375,109.00064849853516,,,P,573231671445162,0
Raw,1727332475411,902261058000000,18,0.0,-1410465432353147892,-0.35591888427734375,52.91671914164908,15.232251156891193,11.75982702708205,332,24,0.0,16399,369279328369169,11,31.4,375.58746337890625,0.7589616775512695,16,0.0,0.0,1575420030,,,,0,0.0,5,-55.75,24.4,-1551.634521484375,109.00064849853516,,,P,573231671445162,0
Raw,1727332475411,902261058000000,18,0.0,-1410465432353147892,-0.35591888427734375,52.91671914164908,15.232251156891193,11.75982702708205,332,25,0.0,16399,369279337283219,8,35.0,-90.38278198242188,0.10020638257265091,16,0.0,0.0,1575420030,,,,0,0.0,5,-55.75,28.0,-1551.634521484375,109.00064849853516,,,P,573231671445162,0
Raw,1727332475411,902261058000000,18,0.0,-1410465432353147892,-0.35591888427734375,52.91671914164908,15.232251156891193,11.75982702708205,332,27,0.0,16399,369279329903519,8,34.5,-88.12017059326172,0.09005223214626312,16,0.0,0.0,1575420030,,,,0,0.0,5,-55.75,27.5,-1551.634521484375,109.00064849853516,,,P,573231671445162,0
Raw,1727332475411,902261058000000,18,0.0,-1410465432353147892,-0.35591888427734375,52.91671914164908,15.232251156891193,11.75982702708205,332,28,0.0,16399,369279334040096,3,43.1,286.7886657714844,0.09089195728302002,16,0.0,0.0,1575420030,,,,0,0.0,5,-55.75,36.1,-1551.634521484375,109.00064849853516,,,P,573231671445162,0
Raw,1727332475411,902261058000000,18,0.0,-1410465432353147892,-0.35591888427734375,52.91671914164908,15.232251156891193,11.75982702708205,332,38,0.0,16399,369279285550542,8,34.2,-60.469478607177734,0.09905223548412323,16,0.0,0.0,1575420030,,,,0,0.0,5,-55.75,27.200000000000003,-1551.634521484375,109.00064849853516,,,P,573231671445162,0
Raw,1727332475411,902261058000000,18,0.0,-1410465432353147892,-0.35591888427734375,52.91671914164908,15.232251156891193,11.75982702708205,332,39,0.0,16399,369279286111539,12,30.7,158.92376708984375,0.9854999780654907,16,0.0,0.0,1575420030,,,,0,0.0,5,-55.75,23.7,-1551.634521484375,109.00064849853516,,,P,573231671445162,0
Agc,1727332475411,902261058000000,18,0.0,-1410465432353147892,-0.35591888427734375,52.91671914164908,15.232251156891193,11.75982702708205,332,-51.96,1575420000,1
Agc,1727332475411,902261058000000,18,0.0,-1410465432353147892,-0.35591888427734375,52.91671914164908,15.232251156891193,11.75982702708205,332,-51.96,1575420000,4
Agc,1727332475411,902261058000000,18,0.0,-1410465432353147892,-0.35591888427734375,52.91671914164908,15.232251156891193,11.75982702708205,332,-54.88,1602000000,3
Agc,1727332475411,902261058000000,18,0.0,-1410465432353147892,-0.35591888427734375,52.91671914164908,15.232251156891193,11.75982702708205,332,-60.79,1561098000,5
Agc,1727332475411,902261058000000,18,0.0,-1410465432353147892,-0.35591888427734375,52.91671914164908,15.232251156891193,11.75982702708205,332,-55.75,1575420000,6
Agc,1727332475411,902261058000000,18,0.0,-1410465432353147892,-0.35591888427734375,52.91671914164908,15.232251156891193,11.75982702708205,332,-41.01,1176450000,1
Agc,1727332475411,902261058000000,18,0.0,-1410465432353147892,-0.35591888427734375,52.91671914164908,15.232251156891193,11.75982702708205,332,-41.01,1176450000,4
Agc,1727332475411,902261058000000,18,0.0,-1410465432353147892,-0.35591888427734375,52.91671914164908,15.232251156891193,11.75982702708205,332,-41.01,1176450000,6
Agc,1727332475411,902261058000000,18,0.0,-1410465432353147892,-0.35591888427734375,52.91671914164908,15.232251156891193,11.75982702708205,332,-41.01,1176450000,5
Agc,1727332475411,902261058000000,18,0.0,-1410465432353147892,-0.35591888427734375,52.91671914164908,15.232251156891193,11.75982702708205,332,-55.75,1575420000,5
Status,,62,0,1,8,1575420030,23.20,255.61516,10.265273,1,1,1,18.2
Status,,62,1,1,10,1575420030,30.40,54.195477,47.33607,1,1,1,25.4
Status,,62,2,1,18,1575420030,23.60,151.32527,4.7247458,0,1,1,18.6
Status,,62,3,1,21,1575420030,35.60,312.13058,27.952045,1,1,1,30.6
Status,,62,4,1,23,1575420030,32.00,98.647964,25.88796,1,1,1,27.0
Status,,62,5,1,25,1575420030,30.60,79.95104,15.398858,1,1,0,25.6
Status,,62,6,1,26,1575420030,21.70,172.65338,22.68366,1,1,1,16.7
Status,,62,7,1,27,1575420030,30.80,224.49223,16.947695,1,1,1,25.8
Status,,62,8,1,28,1575420030,35.20,41.180035,82.68198,1,1,1,30.2
Status,,62,9,1,31,1575420030,35.50,209.3386,55.90729,1,1,1,30.5
Status,,62,10,1,32,1575420030,31.30,11.751196,35.44962,1,1,1,26.3
Status,,62,11,4,194,1575420030,23.40,93.89395,9.91654,1,1,0,18.4
Status,,62,12,4,195,1575420030,21.70,137.34036,9.044027,1,1,1,16.7
Status,,62,13,4,196,1575420030,22.50,73.56633,28.793287,1,1,0,17.5
Status,,62,14,3,14,1598062460,32.50,159.4261,33.639614,1,1,0,27.5
Status,,62,15,3,18,1600312450,24.50,277.94943,47.750565,1,1,1,19.5
Status,,62,16,3,13,1600875010,28.80,79.5914,40.65536,0,1,0,23.8
Status,,62,17,3,12,1601437440,26.10,40.98467,10.91472,1,1,0,21.1
Status,,62,18,3,17,1604249980,28.20,204.2901,40.057392,1,1,1,23.2
Status,,62,19,3,3,1604812540,34.60,354.20145,24.983116,0,1,0,29.6
Status,,62,20,3,4,1605374980,26.70,305.39423,12.33021,1,1,0,21.7
Status,,62,21,5,60,1561097980,33.90,167.93391,75.89905,1,1,1,28.9
Status,,62,22,5,43,1561097980,24.70,169.71304,14.628105,1,1,1,19.7
Status,,62,23,5,41,1561097980,25.40,339.06308,32.31436,0,1,0,20.4
Status,,62,24,5,39,1561097980,34.20,29.73108,45.76391,0,1,0,29.2
Status,,62,25,5,38,1561097980,29.40,103.286026,39.75279,1,1,1,24.4
Status,,62,26,5,28,1561097980,27.60,233.67285,42.30288,1,1,1,22.6
Status,,62,27,5,27,1561097980,32.20,287.29123,26.476042,1,1,0,27.2
Status,,62,28,5,25,1561097980,33.30,104.23907,57.55362,1,1,1,28.3
Status,,62,29,5,24,1561097980,22.50,51.174953,19.995398,1,1,0,17.5
Status,,62,30,5,23,1561097980,35.60,184.02585,35.832176,1,1,1,30.6
Status,,62,31,5,14,1561097980,33.20,65.087456,18.87232,1,1,0,28.2
Status,,62,32,5,13,1561097980,34.80,65.49589,56.814594,1,1,1,29.8
Status,,62,33,5,9,1561097980,31.50,32.68249,76.17313,0,1,0,26.5
Status,,62,34,5,8,1561097980,24.00,86.25991,47.681057,0,1,0,19.0
Status,,62,35,5,5,1561097980,27.70,241.22545,64.65522,0,1,1,22.7
Status,,62,36,5,3,1561097980,34.30,107.582085,49.451267,1,1,1,29.3
Status,,62,37,5,2,1561097980,25.70,147.2768,75.75578,0,1,0,20.7
Status,,62,38,6,4,1575420030,32.30,2.3265965,40.913788,1,1,1,27.3
Status,,62,39,6,6,1575420030,24.50,325.5665,45.62653,1,1,1,19.5
Status,,62,40,6,9,1575420030,32.90,294.6339,37.300583,1,1,1,27.9
Status,,62,41,6,10,1575420030,35.00,215.95465,76.93859,1,1,1,30.0
Status,,62,42,6,11,1575420030,34.50,304.53644,61.776848,0,1,0,29.5
Status,,62,43,6,12,1575420030,27.20,167.46901,56.468334,1,1,1,22.2
Status,,62,44,6,31,1575420030,21.10,150.76218,24.028345,1,1,0,16.1
Status,,62,45,6,33,1575420030,21.60,151.38011,4.8512034,0,1,1,16.6
Status,,62,46,6,36,1575420030,30.00,323.80026,13.942079,1,1,0,25.0
Status,,62,47,1,23,1176450050,19.10,98.647964,25.88796,1,1,1,14.1
Status,,62,48,1,26,1176450050,18.90,172.65338,22.68366,0,1,1,13.9
Status,,62,49,1,27,1176450050,21.10,224.49223,16.947695,1,1,1,16.1
Status,,62,50,1,28,1176450050,19.90,41.180035,82.68198,1,1,1,14.9
Status,,62,51,6,10,1176450050,26.90,215.95465,76.93859,1,1,1,21.9
Status,,62,52,5,28,1176450050,19.20,233.67285,42.30288,1,1,1,14.2
Status,,62,53,5,39,1176450050,19.40,29.73108,45.76391,0,1,0,14.4
Status,,62,54,5,23,1575420030,31.40,184.02585,35.832176,1,1,1,26.4
Status,,62,55,5,24,1575420030,24.90,51.174953,19.995398,1,1,0,19.9
Status,,62,56,5,25,1575420030,29.30,104.23907,57.55362,1,1,1,24.3
Status,,62,57,5,27,1575420030,29.90,287.29123,26.476042,1,1,0,24.9
Status,,62,58,5,28,1575420030,34.30,233.67285,42.30288,1,1,1,29.3
Status,,62,59,5,38,1575420030,27.80,103.286026,39.75279,1,1,1,22.8
Status,,62,60,5,39,1575420030,25.30,29.73108,45.76391,0,1,0,20.3
Status,,62,61,5,41,1575420030,28.60,339.06308,32.31436,0,1,0,23.6
Raw,1727332476411,902262058000000,18,0.0,-1410465432353147899,-0.582982063293457,39.186477806651965,14.783416492872176,9.519665888412714,332,8,0.0,16399,369294328357126,61,28.2,165.2605438232422,0.9314999580383301,16,0.0,0.0,1575420030,,,,0,0.0,1,-51.91,23.2,0.0,0.0,,,C,573232675055057,0
Raw,1727332476411,902262058000000,18,0.0,-1410465432353147899,-0.582982063293457,39.186477806651965,14.783416492872176,9.519665888412714,332,10,0.0,16399,369294339379211,24,35.4,-112.79550170898438,1.2327653169631958,16,0.0,0.0,1575420030,,,,0,0.0,1,-51.91,30.4,0.0,0.0,,,C,573232675055057,0
Raw,1727332476411,902262058000000,18,0.0,-1410465432353147899,-0.582982063293457,39.186477806651965,14.783416492872176,9.519665888412714,332,21,0.0,16399,369294332509691,14,40.6,-386.33929443359375,0.034995656460523605,16,0.0,0.0,1575420030,,,,0,0.0,1,-51.91,35.6,0.0,0.0,,,C,573232675055057,0
Raw,1727332476411,902262058000000,18,0.0,-1410465432353147899,-0.582982063293457,39.186477806651965,14.783416492872176,9.519665888412714,332,23,0.0,16399,369294334681116,19,37.0,236.71371459960938,1.1899707317352295,16,0.0,0.0,1575420030,,,,0,0.0,1,-51.91,32.0,0.0,0.0,,,C,573232675055057,0
Raw,1727332476411,902262058000000,18,0.0,-1410465432353147899,-0.582982063293457,39.186477806651965,14.783416492872176,9.519665888412714,332,25,0.0,16399,369294331876085,24,35.6,4.32880163192749,0.10300329327583313,16,0.0,0.0,1575420030,,,,0,0.0,1,-51.91,30.6,0.0,0.0,,,C,573232675055057,0
Raw,1727332476411,902262058000000,18,0.0,-1410465432353147899,-0.582982063293457,39.186477806651965,14.783416492872176,9.519665888412714,332,27,0.0,16399,369294329969470,24,35.8,274.3965148925781,0.1060032919049263,16,0.0,0.0,1575420030,,,,0,0.0,1,-51.91,30.799999999999997,0.0,0.0,,,C,573232675055057,0
Raw,1727332476411,902262058000000,18,0.0,-1410465432353147899,-0.582982063293457,39.186477806651965,14.783416492872176,9.519665888412714,332,28,0.0,16399,369294343283168,14,40.2,84.72341918945312,0.04849565401673317,16,0.0,0.0,1575420030,,,,0,0.0,1,-51.91,35.2,0.0,0.0,,,C,573232675055057,0
Raw,1727332476411,902262058000000,18,0.0,-1410465432353147899,-0.582982063293457,39.186477806651965,14.783416492872176,9.519665888412714,332,31,0.0,16399,369294341324303,14,40.5,-427.05712890625,0.05149565637111664,16,0.0,0.0,1575420030,,,,0,0.0,1,-51.91,35.5,0.0,0.0,,,C,573232675055057,0
Raw,1727332476411,902262058000000,18,0.0,-1410465432353147899,-0.582982063293457,39.186477806651965,14.783416492872176,9.519665888412714,332,32,0.0,16399,369294335354613,21,36.3,257.979248046875,0.06509104371070862,16,0.0,0.0,1575420030,,,,0,0.0,1,-51.91,31.299999999999997,0.0,0.0,,,C,573232675055057,0
Raw,1727332476411,902262058000000,18,0.0,-1410465432353147899,-0.582982063293457,39.186477806651965,14.783416492872176,9.519665888412714,332,194,0.0,16399,369294276483476,61,28.4,59.980567932128906,0.9194999933242798,16,0.0,0.0,1575420030,,,,0,0.0,4,-51.91,23.4,0.0,0.0,,,C,573232675055057,0
Raw,1727332476411,902262058000000,18,0.0,-1410465432353147899,-0.582982063293457,39.186477806651965,14.783416492872176,9.519665888412714,332,14,0.0,49359,34476339751117,19,36.5,-621.9569091796875,0.6331368088722229,16,0.0,0.0,1598062460,,,,0,0.0,3,-54.84,32.5,3785.864501953125,11.078621864318848,,,C,573232675055057,0
Raw,1727332476411,902262058000000,18,0.0,-1410465432353147899,-0.582982063293457,39.186477806651965,14.783416492872176,9.519665888412714,332,13,0.0,49359,34476341422827,31,32.8,4.784694194793701,0.6919999718666077,16,0.0,0.0,1600875010,,,,0,0.0,3,-54.84,28.799999999999997,3785.864501953125,11.078621864318848,,,C,573232675055057,0
Raw,1727332476411,902262058000000,18,0.0,-1410465432353147899,-0.582982063293457,39.186477806651965,14.783416492872176,9.519665888412714,332,12,0.0,49359,34476332650683,40,30.1,475.24993896484375,0.7954999804496765,16,0.0,0.0,1601437440,,,,0,0.0,3,-54.84,26.1,3785.864501953125,11.078621864318848,,,C,573232675055057,0
Raw,1727332476411,902262058000000,18,0.0,-1410465432353147899,-0.582982063293457,39.186477806651965,14.783416492872176,9.519665888412714,332,17,0.0,49359,34476341560172,31,32.2,607.8540649414062,0.6919999718666077,16,0.0,0.0,1604249980,,,,0,0.0,3,-54.84,28.200000000000003,3785.864501953125,11.078621864318848,,,C,573232675055057,0
Raw,1727332476411,902262058000000,18,0.0,-1410465432353147899,-0.582982063293457,39.186477806651965,14.783416492872176,9.519665888412714,332,3,0.0,49359,34476337207977,16,38.6,19.79384994506836,0.03214139863848686,16,0.0,0.0,1604812540,,,,0,0.0,3,-54.84,34.6,3785.864501953125,11.078621864318848,,,C,573232675055057,0
Raw,1727332476411,902262058000000,18,0.0,-1410465432353147899,-0.582982063293457,39.186477806651965,14.783416492872176,9.519665888412714,332,4,0.0,49359,34476333345204,40,30.7,-86.22855377197266,0.793999969959259,16,0.0,0.0,1605374980,,,,0,0.0,3,-54.84,26.7,3785.864501953125,11.078621864318848,,,C,573232675055057,0
Raw,1727332476411,902262058000000,18,0.0,-1410465432353147899,-0.582982063293457,39.186477806651965,14.783416492872176,9.519665888412714,332,60,0.0,16399,369280291280730,17,38.2,4.618549823760986,1.6574000120162964,16,0.0,0.0,1561097980,,,,0,0.0,5,-60.74,33.900000000000006,-1539.0804443359375,9.101410865783691,,,I,573232675055057,0
Raw,1727332476411,902262058000000,18,0.0,-1410465432353147899,-0.582982063293457,39.186477806651965,14.783416492872176,9.519665888412714,332,43,0.0,16399,369280325823697,53,29.0,505.80322265625,0.8659999966621399,16,0.0,0.0,1561097980,,,,0,0.0,5,-60.74,24.7,-1539.0804443359375,9.101410865783691,,,I,573232675055057,0
Raw,1727332476411,902262058000000,18,0.0,-1410465432353147899,-0.582982063293457,39.186477806651965,14.783416492872176,9.519665888412714,332,41,0.0,16399,369280330150241,46,29.7,-124.72004699707031,0.8585000038146973,16,0.0,0.0,1561097980,,,,0,0.0,5,-60.74,25.4,-1539.0804443359375,9.101410865783691,,,I,573232675055057,0
Raw,1727332476411,902262058000000,18,0.0,-1410465432353147899,-0.582982063293457,39.186477806651965,14.783416492872176,9.519665888412714,332,39,0.0,16399,369280286110977,16,38.5,159.3020477294922,0.0490373931825161,16,0.0,0.0,1561097980,,,,0,0.0,5,-60.74,34.2,-1539.0804443359375,9.101410865783691,,,I,573232675055057,0
Raw,1727332476411,902262058000000,18,0.0,-1410465432353147899,-0.582982063293457,39.186477806651965,14.783416492872176,9.519665888412714,332,38,0.0,16399,369280285550779,27,33.7,-60.050750732421875,0.6360000371932983,16,0.0,0.0,1561097980,,,,0,0.0,5,-60.74,29.400000000000002,-1539.0804443359375,9.101410865783691,,,I,573232675055057,0
Raw,1727332476411,902262058000000,18,0.0,-1410465432353147899,-0.582982063293457,39.186477806651965,14.783416492872176,9.519665888412714,332,28,0.0,16399,369280334039064,35,31.9,286.9358215332031,0.7324999570846558,16,0.0,0.0,1561097980,,,,0,0.0,5,-60.74,27.599999999999998,-1539.0804443359375,9.101410865783691,,,I,573232675055057,0
Raw,1727332476411,902262058000000,18,0.0,-1410465432353147899,-0.582982063293457,39.186477806651965,14.783416492872176,9.519665888412714,332,27,0.0,16399,369280329903821,19,36.5,-87.70183563232422,0.0559445396065712,16,0.0,0.0,1561097980,,,,0,0.0,5,-60.74,32.2,-1539.0804443359375,9.101410865783691,,,I,573232675055057,0
Raw,1727332476411,902262058000000,18,0.0,-1410465432353147899,-0.582982063293457,39.186477806651965,14.783416492872176,9.519665888412714,332,25,0.0,16399,369280337283485,17,37.6,-89.9842300415039,0.03393927961587906,16,0.0,0.0,1561097980,,,,0,0.0,5,-60.74,33.300000000000004,-1539.0804443359375,9.101410865783691,,,I,573232675055057,0
Raw,1727332476411,902262058000000,18,0.0,-1410465432353147899,-0.582982063293457,39.186477806651965,14.783416492872176,9.519665888412714,332,24,0.0,16399,369280328367947,70,26.8,374.64984130859375,1.091499924659729,16,0.0,0.0,1561097980,,,,0,0.0,5,-60.74,22.5,-1539.0804443359375,9.101410865783691,,,I,573232675055057,0
Raw,1727332476411,902262058000000,18,0.0,-1410465432353147899,-0.582982063293457,39.186477806651965,14.783416492872176,9.519665888412714,332,23,0.0,16399,369280331335756,14,39.9,-518.9194946289062,0.03658277168869972,16,0.0,0.0,1561097980,,,,0,0.0,5,-60.74,35.6,-1539.0804443359375,9.101410865783691,,,I,573232675055057,0
Raw,1727332476411,902262058000000,18,0.0,-1410465432353147899,-0.582982063293457,39.186477806651965,14.783416492872176,9.519665888412714,332,14,0.0,16399,369280326810477,17,37.5,117.122314453125,0.05043927952647209,16,0.0,0.0,1561097980,,,,0,0.0,5,-60.74,33.2,-1539.0804443359375,9.101410865783691,,,I,573232675055057,0
Raw,1727332476411,902262058000000,18,0.0,-1410465432353147899,-0.582982063293457,39.186477806651965,14.783416492872176,9.519665888412714,332,13,0.0,16399,369280289517195,16,39.1,-157.5461883544922,0.044537391513586044,16,0.0,0.0,1561097980,,,,0,0.0,5,-60.74,34.800000000000004,-1539.0804443359375,9.101410865783691,,,I,573232675055057,0
Raw,1727332476411,902262058000000,18,0.0,-1410465432353147899,-0.582982063293457,39.186477806651965,14.783416492872176,9.519665888412714,332,9,0.0,16399,369280289190253,21,35.8,68.85108184814453,0.07449555397033691,16,0.0,0.0,1561097980,,,,0,0.0,5,-60.74,31.499999999999996,-1539.0804443359375,9.101410865783691,,,I,573232675055057,0
Raw,1727332476411,902262058000000,18,0.0,-1410465432353147899,-0.582982063293457,39.186477806651965,14.783416492872176,9.519665888412714,332,8,0.0,16399,369280286841257,53,28.3,-125.23855590820312,1.9905000925064087,16,0.0,0.0,1561097980,,,,0,0.0,5,-60.74,24.0,-1539.0804443359375,9.101410865783691,,,I,573232675055057,0
Raw,1727332476411,902262058000000,18,0.0,-1410465432353147899,-0.582982063293457,39.186477806651965,14.783416492872176,9.519665888412714,332,5,0.0,16399,369280289627497,35,32.0,2.074026584625244,4.632599830627441,16,0.0,0.0,1561097980,,,,0,0.0,5,-60.74,27.7,-1539.0804443359375,9.101410865783691,,,I,573232675055057,0
Raw,1727332476411,902262058000000,18,0.0,-1410465432353147899,-0.582982063293457,39.186477806651965,14.783416492872176,9.519665888412714,332,3,0.0,16399,369280288164459,16,38.6,5.895612716674805,1.6589000225067139,16,0.0,0.0,1561097980,,,,0,0.0,5,-60.74,34.300000000000004,-1539.0804443359375,9.101410865783691,,,I,573232675055057,0
Raw,1727332476411,902262058000000,18,0.0,-1410465432353147899,-0.582982063293457,39.186477806651965,14.783416492872176,9.519665888412714,332,2,0.0,16399,369280292017775,46,30.0,-3.3222835063934326,6.245699882507324,16,0.0,0.0,1561097980,,,,0,0.0,5,-60.74,25.7,-1539.0804443359375,9.101410865783691,,,I,573232675055057,0
Raw,1727332476411,902262058000000,18,0.0,-1410465432353147899,-0.582982063293457,39.186477806651965,14.783416492872176,9.519665888412714,332,4,0.0,23567,369294327604929,19,36.6,229.3961181640625,0.0685955286026001,16,0.0,0.0,1575420030,,,,0,0.0,6,-55.71,32.300000000000004,-1457.853271484375,9.631650924682617,,,C,573232675055057,0
Raw,1727332476411,902262058000000,18,0.0,-1410465432353147899,-0.582982063293457,39.186477806651965,14.783416492872176,9.519665888412714,332,6,0.0,23567,369294328739804,53,28.8,124.89324188232422,0.1550806760787964,16,0.0,0.0,1575420030,,,,0,0.0,6,-55.71,24.5,-1457.853271484375,9.631650924682617,,,C,573232675055057,0
Raw,1727332476411,902262058000000,18,0.0,-1410465432353147899,-0.582982063293457,39.186477806651965,14.783416492872176,9.519665888412714,332,9,0.0,23567,369294326186439,19,37.2,20.40488624572754,0.07309553027153015,16,0.0,0.0,1575420030,,,,0,0.0,6,-55.71,32.900000000000006,-1457.853271484375,9.631650924682617,,,C,573232675055057,0
Raw,1727332476411,902262058000000,18,0.0,-1410465432353147899,-0.582982063293457,39.186477806651965,14.783416492872176,9.519665888412714,332,10,0.0,23567,369294332627431,14,39.3,131.79344177246094,0.03501468524336815,16,0.0,0.0,1575420030,,,,0,0.0,6,-55.71,35.0,-1457.853271484375,9.631650924682617,,,C,573232675055057,0
Raw,1727332476411,902262058000000,18,0.0,-1410465432353147899,-0.582982063293457,39.186477806651965,14.783416492872176,9.519665888412714,332,11,0.0,23567,369294333196067,16,38.8,-156.13658142089844,0.06780868768692017,16,0.0,0.0,1575420030,,,,0,0.0,6,-55.71,34.5,-1457.853271484375,9.631650924682617,,,C,573232675055057,0
Raw,1727332476411,902262058000000,18,0.0,-1410465432353147899,-0.582982063293457,39.186477806651965,14.783416492872176,9.519665888412714,332,12,0.0,23567,369294329621815,35,31.5,356.4759216308594,0.0720522329211235,16,0.0,0.0,1575420030,,,,0,0.0,6,-55.71,27.2,-1457.853271484375,9.631650924682617,,,C,573232675055057,0
Raw,1727332476411,902262058000000,18,0.0,-1410465432353147899,-0.582982063293457,39.186477806651965,14.783416492872176,9.519665888412714,332,33,0.0,23567,369294316579530,80,25.9,565.5813598632812,1.2055000066757202,16,0.0,0.0,1575420030,,,,0,0.0,6,-55.71,21.599999999999998,-1457.853271484375,9.631650924682617,,,C,573232675055057,0
Raw,1727332476411,902262058000000,18,0.0,-1410465432353147899,-0.582982063293457,39.186477806651965,14.783416492872176,9.519665888412714,332,36,0.0,23567,369294319404961,24,34.3,-490.336669921875,0.07039003819227219,16,0.0,0.0,1575420030,,,,0,0.0,6,-55.71,29.999999999999996,-1457.853271484375,9.631650924682617,,,C,573232675055057,0
Raw,1727332476411,902262058000000,18,0.0,-1410465432353147899,-0.582982063293457,39.186477806651965,14.783416492872176,9.519665888412714,332,26,0.0,81935,369294333110494,23,23.9,-487.8428039550781,2.440999984741211,16,0.0,0.0,1176450050,,,,0,0.0,1,-40.56,18.9,39.60669708251953,3.9314303398132324,,,Q,573232675055057,0
Raw,1727332476411,902262058000000,18,0.0,-1410465432353147899,-0.582982063293457,39.186477806651965,14.783416492872176,9.519665888412714,332,27,0.0,81935,369294329969388,16,26.1,274.50079345703125,1.1049998998641968,16,0.0,0.0,1176450050,,,,0,0.0,1,-40.56,21.1,39.60669708251953,3.9314303398132324,,,Q,573232675055057,0
Raw,1727332476411,902262058000000,18,0.0,-1410465432353147899,-0.582982063293457,39.186477806651965,14.783416492872176,9.519665888412714,332,10,0.0,81935,369294332627398,9,32.2,131.8115997314453,0.04837201535701752,16,0.0,0.0,1176450050,,,,0,0.0,6,-40.56,26.900000000000002,-1436.2008056640625,85.57879638671875,,,Q,573232675055057,0
Raw,1727332476411,902262058000000,18,0.0,-1410465432353147899,-0.582982063293457,39.186477806651965,14.783416492872176,9.519665888412714,332,23,0.0,16399,369280331335795,6,38.4,-518.9351806640625,0.0971054881811142,16,0.0,0.0,1575420030,,,,0,0.0,5,-55.71,31.4,-1552.0557861328125,81.83271789550781,,,P,573232675055057,0
Raw,1727332476411,902262058000000,18,0.0,-1410465432353147899,-0.582982063293457,39.186477806651965,14.783416492872176,9.519665888412714,332,24,0.0,16399,369280328367907,11,31.9,375.9255065917969,0.18808066844940186,16,0.0,0.0,1575420030,,,,0,0.0,5,-55.71,24.9,-1552.0557861328125,81.83271789550781,,,P,573232675055057,0
Raw,1727332476411,902262058000000,18,0.0,-1410465432353147899,-0.582982063293457,39.186477806651965,14.783416492872176,9.519665888412714,332,25,0.0,16399,369280337283527,7,36.3,-90.02437591552734,0.09864597767591476,16,0.0,0.0,1575420030,,,,0,0.0,5,-55.71,29.299999999999997,-1552.0557861328125,81.83271789550781,,,P,573232675055057,0
Raw,1727332476411,902262058000000,18,0.0,-1410465432353147899,-0.582982063293457,39.186477806651965,14.783416492872176,9.519665888412714,332,27,0.0,16399,369280329903839,7,36.9,-87.76170349121094,0.08664597570896149,16,0.0,0.0,1575420030,,,,0,0.0,5,-55.71,29.9,-1552.0557861328125,81.83271789550781,,,P,573232675055057,0
Raw,1727332476411,902262058000000,18,0.0,-1410465432353147899,-0.582982063293457,39.186477806651965,14.783416492872176,9.519665888412714,332,28,0.0,16399,369280334039128,4,41.3,287.1168212890625,0.09330868721008301,16,0.0,0.0,1575420030,,,,0,0.0,5,-55.71,34.3,-1552.0557861328125,81.83271789550781,,,P,573232675055057,0
Raw,1727332476411,902262058000000,18,0.0,-1410465432353147899,-0.582982063293457,39.186477806651965,14.783416492872176,9.519665888412714,332,38,0.0,16399,369280285550732,8,34.8,-60.203975677490234,0.09905223548412323,16,0.0,0.0,1575420030,,,,0,0.0,5,-55.71,27.799999999999997,-1552.0557861328125,81.83271789550781,,,P,573232675055057,0
Raw,1727332476411,902262058000000,18,0.0,-1410465432353147899,-0.582982063293457,39.186477806651965,14.783416492872176,9.519665888412714,332,39,0.0,16399,369280286111003,10,32.3,159.25640869140625,0.1297432780265808,16,0.0,0.0,1575420030,,,,0,0.0,5,-55.71,25.299999999999997,-1552.0557861328125,81.83271789550781,,,P,573232675055057,0
Raw,1727332476411,902262058000000,18,0.0,-1410465432353147899,-0.582982063293457,39.186477806651965,14.783416492872176,9.519665888412714,332,41,0.0,16399,369280330150229,8,35.6,-125.24407196044922,0.029706381261348724,16,0.0,0.0,1575420030,,,,0,0.0,5,-55.71,28.6,-1552.0557861328125,81.83271789550781,,,P,573232675055057,0
Agc,1727332476411,902262058000000,18,0.0,-1410465432353147899,-0.582982063293457,39.186477806651965,14.783416492872176,9.519665888412714,332,-51.91,1575420000,1
Agc,1727332476411,902262058000000,18,0.0,-1410465432353147899,-0.582982063293457,39.186477806651965,14.783416492872176,9.519665888412714,332,-51.91,1575420000,4
Agc,1727332476411,902262058000000,18,0.0,-1410465432353147899,-0.582982063293457,39.186477806651965,14.783416492872176,9.519665888412714,332,-54.84,1602000000,3
Agc,1727332476411,902262058000000,18,0.0,-1410465432353147899,-0.582982063293457,39.186477806651965,14.783416492872176,9.519665888412714,332,-60.74,1561098000,5
Agc,1727332476411,902262058000000,18,0.0,-1410465432353147899,-0.582982063293457,39.186477806651965,14.783416492872176,9.519665888412714,332,-55.71,1575420000,6
Agc,1727332476411,902262058000000,18,0.0,-1410465432353147899,-0.582982063293457,39.186477806651965,14.783416492872176,9.519665888412714,332,-40.56,1176450000,1
Agc,1727332476411,902262058000000,18,0.0,-1410465432353147899,-0.582982063293457,39.186477806651965,14.783416492872176,9.519665888412714,332,-40.56,1176450000,4
Agc,1727332476411,902262058000000,18,0.0,-1410465432353147899,-0.582982063293457,39.186477806651965,14.783416492872176,9.519665888412714,332,-40.56,1176450000,6
Agc,1727332476411,902262058000000,18,0.0,-1410465432353147899,-0.582982063293457,39.186477806651965,14.783416492872176,9.519665888412714,332,-40.56,1176450000,5
Agc,1727332476411,902262058000000,18,0.0,-1410465432353147899,-0.582982063293457,39.186477806651965,14.783416492872176,9.519665888412714,332,-55.71,1575420000,5
Fix,FLP,12.9342599000,77.5435196000,805.8999633789062,1.3175492,28.549,44.554592,1727332475523,1.5,45.0,573231957000000,1.3205215,0,,,
Status,,68,0,1,8,1575420030,27.80,255.61516,10.265273,1,1,1,22.8
Status,,68,1,1,10,1575420030,29.00,54.195477,47.33607,1,1,1,24.0
Status,,68,2,1,18,1575420030,24.50,151.32527,4.7247458,0,1,1,19.5
Status,,68,3,1,21,1575420030,36.00,312.13058,27.952045,1,1,1,31.0
Status,,68,4,1,23,1575420030,31.00,98.647964,25.88796,1,1,1,26.0
Status,,68,5,1,25,1575420030,32.80,79.95104,15.398858,1,1,0,27.8
Status,,68,6,1,26,1575420030,21.70,172.65338,22.68366,1,1,1,16.7
Status,,68,7,1,27,1575420030,31.30,224.49223,16.947695,1,1,1,26.3
Status,,68,8,1,28,1575420030,37.20,41.180035,82.68198,1,1,1,32.2
Status,,68,9,1,31,1575420030,32.80,209.3386,55.90729,1,1,1,27.8
Status,,68,10,1,32,1575420030,32.00,11.751196,35.44962,1,1,1,27.0
Status,,68,11,4,194,1575420030,23.40,93.89395,9.91654,1,1,0,18.4
Status,,68,12,4,195,1575420030,21.70,137.34036,9.044027,1,1,1,16.7
Status,,68,13,4,196,1575420030,21.90,73.56633,28.793287,1,1,0,16.9
Status,,68,14,3,14,1598062460,33.90,159.4261,33.639614,1,1,0,28.9
Status,,68,15,3,18,1600312450,23.20,277.94943,47.750565,1,1,1,18.2
Status,,68,16,3,13,1600875010,30.00,79.5914,40.65536,0,1,0,25.0
Status,,68,17,3,12,1601437440,24.70,40.98467,10.91472,1,1,0,19.7
Status,,68,18,3,17,1604249980,34.10,204.2901,40.057392,1,1,1,29.1
Status,,68,19,3,3,1604812540,35.00,354.20145,24.983116,0,1,0,30.0
Status,,68,20,3,4,1605374980,24.10,305.39423,12.33021,1,1,0,19.1
Status,,68,21,5,60,1561097980,32.80,167.93391,75.89905,1,1,1,27.8
Status,,68,22,5,43,1561097980,27.20,169.71304,14.628105,1,1,1,22.2
Status,,68,23,5,41,1561097980,29.10,339.06308,32.31436,0,1,0,24.1
Status,,68,24,5,39,1561097980,33.40,29.73108,45.76391,0,1,0,28.4
Status,,68,25,5,38,1561097980,25.80,103.286026,39.75279,1,1,1,20.8
Status,,68,26,5,28,1561097980,29.30,233.67285,42.30288,1,1,1,24.3
Status,,68,27,5,27,1561097980,33.30,287.29123,26.476042,1,1,0,28.3
Status,,68,28,5,25,1561097980,30.60,104.23907,57.55362,1,1,1,25.6
Status,,68,29,5,24,1561097980,27.40,51.174953,19.995398,1,1,0,22.4
Status,,68,30,5,23,1561097980,34.30,184.02585,35.832176,1,1,1,29.3
Status,,68,31,5,14,1561097980,32.50,65.087456,18.87232,1,1,0,27.5
Status,,68,32,5,13,1561097980,36.80,65.49589,56.814594,1,1,1,31.8
Status,,68,33,5,9,1561097980,31.30,32.68249,76.17313,0,1,0,26.3
Status,,68,34,5,8,1561097980,23.70,86.25991,47.681057,1,1,0,18.7
Status,,68,35,5,7,1561097980,19.80,149.36836,13.883728,0,1,0,14.8
Status,,68,36,5,5,1561097980,27.70,241.22545,64.65522,1,1,1,22.7
Status,,68,37,5,3,1561097980,36.20,107.582085,49.451267,1,1,1,31.2
Status,,68,38,5,2,1561097980,25.70,147.2768,75.75578,1,1,0,20.7
Status,,68,39,6,4,1575420030,32.20,2.3265965,40.913788,1,1,1,27.2
Status,,68,40,6,6,1575420030,24.50,325.5665,45.62653,1,1,1,19.5
Status,,68,41,6,9,1575420030,35.30,294.6339,37.300583,1,1,1,30.3
Status,,68,42,6,10,1575420030,34.70,215.95465,76.93859,1,1,1,29.7
Status,,68,43,6,11,1575420030,33.70,304.53644,61.776848,0,1,0,28.7
Status,,68,44,6,12,1575420030,24.00,167.46901,56.468334,1,1,1,19.0
Status,,68,45,6,31,1575420030,21.10,150.76218,24.028345,1,1,0,16.1
Status,,68,46,6,33,1575420030,21.60,151.38011,4.8512034,0,1,1,16.6
Status,,68,47,6,36,1575420030,29.40,323.80026,13.942079,1,1,0,24.4
Status,,68,48,1,23,1176450050,18.10,98.647964,25.88796,1,1,1,13.1
Status,,68,49,1,26,1176450050,23.60,172.65338,22.68366,1,1,1,18.6
Status,,68,50,1,27,1176450050,20.70,224.49223,16.947695,1,1,1,15.7
Status,,68,51,1,28,1176450050,19.70,41.180035,82.68198,1,1,1,14.7
Status,,68,52,6,6,1176450050,18.20,325.5665,45.62653,0,1,1,13.2
Status,,68,53,6,9,1176450050,16.40,294.6339,37.300583,0,1,1,11.4
Status,,68,54,6,10,1176450050,28.30,215.95465,76.93859,1,1,1,23.3
Status,,68,55,5,27,1176450050,17.70,287.29123,26.476042,0,1,0,12.7
Status,,68,56,5,28,1176450050,19.20,233.67285,42.30288,1,1,1,14.2
Status,,68,57,5,38,1176450050,16.40,103.286026,39.75279,0,1,1,11.4
Status,,68,58,5,39,1176450050,19.40,29.73108,45.76391,0,1,0,14.4
