# 
# Header Description:
# 
# Version: v3.1.0.1 Platform: 11 Manufacturer: OnePlus Model: HD1901 GNSS Hardware Model Name: qcom;MPSS.HE.1.0.c11.1-00007-SM8150_GEN_PACK-2.387049.1.399262.2;
# 
# Raw,utcTimeMillis,TimeNanos,LeapSecond,TimeUncertaintyNanos,FullBiasNanos,BiasNanos,BiasUncertaintyNanos,DriftNanosPerSecond,DriftUncertaintyNanosPerSecond,HardwareClockDiscontinuityCount,Svid,TimeOffsetNanos,State,ReceivedSvTimeNanos,ReceivedSvTimeUncertaintyNanos,Cn0DbHz,PseudorangeRateMetersPerSecond,PseudorangeRateUncertaintyMetersPerSecond,AccumulatedDeltaRangeState,AccumulatedDeltaRangeMeters,AccumulatedDeltaRangeUncertaintyMeters,CarrierFrequencyHz,CarrierCycles,CarrierPhase,CarrierPhaseUncertainty,MultipathIndicator,SnrInDb,ConstellationType,AgcDb,BasebandCn0DbHz,FullInterSignalBiasNanos,FullInterSignalBiasUncertaintyNanos,SatelliteInterSignalBiasNanos,SatelliteInterSignalBiasUncertaintyNanos,CodeType,ChipsetElapsedRealtimeNanos,IsFullTracking
# 
# UncalAccel,utcTimeMillis,elapsedRealtimeNanos,UncalAccelXMps2,UncalAccelYMps2,UncalAccelZMps2,BiasXMps2,BiasYMps2,BiasZMps2
# 
# Accel,utcTimeMillis,elapsedRealtimeNanos,AccelXMps2,AccelYMps2,AccelZMps2
# 
# UncalGyro,utcTimeMillis,elapsedRealtimeNanos,UncalGyroXRadPerSec,UncalGyroYRadPerSec,UncalGyroZRadPerSec,DriftXRadPerSec,DriftYRadPerSec,DriftZRadPerSec
# 
# Gyro,utcTimeMillis,elapsedRealtimeNanos,GyroXRadPerSec,GyroYRadPerSec,GyroZRadPerSec
# 
# UncalMag,utcTimeMillis,elapsedRealtimeNanos,UncalMagXMicroT,UncalMagYMicroT,UncalMagZMicroT,BiasXMicroT,BiasYMicroT,BiasZMicroT
# 
# Mag,utcTimeMillis,elapsedRealtimeNanos,MagXMicroT,MagYMicroT,MagZMicroT
# 
# Pressure,utcTimeMillis,elapsedRealtimeNanos,PressureHpa
# 
# OrientationDeg,utcTimeMillis,elapsedRealtimeNanos,yawDeg,rollDeg,pitchDeg
# 
# Fix,Provider,LatitudeDegrees,LongitudeDegrees,AltitudeMeters,SpeedMps,AccuracyMeters,BearingDegrees,UnixTimeMillis,SpeedAccuracyMps,BearingAccuracyDegrees,elapsedRealtimeNanos,VerticalAccuracyMeters,MockLocation,NumberOfUsedSignals,VerticalSpeedAccuracyMps,SolutionType
# 
# Nav,Svid,Type,Status,MessageId,Sub-messageId,Data(Bytes)
# 
# Status,UnixTimeMillis,SignalCount,SignalIndex,ConstellationType,Svid,CarrierFrequencyHz,Cn0DbHz,AzimuthDegrees,ElevationDegrees,UsedInFix,HasAlmanacData,HasEphemerisData,BasebandCn0DbHz
# 
# Agc,utcTimeMillis,TimeNanos,LeapSecond,TimeUncertaintyNanos,FullBiasNanos,BiasNanos,BiasUncertaintyNanos,DriftNanosPerSecond,DriftUncertaintyNanosPerSecond,HardwareClockDiscontinuityCount,AgcDb,CarrierFrequencyHz,ConstellationType
# 
Status,,64,0,1,2,1575420030,22.60,309.0,21.0,0,1,0,22.6
Status,,64,1,1,10,1575420030,33.30,80.0,47.0,0,1,1,33.3
Status,,64,2,1,21,1575420030,25.10,296.0,35.0,0,1,0,25.1
Status,,64,3,1,23,1575420030,16.50,113.0,18.0,0,1,1,16.5
Status,,64,4,1,26,1575420030,21.00,160.0,33.0,0,1,1,21.0
Status,,64,5,1,28,1575420030,29.60,18.0,65.0,0,1,1,29.6
Status,,64,6,1,31,1575420030,26.90,232.0,71.0,1,1,1,26.9
Status,,64,7,1,32,1575420030,33.30,26.0,28.0,0,1,1,33.3
Status,,64,8,1,8,1575420030,0.00,240.0,7.0,0,1,0,0.0
Status,,64,9,1,16,1575420030,0.00,187.0,11.0,0,1,0,0.0
Status,,64,10,1,25,1575420030,0.00,63.0,12.0,0,1,0,0.0
Status,,64,11,1,27,1575420030,0.00,209.0,11.0,0,1,1,0.0
Status,,64,12,1,10,1176450050,30.00,80.0,47.0,1,1,1,30.0
Status,,64,13,1,23,1176450050,24.10,113.0,18.0,0,1,1,24.1
Status,,64,14,1,26,1176450050,23.90,160.0,33.0,0,1,1,23.9
Status,,64,15,1,28,1176450050,28.50,18.0,65.0,1,1,1,28.5
Status,,64,16,1,32,1176450050,24.80,26.0,28.0,1,1,1,24.8
Status,,64,17,3,14,1598062460,23.20,144.0,50.0,0,1,0,23.2
Status,,64,18,3,18,1600312450,27.60,248.0,42.0,1,1,1,27.6
Status,,64,19,3,13,1600875010,30.50,54.0,35.0,0,1,0,30.5
Status,,64,20,3,17,1604249980,19.30,192.0,23.0,1,1,0,19.3
Status,,64,21,3,3,1604812540,32.80,12.0,25.0,1,1,1,32.8
Status,,64,22,3,4,1605374980,22.20,322.0,14.0,0,1,0,22.2
Status,,64,23,3,2,1599750020,0.00,61.0,9.0,0,1,0,0.0
Status,,64,24,3,12,1601437440,0.00,0.0,0.0,0,1,0,0.0
Status,,64,25,3,15,1602000000,0.00,187.0,11.0,0,1,0,0.0
Status,,64,26,3,19,1603687550,0.00,300.0,27.0,0,1,0,0.0
Status,,64,27,5,28,1561097980,28.50,217.0,33.0,0,1,0,28.5
Status,,64,28,5,27,1561097980,18.60,270.0,26.0,0,1,0,18.6
Status,,64,29,5,25,1561097980,30.20,73.0,56.0,0,1,0,30.2
Status,,64,30,5,24,1561097980,21.60,42.0,10.0,0,1,0,21.6
Status,,64,31,5,23,1561097980,26.90,180.0,49.0,0,1,0,26.9
Status,,64,32,5,16,1561097980,28.10,23.0,49.0,0,1,0,28.1
Status,,64,33,5,14,1561097980,18.30,78.0,16.0,1,1,0,18.3
Status,,64,34,5,13,1561097980,24.30,80.0,61.0,1,1,0,24.3
Status,,64,35,5,9,1561097980,33.10,12.0,70.0,0,1,0,33.1
Status,,64,36,5,8,1561097980,25.70,99.0,50.0,0,1,0,25.7
Status,,64,37,5,6,1561097980,24.40,21.0,57.0,0,1,0,24.4
Status,,64,38,5,5,1561097980,27.10,240.0,63.0,1,1,0,27.1
Status,,64,39,5,3,1561097980,27.60,106.0,49.0,0,1,0,27.6
Status,,64,40,5,2,1561097980,26.30,147.0,75.0,0,1,0,26.3
Status,,64,41,5,1,1561097980,20.20,94.0,13.0,0,1,0,20.2
Status,,64,42,5,7,1561097980,0.00,144.0,15.0,0,1,0,0.0
Status,,64,43,4,194,1575420030,21.00,87.0,12.0,1,1,0,21.0
Status,,64,44,4,196,1575420030,28.50,78.0,29.0,0,1,0,28.5
Status,,64,45,4,195,1575420030,0.00,136.0,4.0,0,1,0,0.0
Status,,64,46,4,196,1176450050,25.20,78.0,29.0,1,1,0,25.2
Status,,64,47,6,4,1575420030,33.50,14.0,35.0,0,1,0,33.5
Status,,64,48,6,6,1575420030,17.10,341.0,41.0,0,1,1,17.1
Status,,64,49,6,9,1575420030,24.80,310.0,35.0,0,1,0,24.8
Status,,64,50,6,10,1575420030,23.20,196.0,61.0,0,1,0,23.2
Status,,64,51,6,11,1575420030,20.80,270.0,65.0,0,1,0,20.8
Status,,64,52,6,12,1575420030,16.50,170.0,41.0,0,1,0,16.5
Status,,64,53,6,36,1575420030,20.80,316.0,23.0,0,1,0,20.8
Status,,64,54,6,5,1575420030,0.00,265.0,5.0,0,1,0,0.0
Status,,64,55,6,24,1575420030,0.00,188.0,11.0,0,1,0,0.0
Status,,64,56,6,31,1575420030,0.00,139.0,32.0,0,1,0,0.0
Status,,64,57,6,4,1176450050,31.20,14.0,35.0,1,1,0,31.2
Status,,64,58,6,6,1176450050,31.20,341.0,41.0,0,1,1,31.2
Status,,64,59,6,9,1176450050,22.50,310.0,35.0,0,1,0,22.5
Status,,64,60,6,10,1176450050,33.20,196.0,61.0,1,1,0,33.2
Status,,64,61,6,11,1176450050,20.30,270.0,65.0,0,1,0,20.3
Status,,64,62,6,12,1176450050,21.60,170.0,41.0,0,1,0,21.6
Status,,64,63,6,31,1176450050,19.20,139.0,32.0,0,1,0,19.2
Raw,1727334655432,2807895056000000,18,,-1408561978376544201,0.1325855255126953,38.533707993337885,-5.274200169938874,14.55987158168012,209,2,0.0,16399,371473352478181,53,22.6,-412.35687255859375,1.0145000219345093,16,0.0,0.0,1575420030,,,,0,,1,1.96,19.0,0.0,0.0,,,C,,
Raw,1727334655432,2807895056000000,18,,-1408561978376544201,0.1325855255126953,38.533707993337885,-5.274200169938874,14.55987158168012,209,10,0.0,16399,371473361144166,16,33.3,26.24651336669922,0.02540000155568123,16,0.0,1902.9177342976868,1575420030,,,,0,,1,1.96,29.699999999999996,0.0,0.0,,,C,,
Raw,1727334655432,2807895056000000,18,,-1408561978376544201,0.1325855255126953,38.533707993337885,-5.274200169938874,14.55987158168012,209,26,0.0,16399,371473358123047,70,21.0,-489.9110412597656,1.1034998893737793,16,0.0,0.0,1575420030,,,,0,,1,1.96,17.4,0.0,0.0,,,C,,
Raw,1727334655432,2807895056000000,18,,-1408561978376544201,0.1325855255126953,38.533707993337885,-5.274200169938874,14.55987158168012,209,28,0.0,16399,371473363220701,21,29.6,310.6822814941406,0.031200001016259193,16,0.0,1902.9177342976868,1575420030,,,,0,,1,1.96,26.0,0.0,0.0,,,C,,
Raw,1727334655432,2807895056000000,18,,-1408561978376544201,0.1325855255126953,38.533707993337885,-5.274200169938874,14.55987158168012,209,31,0.0,16399,371473364990622,31,26.9,-186.82081604003906,0.7324999570846558,16,0.0,0.0,1575420030,,,,0,,1,1.96,23.299999999999997,0.0,0.0,,,C,,
Raw,1727334655432,2807895056000000,18,,-1408561978376544201,0.1325855255126953,38.533707993337885,-5.274200169938874,14.55987158168012,209,32,0.0,16399,371473355068787,16,33.3,205.59783935546875,0.046400003135204315,16,0.0,1902.9177342976868,1575420030,,,,0,,1,1.96,29.699999999999996,0.0,0.0,,,C,,
Raw,1727334655432,2807895056000000,18,,-1408561978376544201,0.1325855255126953,38.533707993337885,-5.274200169938874,14.55987158168012,209,194,0.0,16399,371473297454004,70,21.0,61.16038513183594,1.1019999980926514,16,0.0,0.0,1575420030,,,,0,,4,1.96,17.4,0.0,0.0,,,C,,
Raw,1727334655432,2807895056000000,18,,-1408561978376544201,0.1325855255126953,38.533707993337885,-5.274200169938874,14.55987158168012,209,196,0.0,16399,371473299383050,27,28.5,-256.25897216796875,0.6450000405311584,16,0.0,0.0,1575420030,,,,0,,4,1.96,24.9,0.0,0.0,,,C,,
Raw,1727334655432,2807895056000000,18,,-1408561978376544201,0.1325855255126953,38.533707993337885,-5.274200169938874,14.55987158168012,209,18,0.0,49359,36655363206810,31,27.6,317.7460632324219,0.8709999918937683,16,0.0,0.0,1600312450,,,,0,,3,-3.27,23.6,3832.62158203125,13.244091987609863,,,C,,
Raw,1727334655432,2807895056000000,18,,-1408561978376544201,0.1325855255126953,38.533707993337885,-5.274200169938874,14.55987158168012,209,13,0.0,49359,36655361650544,21,30.5,319.2506103515625,0.2282000035047531,16,0.0,1872.6600783192619,1600875010,,,,0,,3,-3.27,26.5,3832.62158203125,13.244091987609863,,,C,,
Raw,1727334655432,2807895056000000,18,,-1408561978376544201,0.1325855255126953,38.533707993337885,-5.274200169938874,14.55987158168012,209,3,0.0,49359,36655358792885,17,32.8,-66.26060485839844,0.25220000743865967,16,0.0,1868.0653569596157,1604812540,,,,0,,3,-3.27,28.799999999999997,3832.62158203125,13.244091987609863,,,C,,
Raw,1727334655432,2807895056000000,18,,-1408561978376544201,0.1325855255126953,38.533707993337885,-5.274200169938874,14.55987158168012,209,4,0.0,49359,36655355621435,61,22.2,-161.0751190185547,1.9690001010894775,16,0.0,0.0,1605374980,,,,0,,3,-3.27,18.2,3832.62158203125,13.244091987609863,,,C,,
Raw,1727334655432,2807895056000000,18,,-1408561978376544201,0.1325855255126953,38.533707993337885,-5.274200169938874,14.55987158168012,209,28,0.0,16399,371459353033361,27,28.5,363.4635314941406,0.6360000371932983,16,0.0,0.0,1561097980,,,,0,,5,0.21,24.2,-1501.613037109375,13.835973739624023,,,I,,
Raw,1727334655432,2807895056000000,18,,-1408561978376544201,0.1325855255126953,38.533707993337885,-5.274200169938874,14.55987158168012,209,25,0.0,16399,371459358603895,24,30.2,116.4816665649414,0.07530000060796738,16,0.0,1920.3757538518662,1561097980,,,,0,,5,0.21,25.9,-1501.613037109375,13.835973739624023,,,I,,
Raw,1727334655432,2807895056000000,18,,-1408561978376544201,0.1325855255126953,38.533707993337885,-5.274200169938874,14.55987158168012,209,23,0.0,16399,371459356226586,35,26.9,-426.8653869628906,0.750499963760376,16,0.0,0.0,1561097980,,,,0,,5,0.21,22.599999999999998,-1501.613037109375,13.835973739624023,,,I,,
Raw,1727334655432,2807895056000000,18,,-1408561978376544201,0.1325855255126953,38.533707993337885,-5.274200169938874,14.55987158168012,209,16,0.0,16399,371459306715381,31,28.1,157.98129272460938,0.6255000233650208,16,0.0,0.0,1561097980,,,,0,,5,0.21,23.8,-1501.613037109375,13.835973739624023,,,I,,
Raw,1727334655432,2807895056000000,18,,-1408561978376544201,0.1325855255126953,38.533707993337885,-5.274200169938874,14.55987158168012,209,13,0.0,16399,371459311935292,46,24.3,-116.32791900634766,0.8629999756813049,16,0.0,0.0,1561097980,,,,0,,5,0.21,20.0,-1501.613037109375,13.835973739624023,,,I,,
Raw,1727334655432,2807895056000000,18,,-1408561978376544201,0.1325855255126953,38.533707993337885,-5.274200169938874,14.55987158168012,209,9,0.0,16399,371459309936901,17,33.1,110.93548583984375,0.038700003176927567,16,0.0,1920.3757538518662,1561097980,,,,0,,5,0.21,28.8,-1501.613037109375,13.835973739624023,,,I,,
Raw,1727334655432,2807895056000000,18,,-1408561978376544201,0.1325855255126953,38.533707993337885,-5.274200169938874,14.55987158168012,209,6,0.0,16399,371459310068785,46,24.4,136.2232208251953,0.8614999651908875,16,0.0,0.0,1561097980,,,,0,,5,0.21,20.099999999999998,-1501.613037109375,13.835973739624023,,,I,,
Raw,1727334655432,2807895056000000,18,,-1408561978376544201,0.1325855255126953,38.533707993337885,-5.274200169938874,14.55987158168012,209,4,0.0,23567,371473347503656,16,33.5,182.00961303710938,0.06140000373125076,16,0.0,1902.9177342976868,1575420030,,,,0,,6,1.58,29.2,-722.0154418945312,12.11817455291748,,,C,,
Raw,1727334655432,2807895056000000,18,,-1408561978376544201,0.1325855255126953,38.533707993337885,-5.274200169938874,14.55987158168012,209,9,0.0,23567,371473347376805,46,24.8,32.502159118652344,0.8899999856948853,16,0.0,0.0,1575420030,,,,0,,6,1.58,20.5,-722.0154418945312,12.11817455291748,,,C,,
Raw,1727334655432,2807895056000000,18,,-1408561978376544201,0.1325855255126953,38.533707993337885,-5.274200169938874,14.55987158168012,209,10,0.0,23567,371473352437248,61,23.2,301.8723449707031,0.9555000066757202,16,0.0,0.0,1575420030,,,,0,,6,1.58,18.9,-722.0154418945312,12.11817455291748,,,C,,
Raw,1727334655432,2807895056000000,18,,-1408561978376544201,0.1325855255126953,38.533707993337885,-5.274200169938874,14.55987158168012,209,36,0.0,23567,371473344059808,80,20.8,-393.57489013671875,1.9255000352859497,16,0.0,0.0,1575420030,,,,0,,6,1.58,16.5,-722.0154418945312,12.11817455291748,,,C,,
Raw,1727334655432,2807895056000000,18,,-1408561978376544201,0.1325855255126953,38.533707993337885,-5.274200169938874,14.55987158168012,209,10,0.0,81935,371473361151968,6,30.0,26.22292137145996,0.07100000232458115,16,0.0,2548.2550006752426,1176450050,,,,0,,1,-1.6,25.1,-7860.00048828125,100.0,,,Q,,
Raw,1727334655432,2807895056000000,18,,-1408561978376544201,0.1325855255126953,38.533707993337885,-5.274200169938874,14.55987158168012,209,23,0.0,81935,371473353849096,11,24.1,383.4167785644531,0.15439999103546143,16,0.0,2548.2550006752426,1176450050,,,,0,,1,-1.6,19.200000000000003,-7860.00048828125,100.0,,,Q,,
Raw,1727334655432,2807895056000000,18,,-1408561978376544201,0.1325855255126953,38.533707993337885,-5.274200169938874,14.55987158168012,209,28,0.0,81935,371473363228469,8,28.5,310.706787109375,0.02370000071823597,16,0.0,2548.2550006752426,1176450050,,,,0,,1,-1.6,23.6,-7860.00048828125,100.0,,,Q,,
Raw,1727334655432,2807895056000000,18,,-1408561978376544201,0.1325855255126953,38.533707993337885,-5.274200169938874,14.55987158168012,209,32,0.0,81935,371473355076524,11,24.8,205.64971923828125,0.1573999971151352,16,0.0,2548.2550006752426,1176450050,,,,0,,1,-1.6,19.9,-7860.00048828125,100.0,,,Q,,
Raw,1727334655432,2807895056000000,18,,-1408561978376544201,0.1325855255126953,38.533707993337885,-5.274200169938874,14.55987158168012,209,196,0.0,16399,371473299390794,10,25.2,-256.2256774902344,0.11920000612735748,16,0.0,2548.2550006752426,1176450050,,,,0,,4,,20.299999999999997,-7860.00048828125,100.0,,,Q,,
Raw,1727334655432,2807895056000000,18,,-1408561978376544201,0.1325855255126953,38.533707993337885,-5.274200169938874,14.55987158168012,209,4,0.0,81935,371473347510695,6,31.2,182.04344177246094,0.05590000003576279,16,0.0,2548.2550006752426,1176450050,,,,0,,6,-1.6,25.9,-7824.0,179.63531494140625,,,Q,,
Raw,1727334655432,2807895056000000,18,,-1408561978376544201,0.1325855255126953,38.533707993337885,-5.274200169938874,14.55987158168012,209,6,0.0,81935,371473349278545,6,31.2,110.32659912109375,0.08300000429153442,16,0.0,2548.2550006752426,1176450050,,,,0,,6,-1.6,25.9,-7824.0,179.63531494140625,,,Q,,
Raw,1727334655432,2807895056000000,18,,-1408561978376544201,0.1325855255126953,38.533707993337885,-5.274200169938874,14.55987158168012,209,9,0.0,81935,371473347383835,14,22.5,32.40138626098633,1.0220000743865967,16,0.0,0.0,1176450050,,,,0,,6,-1.6,17.2,-7824.0,179.63531494140625,,,Q,,
Raw,1727334655432,2807895056000000,18,,-1408561978376544201,0.1325855255126953,38.533707993337885,-5.274200169938874,14.55987158168012,209,10,0.0,81935,371473352444290,5,33.2,302.1329040527344,0.039000000804662704,16,0.0,2548.2550006752426,1176450050,,,,0,,6,-1.6,27.900000000000002,-7824.0,179.63531494140625,,,Q,,
Raw,1727334655432,2807895056000000,18,,-1408561978376544201,0.1325855255126953,38.533707993337885,-5.274200169938874,14.55987158168012,209,31,0.0,81935,371473346945500,23,19.2,-344.0306091308594,1.9704999923706055,16,0.0,0.0,1176450050,,,,0,,6,-1.6,13.899999999999999,-7824.0,179.63531494140625,,,Q,,
Raw,1727334655432,2807895056000000,18,,-1408561978376544201,0.1325855255126953,38.533707993337885,-5.274200169938874,14.55987158168012,209,36,0.0,81935,371473344066840,7,29.4,-393.2298889160156,0.023099999874830246,16,0.0,2548.2550006752426,1176450050,,,,0,,6,-1.6,24.099999999999998,-7824.0,179.63531494140625,,,Q,,
Status,,64,0,1,2,1575420030,22.60,309.0,21.0,0,1,0,22.6
Status,,64,1,1,10,1575420030,33.10,80.0,47.0,0,1,1,33.1
Status,,64,2,1,21,1575420030,20.10,296.0,35.0,0,1,0,20.1
Status,,64,3,1,23,1575420030,16.50,113.0,18.0,0,1,1,16.5
Status,,64,4,1,26,1575420030,23.60,160.0,33.0,0,1,1,23.6
Status,,64,5,1,28,1575420030,33.70,18.0,65.0,0,1,1,33.7
Status,,64,6,1,31,1575420030,27.50,232.0,71.0,1,1,1,27.5
Status,,64,7,1,32,1575420030,32.40,26.0,28.0,0,1,1,32.4
Status,,64,8,1,8,1575420030,0.00,240.0,7.0,0,1,0,0.0
Status,,64,9,1,16,1575420030,0.00,187.0,11.0,0,1,0,0.0
Status,,64,10,1,25,1575420030,0.00,63.0,12.0,0,1,0,0.0
Status,,64,11,1,27,1575420030,0.00,209.0,11.0,0,1,1,0.0
Status,,64,12,1,10,1176450050,31.80,80.0,47.0,1,1,1,31.8
Status,,64,13,1,23,1176450050,25.20,113.0,18.0,0,1,1,25.2
Status,,64,14,1,26,1176450050,17.70,160.0,33.0,0,1,1,17.7
Status,,64,15,1,28,1176450050,25.00,18.0,65.0,1,1,1,25.0
Status,,64,16,1,32,1176450050,23.20,26.0,28.0,1,1,1,23.2
Status,,64,17,3,14,1598062460,19.10,144.0,50.0,0,1,0,19.1
Status,,64,18,3,18,1600312450,28.70,248.0,42.0,1,1,1,28.7
Status,,64,19,3,13,1600875010,29.00,54.0,35.0,0,1,0,29.0
Status,,64,20,3,17,1604249980,18.30,192.0,23.0,1,1,0,18.3
Status,,64,21,3,3,1604812540,33.10,12.0,25.0,1,1,1,33.1
Status,,64,22,3,4,1605374980,22.20,322.0,14.0,0,1,0,22.2
Status,,64,23,3,2,1599750020,0.00,61.0,9.0,0,1,0,0.0
Status,,64,24,3,12,1601437440,0.00,0.0,0.0,0,1,0,0.0
Status,,64,25,3,15,1602000000,0.00,187.0,11.0,0,1,0,0.0
Status,,64,26,3,19,1603687550,0.00,300.0,27.0,0,1,0,0.0
Status,,64,27,5,28,1561097980,28.70,217.0,33.0,0,1,0,28.7
Status,,64,28,5,27,1561097980,21.30,270.0,26.0,0,1,0,21.3
Status,,64,29,5,25,1561097980,25.80,73.0,56.0,0,1,0,25.8
Status,,64,30,5,24,1561097980,21.60,42.0,10.0,0,1,0,21.6
Status,,64,31,5,23,1561097980,27.60,180.0,49.0,0,1,0,27.6
Status,,64,32,5,16,1561097980,26.80,23.0,49.0,0,1,0,26.8
Status,,64,33,5,14,1561097980,18.30,78.0,16.0,1,1,0,18.3
Status,,64,34,5,13,1561097980,23.90,80.0,61.0,1,1,0,23.9
Status,,64,35,5,9,1561097980,31.90,12.0,70.0,0,1,0,31.9
Status,,64,36,5,8,1561097980,25.70,99.0,50.0,0,1,0,25.7
Status,,64,37,5,6,1561097980,23.80,21.0,57.0,0,1,0,23.8
Status,,64,38,5,5,1561097980,27.10,240.0,63.0,1,1,0,27.1
Status,,64,39,5,3,1561097980,27.60,106.0,49.0,0,1,0,27.6
Status,,64,40,5,2,1561097980,26.30,147.0,75.0,0,1,0,26.3
Status,,64,41,5,1,1561097980,20.20,94.0,13.0,0,1,0,20.2
Status,,64,42,5,7,1561097980,0.00,144.0,15.0,0,1,0,0.0
Status,,64,43,4,194,1575420030,21.00,87.0,12.0,1,1,0,21.0
Status,,64,44,4,196,1575420030,27.70,78.0,29.0,0,1,0,27.7
Status,,64,45,4,195,1575420030,0.00,136.0,4.0,0,1,0,0.0
Status,,64,46,4,196,1176450050,25.70,78.0,29.0,1,1,0,25.7
Status,,64,47,6,4,1575420030,35.10,14.0,35.0,0,1,0,35.1
Status,,64,48,6,6,1575420030,17.10,341.0,41.0,0,1,1,17.1
Status,,64,49,6,9,1575420030,23.40,310.0,35.0,0,1,0,23.4
Status,,64,50,6,10,1575420030,23.00,196.0,61.0,0,1,0,23.0
Status,,64,51,6,11,1575420030,18.60,270.0,65.0,0,1,0,18.6
Status,,64,52,6,12,1575420030,16.50,170.0,41.0,0,1,0,16.5
Status,,64,53,6,36,1575420030,20.90,316.0,23.0,0,1,0,20.9
Status,,64,54,6,5,1575420030,0.00,265.0,5.0,0,1,0,0.0
Status,,64,55,6,24,1575420030,0.00,188.0,11.0,0,1,0,0.0
Status,,64,56,6,31,1575420030,0.00,139.0,32.0,0,1,0,0.0
Status,,64,57,6,4,1176450050,31.30,14.0,35.0,1,1,0,31.3
Status,,64,58,6,6,1176450050,31.20,341.0,41.0,0,1,1,31.2
Status,,64,59,6,9,1176450050,26.50,310.0,35.0,0,1,0,26.5
Status,,64,60,6,10,1176450050,33.30,196.0,61.0,1,1,0,33.3
Status,,64,61,6,11,1176450050,20.30,270.0,65.0,0,1,0,20.3
Status,,64,62,6,12,1176450050,19.90,170.0,41.0,0,1,0,19.9
Status,,64,63,6,31,1176450050,19.20,139.0,32.0,0,1,0,19.2
Raw,1727334656432,2807896056000000,18,,-1408561978376544204,0.5099811553955078,36.98368891491555,-4.133654691857168,13.01300425947743,209,10,0.0,16399,371474361144070,16,33.1,26.889854431152344,0.02540000155568123,16,0.0,1902.9177342976868,1575420030,,,,0,,1,1.96,29.5,0.0,0.0,,,C,,
Raw,1727334656432,2807896056000000,18,,-1408561978376544204,0.5099811553955078,36.98368891491555,-4.133654691857168,13.01300425947743,209,21,0.0,16399,371474356171349,80,20.1,-226.9727783203125,2.690500259399414,16,0.0,0.0,1575420030,,,,0,,1,1.96,16.5,0.0,0.0,,,C,,
Raw,1727334656432,2807896056000000,18,,-1408561978376544204,0.5099811553955078,36.98368891491555,-4.133654691857168,13.01300425947743,209,26,0.0,16399,371474358124790,46,23.6,-489.20697021484375,0.9434999823570251,16,0.0,0.0,1575420030,,,,0,,1,1.96,20.0,0.0,0.0,,,C,,
Raw,1727334656432,2807896056000000,18,,-1408561978376544204,0.5099811553955078,36.98368891491555,-4.133654691857168,13.01300425947743,209,28,0.0,16399,371474363219678,14,33.7,311.32537841796875,0.027400000020861626,16,0.0,1902.9177342976868,1575420030,,,,0,,1,1.96,30.1,0.0,0.0,,,C,,
Raw,1727334656432,2807896056000000,18,,-1408561978376544204,0.5099811553955078,36.98368891491555,-4.133654691857168,13.01300425947743,209,31,0.0,16399,371474364991299,31,27.5,-186.2118682861328,0.67249995470047,16,0.0,0.0,1575420030,,,,0,,1,1.96,23.9,0.0,0.0,,,C,,
Raw,1727334656432,2807896056000000,18,,-1408561978376544204,0.5099811553955078,36.98368891491555,-4.133654691857168,13.01300425947743,209,32,0.0,16399,371474355068111,17,32.4,206.1624298095703,0.047700002789497375,16,0.0,1902.9177342976868,1575420030,,,,0,,1,1.96,28.799999999999997,0.0,0.0,,,C,,
Raw,1727334656432,2807896056000000,18,,-1408561978376544204,0.5099811553955078,36.98368891491555,-4.133654691857168,13.01300425947743,209,196,0.0,16399,371474299383929,27,27.7,-255.45022583007812,0.6949999928474426,16,0.0,0.0,1575420030,,,,0,,4,1.96,24.099999999999998,0.0,0.0,,,C,,
Raw,1727334656432,2807896056000000,18,,-1408561978376544204,0.5099811553955078,36.98368891491555,-4.133654691857168,13.01300425947743,209,14,0.0,49359,36656365160293,92,19.1,-454.7925109863281,2.2139999866485596,16,0.0,0.0,1598062460,,,,0,,3,-3.24,15.100000000000001,3832.62744140625,13.269939422607422,,,C,,
Raw,1727334656432,2807896056000000,18,,-1408561978376544204,0.5099811553955078,36.98368891491555,-4.133654691857168,13.01300425947743,209,18,0.0,49359,36656363205788,27,28.7,318.1207275390625,0.8210000395774841,16,0.0,0.0,1600312450,,,,0,,3,-3.24,24.7,3832.62744140625,13.269939422607422,,,C,,
Raw,1727334656432,2807896056000000,18,,-1408561978376544204,0.5099811553955078,36.98368891491555,-4.133654691857168,13.01300425947743,209,13,0.0,49359,36656361649458,24,29.0,319.9228210449219,0.23480001091957092,16,0.0,1872.6600783192619,1600875010,,,,0,,3,-3.24,25.0,3832.62744140625,13.269939422607422,,,C,,
Raw,1727334656432,2807896056000000,18,,-1408561978376544204,0.5099811553955078,36.98368891491555,-4.133654691857168,13.01300425947743,209,17,0.0,49359,36656358166647,106,18.3,687.9389038085938,3.8335001468658447,16,0.0,0.0,1604249980,,,,0,,3,-3.24,14.3,3832.62744140625,13.269939422607422,,,C,,
Raw,1727334656432,2807896056000000,18,,-1408561978376544204,0.5099811553955078,36.98368891491555,-4.133654691857168,13.01300425947743,209,3,0.0,49359,36656358793101,16,33.1,-65.6935043334961,0.250900000333786,16,0.0,1868.0653569596157,1604812540,,,,0,,3,-3.24,29.1,3832.62744140625,13.269939422607422,,,C,,
Raw,1727334656432,2807896056000000,18,,-1408561978376544204,0.5099811553955078,36.98368891491555,-4.133654691857168,13.01300425947743,209,28,0.0,16399,371460353032141,27,28.7,364.2989196777344,0.6360000371932983,16,0.0,0.0,1561097980,,,,0,,5,0.21,24.4,-1501.6102294921875,13.861456871032715,,,I,,
Raw,1727334656432,2807896056000000,18,,-1408561978376544204,0.5099811553955078,36.98368891491555,-4.133654691857168,13.01300425947743,209,27,0.0,16399,371460351335304,70,21.3,76.31649017333984,1.8429999351501465,16,0.0,0.0,1561097980,,,,0,,5,0.21,17.0,-1501.6102294921875,13.861456871032715,,,I,,
Raw,1727334656432,2807896056000000,18,,-1408561978376544204,0.5099811553955078,36.98368891491555,-4.133654691857168,13.01300425947743,209,25,0.0,16399,371460358603531,40,25.8,116.85603332519531,0.828499972820282,16,0.0,0.0,1561097980,,,,0,,5,0.21,21.5,-1501.6102294921875,13.861456871032715,,,I,,
Raw,1727334656432,2807896056000000,18,,-1408561978376544204,0.5099811553955078,36.98368891491555,-4.133654691857168,13.01300425947743,209,23,0.0,16399,371460356227984,31,27.6,-425.28106689453125,0.6904999613761902,16,0.0,0.0,1561097980,,,,0,,5,0.21,23.3,-1501.6102294921875,13.861456871032715,,,I,,
Raw,1727334656432,2807896056000000,18,,-1408561978376544204,0.5099811553955078,36.98368891491555,-4.133654691857168,13.01300425947743,209,16,0.0,16399,371460306714835,35,26.8,158.3845672607422,0.7354999780654907,16,0.0,0.0,1561097980,,,,0,,5,0.21,22.5,-1501.6102294921875,13.861456871032715,,,I,,
Raw,1727334656432,2807896056000000,18,,-1408561978376544204,0.5099811553955078,36.98368891491555,-4.133654691857168,13.01300425947743,209,13,0.0,16399,371460311935619,53,23.9,-116.32791900634766,0.9329999685287476,16,0.0,0.0,1561097980,,,,0,,5,0.21,19.599999999999998,-1501.6102294921875,13.861456871032715,,,I,,
Raw,1727334656432,2807896056000000,18,,-1408561978376544204,0.5099811553955078,36.98368891491555,-4.133654691857168,13.01300425947743,209,9,0.0,16399,371460309936538,19,31.9,111.52404022216797,0.03930000215768814,16,0.0,1920.3757538518662,1561097980,,,,0,,5,0.21,27.599999999999998,-1501.6102294921875,13.861456871032715,,,I,,
Raw,1727334656432,2807896056000000,18,,-1408561978376544204,0.5099811553955078,36.98368891491555,-4.133654691857168,13.01300425947743,209,6,0.0,16399,371460310068315,53,23.8,135.03257751464844,0.9314999580383301,16,0.0,0.0,1561097980,,,,0,,5,0.21,19.5,-1501.6102294921875,13.861456871032715,,,I,,
Raw,1727334656432,2807896056000000,18,,-1408561978376544204,0.5099811553955078,36.98368891491555,-4.133654691857168,13.01300425947743,209,4,0.0,23567,371474347503047,14,35.1,182.5963897705078,0.06040000170469284,16,0.0,1902.9177342976868,1575420030,,,,0,,6,1.65,30.8,-722.018798828125,12.146400451660156,,,C,,
Raw,1727334656432,2807896056000000,18,,-1408561978376544204,0.5099811553955078,36.98368891491555,-4.133654691857168,13.01300425947743,209,9,0.0,23567,371474347376721,53,23.4,32.87322998046875,0.9599999785423279,16,0.0,0.0,1575420030,,,,0,,6,1.65,19.099999999999998,-722.018798828125,12.146400451660156,,,C,,
Raw,1727334656432,2807896056000000,18,,-1408561978376544204,0.5099811553955078,36.98368891491555,-4.133654691857168,13.01300425947743,209,10,0.0,23567,371474352436265,61,23.0,302.95703125,0.9555000066757202,16,0.0,0.0,1575420030,,,,0,,6,1.65,18.7,-722.018798828125,12.146400451660156,,,C,,
Raw,1727334656432,2807896056000000,18,,-1408561978376544204,0.5099811553955078,36.98368891491555,-4.133654691857168,13.01300425947743,209,11,0.0,23567,371474355069139,106,18.6,30.047372817993164,2.1500000953674316,16,0.0,0.0,1575420030,,,,0,,6,1.65,14.3,-722.018798828125,12.146400451660156,,,C,,
Raw,1727334656432,2807896056000000,18,,-1408561978376544204,0.5099811553955078,36.98368891491555,-4.133654691857168,13.01300425947743,209,36,0.0,23567,371474344061177,80,20.9,-392.6995544433594,1.2055000066757202,16,0.0,0.0,1575420030,,,,0,,6,1.65,16.599999999999998,-722.018798828125,12.146400451660156,,,C,,
Raw,1727334656432,2807896056000000,18,,-1408561978376544204,0.5099811553955078,36.98368891491555,-4.133654691857168,13.01300425947743,209,10,0.0,81935,371474361151871,6,31.8,26.91200065612793,0.05860000103712082,16,0.0,2548.2550006752426,1176450050,,,,0,,1,-1.7,26.9,-7860.00048828125,100.0,,,Q,,
Raw,1727334656432,2807896056000000,18,,-1408561978376544204,0.5099811553955078,36.98368891491555,-4.133654691857168,13.01300425947743,209,23,0.0,81935,371474353847813,10,25.2,384.0489196777344,0.08020000159740448,16,0.0,2548.2550006752426,1176450050,,,,0,,1,-1.7,20.299999999999997,-7860.00048828125,100.0,,,Q,,
Raw,1727334656432,2807896056000000,18,,-1408561978376544204,0.5099811553955078,36.98368891491555,-4.133654691857168,13.01300425947743,209,26,0.0,81935,371474358132554,27,17.7,-489.1678771972656,2.9885001182556152,16,0.0,0.0,1176450050,,,,0,,1,-1.7,12.799999999999999,-7860.00048828125,100.0,,,Q,,
Raw,1727334656432,2807896056000000,18,,-1408561978376544204,0.5099811553955078,36.98368891491555,-4.133654691857168,13.01300425947743,209,28,0.0,81935,371474363227437,10,25.0,311.3604736328125,0.06520000100135803,16,0.0,2548.2550006752426,1176450050,,,,0,,1,-1.7,20.1,-7860.00048828125,100.0,,,Q,,
Raw,1727334656432,2807896056000000,18,,-1408561978376544204,0.5099811553955078,36.98368891491555,-4.133654691857168,13.01300425947743,209,32,0.0,81935,371474355075816,12,23.2,205.9520263671875,0.9239999651908875,16,0.0,0.0,1176450050,,,,0,,1,-1.7,18.299999999999997,-7860.00048828125,100.0,,,Q,,
Raw,1727334656432,2807896056000000,18,,-1408561978376544204,0.5099811553955078,36.98368891491555,-4.133654691857168,13.01300425947743,209,196,0.0,16399,371474299391654,10,25.7,-255.55694580078125,0.11920000612735748,16,0.0,2548.2550006752426,1176450050,,,,0,,4,,20.799999999999997,-7860.00048828125,100.0,,,Q,,
Raw,1727334656432,2807896056000000,18,,-1408561978376544204,0.5099811553955078,36.98368891491555,-4.133654691857168,13.01300425947743,209,4,0.0,81935,371474347510078,6,31.3,182.78701782226562,0.06760000437498093,16,0.0,2548.2550006752426,1176450050,,,,0,,6,-1.7,26.0,-7824.0,176.54701232910156,,,Q,,
Raw,1727334656432,2807896056000000,18,,-1408561978376544204,0.5099811553955078,36.98368891491555,-4.133654691857168,13.01300425947743,209,6,0.0,81935,371474349278180,6,31.2,110.8912582397461,0.08300000429153442,16,0.0,2548.2550006752426,1176450050,,,,0,,6,-1.7,25.9,-7824.0,176.54701232910156,,,Q,,
Raw,1727334656432,2807896056000000,18,,-1408561978376544204,0.5099811553955078,36.98368891491555,-4.133654691857168,13.01300425947743,209,9,0.0,81935,371474347383732,9,26.5,32.8345947265625,0.7519999742507935,16,0.0,0.0,1176450050,,,,0,,6,-1.7,21.2,-7824.0,176.54701232910156,,,Q,,
Raw,1727334656432,2807896056000000,18,,-1408561978376544204,0.5099811553955078,36.98368891491555,-4.133654691857168,13.01300425947743,209,10,0.0,81935,371474352443281,5,33.3,302.8023681640625,0.03610000014305115,16,0.0,2548.2550006752426,1176450050,,,,0,,6,-1.7,27.999999999999996,-7824.0,176.54701232910156,,,Q,,
Raw,1727334656432,2807896056000000,18,,-1408561978376544204,0.5099811553955078,36.98368891491555,-4.133654691857168,13.01300425947743,209,12,0.0,81935,371474347992349,20,19.9,471.304443359375,2.0320000648498535,16,0.0,0.0,1176450050,,,,0,,6,-1.7,14.599999999999998,-7824.0,176.54701232910156,,,Q,,
Raw,1727334656432,2807896056000000,18,,-1408561978376544204,0.5099811553955078,36.98368891491555,-4.133654691857168,13.01300425947743,209,36,0.0,81935,371474344068151,8,27.6,-392.6136474609375,0.027699999511241913,16,0.0,2548.2550006752426,1176450050,,,,0,,6,-1.7,22.3,-7824.0,176.54701232910156,,,Q,,
Status,,64,0,1,2,1575420030,21.30,309.0,21.0,0,1,0,21.3
Status,,64,1,1,10,1575420030,35.30,80.0,47.0,0,1,1,35.3
Status,,64,2,1,21,1575420030,26.90,296.0,35.0,0,1,0,26.9
Status,,64,3,1,23,1575420030,16.50,113.0,18.0,0,1,1,16.5
Status,,64,4,1,26,1575420030,23.00,160.0,33.0,0,1,1,23.0
Status,,64,5,1,28,1575420030,35.70,18.0,65.0,0,1,1,35.7
Status,,64,6,1,31,1575420030,30.50,232.0,71.0,1,1,1,30.5
Status,,64,7,1,32,1575420030,34.00,26.0,28.0,1,1,1,34.0
Status,,64,8,1,8,1575420030,0.00,240.0,7.0,0,1,0,0.0
Status,,64,9,1,16,1575420030,0.00,187.0,11.0,0,1,0,0.0
Status,,64,10,1,25,1575420030,0.00,63.0,12.0,0,1,0,0.0
Status,,64,11,1,27,1575420030,0.00,209.0,11.0,0,1,1,0.0
Status,,64,12,1,10,1176450050,32.00,80.0,47.0,1,1,1,32.0
Status,,64,13,1,23,1176450050,26.40,113.0,18.0,0,1,1,26.4
Status,,64,14,1,26,1176450050,22.70,160.0,33.0,0,1,1,22.7
Status,,64,15,1,28,1176450050,21.70,18.0,65.0,1,1,1,21.7
Status,,64,16,1,32,1176450050,21.20,26.0,28.0,0,1,1,21.2
Status,,64,17,3,14,1598062460,22.20,144.0,50.0,0,1,0,22.2
Status,,64,18,3,18,1600312450,31.30,248.0,42.0,1,1,1,31.3
Status,,64,19,3,13,1600875010,29.20,54.0,35.0,0,1,0,29.2
Status,,64,20,3,17,1604249980,18.30,192.0,23.0,1,1,0,18.3
Status,,64,21,3,3,1604812540,31.70,12.0,25.0,1,1,1,31.7
Status,,64,22,3,4,1605374980,19.80,322.0,14.0,0,1,0,19.8
Status,,64,23,3,2,1599750020,0.00,61.0,9.0,0,1,0,0.0
Status,,64,24,3,12,1601437440,0.00,0.0,0.0,0,1,0,0.0
Status,,64,25,3,15,1602000000,0.00,187.0,11.0,0,1,0,0.0
Status,,64,26,3,19,1603687550,0.00,300.0,27.0,0,1,0,0.0
Status,,64,27,5,28,1561097980,30.60,217.0,33.0,0,1,0,30.6
Status,,64,28,5,27,1561097980,23.40,270.0,26.0,0,1,0,23.4
Status,,64,29,5,25,1561097980,26.90,73.0,56.0,0,1,0,26.9
Status,,64,30,5,24,1561097980,21.60,42.0,10.0,0,1,0,21.6
Status,,64,31,5,23,1561097980,27.30,180.0,49.0,0,1,0,27.3
Status,,64,32,5,16,1561097980,27.00,23.0,49.0,0,1,0,27.0
Status,,64,33,5,14,1561097980,18.30,78.0,16.0,1,1,0,18.3
Status,,64,34,5,13,1561097980,23.30,80.0,61.0,1,1,0,23.3
Status,,64,35,5,9,1561097980,34.10,12.0,70.0,0,1,0,34.1
Status,,64,36,5,8,1561097980,21.70,99.0,50.0,0,1,0,21.7
Status,,64,37,5,6,1561097980,27.60,21.0,57.0,0,1,0,27.6
Status,,64,38,5,5,1561097980,27.10,240.0,63.0,1,1,0,27.1
Status,,64,39,5,3,1561097980,27.60,106.0,49.0,0,1,0,27.6
Status,,64,40,5,2,1561097980,26.30,147.0,75.0,0,1,0,26.3
Status,,64,41,5,1,1561097980,20.20,94.0,13.0,0,1,0,20.2
Status,,64,42,5,7,1561097980,0.00,144.0,15.0,0,1,0,0.0
Status,,64,43,4,194,1575420030,21.00,87.0,12.0,1,1,0,21.0
Status,,64,44,4,196,1575420030,29.60,78.0,29.0,1,1,0,29.6
Status,,64,45,4,195,1575420030,0.00,136.0,4.0,0,1,0,0.0
Status,,64,46,4,196,1176450050,23.80,78.0,29.0,0,1,0,23.8
Status,,64,47,6,4,1575420030,35.50,14.0,35.0,0,1,0,35.5
Status,,64,48,6,6,1575420030,17.10,341.0,41.0,0,1,1,17.1
Status,,64,49,6,9,1575420030,28.20,310.0,35.0,0,1,0,28.2
Status,,64,50,6,10,1575420030,20.90,196.0,61.0,0,1,0,20.9
Status,,64,51,6,11,1575420030,18.60,270.0,65.0,0,1,0,18.6
Status,,64,52,6,12,1575420030,16.50,170.0,41.0,0,1,0,16.5
Status,,64,53,6,36,1575420030,20.90,316.0,23.0,0,1,0,20.9
Status,,64,54,6,5,1575420030,0.00,265.0,5.0,0,1,0,0.0
Status,,64,55,6,24,1575420030,0.00,188.0,11.0,0,1,0,0.0
Status,,64,56,6,31,1575420030,0.00,139.0,32.0,0,1,0,0.0
Status,,64,57,6,4,1176450050,30.80,14.0,35.0,1,1,0,30.8
Status,,64,58,6,6,1176450050,30.60,341.0,41.0,0,1,1,30.6
Status,,64,59,6,9,1176450050,28.20,310.0,35.0,0,1,0,28.2
Status,,64,60,6,10,1176450050,31.60,196.0,61.0,1,1,0,31.6
Status,,64,61,6,11,1176450050,16.20,270.0,65.0,0,1,0,16.2
Status,,64,62,6,12,1176450050,21.00,170.0,41.0,0,1,0,21.0
Status,,64,63,6,31,1176450050,19.90,139.0,32.0,0,1,0,19.9
Raw,1727334657432,2807897056000000,18,,-1408561978376544208,0.6356792449951172,37.475809222087264,-2.308055081888962,12.83547338299547,209,2,0.0,16399,371475352480708,70,21.3,-412.1095275878906,1.844499945640564,16,0.0,0.0,1575420030,,,,0,,1,1.52,17.7,0.0,0.0,,,C,,
Raw,1727334657432,2807897056000000,18,,-1408561978376544208,0.6356792449951172,37.475809222087264,-2.308055081888962,12.83547338299547,209,10,0.0,16399,371475361144000,13,35.3,26.51455307006836,0.023600000888109207,16,0.0,1902.9177342976868,1575420030,,,,0,,1,1.52,31.699999999999996,0.0,0.0,,,C,,
Raw,1727334657432,2807897056000000,18,,-1408561978376544208,0.6356792449951172,37.475809222087264,-2.308055081888962,12.83547338299547,209,21,0.0,16399,371475356172003,31,26.9,-227.134521484375,0.750499963760376,16,0.0,0.0,1575420030,,,,0,,1,1.52,23.299999999999997,0.0,0.0,,,C,,
Raw,1727334657432,2807897056000000,18,,-1408561978376544208,0.6356792449951172,37.475809222087264,-2.308055081888962,12.83547338299547,209,26,0.0,16399,371475358126403,53,23.0,-488.4933776855469,0.9434999823570251,16,0.0,0.0,1575420030,,,,0,,1,1.52,19.4,0.0,0.0,,,C,,
Raw,1727334657432,2807897056000000,18,,-1408561978376544208,0.6356792449951172,37.475809222087264,-2.308055081888962,12.83547338299547,209,28,0.0,16399,371475363218637,12,35.7,310.94561767578125,0.026100000366568565,16,0.0,1902.9177342976868,1575420030,,,,0,,1,1.52,32.1,0.0,0.0,,,C,,
Raw,1727334657432,2807897056000000,18,,-1408561978376544208,0.6356792449951172,37.475809222087264,-2.308055081888962,12.83547338299547,209,31,0.0,16399,371475364991858,21,30.5,-186.2915496826172,0.03270000219345093,16,0.0,1902.9177342976868,1575420030,,,,0,,1,1.52,26.9,0.0,0.0,,,C,,
Raw,1727334657432,2807897056000000,18,,-1408561978376544208,0.6356792449951172,37.475809222087264,-2.308055081888962,12.83547338299547,209,32,0.0,16399,371475355067419,14,34.0,205.68406677246094,0.04540000110864639,16,0.0,1902.9177342976868,1575420030,,,,0,,1,1.52,30.4,0.0,0.0,,,C,,
Raw,1727334657432,2807897056000000,18,,-1408561978376544208,0.6356792449951172,37.475809222087264,-2.308055081888962,12.83547338299547,209,196,0.0,16399,371475299384791,21,29.6,-256.0896301269531,0.0552000030875206,16,0.0,1902.9177342976868,1575420030,,,,0,,4,1.52,26.0,0.0,0.0,,,C,,
Raw,1727334657432,2807897056000000,18,,-1408561978376544208,0.6356792449951172,37.475809222087264,-2.308055081888962,12.83547338299547,209,14,0.0,49359,36657365161703,61,22.2,-454.4079284667969,1.2040001153945923,16,0.0,0.0,1598062460,,,,0,,3,-3.65,18.2,3832.635009765625,13.295906066894531,,,C,,
Raw,1727334657432,2807897056000000,18,,-1408561978376544208,0.6356792449951172,37.475809222087264,-2.308055081888962,12.83547338299547,209,18,0.0,49359,36657363204776,19,31.3,317.76812744140625,0.23030000925064087,16,0.0,1873.3183770502228,1600312450,,,,0,,3,-3.65,27.3,3832.635009765625,13.295906066894531,,,C,,
Raw,1727334657432,2807897056000000,18,,-1408561978376544208,0.6356792449951172,37.475809222087264,-2.308055081888962,12.83547338299547,209,13,0.0,49359,36657361648356,24,29.2,319.5082092285156,0.23480001091957092,16,0.0,1872.6600783192619,1600875010,,,,0,,3,-3.65,25.2,3832.635009765625,13.295906066894531,,,C,,
Raw,1727334657432,2807897056000000,18,,-1408561978376544208,0.6356792449951172,37.475809222087264,-2.308055081888962,12.83547338299547,209,3,0.0,49359,36657358793332,19,31.7,-66.22066497802734,0.25280001759529114,16,0.0,1868.0653569596157,1604812540,,,,0,,3,-3.65,27.7,3832.635009765625,13.295906066894531,,,C,,
Raw,1727334657432,2807897056000000,18,,-1408561978376544208,0.6356792449951172,37.475809222087264,-2.308055081888962,12.83547338299547,209,4,0.0,49359,36657355622534,92,19.8,-159.44113159179688,2.2290000915527344,16,0.0,0.0,1605374980,,,,0,,3,-3.65,15.8,3832.635009765625,13.295906066894531,,,C,,
Raw,1727334657432,2807897056000000,18,,-1408561978376544208,0.6356792449951172,37.475809222087264,-2.308055081888962,12.83547338299547,209,28,0.0,16399,371461353030922,21,30.6,363.9896545410156,0.04620000347495079,16,0.0,1920.3757538518662,1561097980,,,,0,,5,0.1,26.3,-1501.6053466796875,13.887106895446777,,,I,,
Raw,1727334657432,2807897056000000,18,,-1408561978376544208,0.6356792449951172,37.475809222087264,-2.308055081888962,12.83547338299547,209,27,0.0,16399,371461351335077,53,23.4,76.27809143066406,0.9329999685287476,16,0.0,0.0,1561097980,,,,0,,5,0.1,19.099999999999998,-1501.6053466796875,13.887106895446777,,,I,,
Raw,1727334657432,2807897056000000,18,,-1408561978376544208,0.6356792449951172,37.475809222087264,-2.308055081888962,12.83547338299547,209,25,0.0,16399,371461358603101,35,26.9,117.3457260131836,0.7684999704360962,16,0.0,0.0,1561097980,,,,0,,5,0.1,22.599999999999998,-1501.6053466796875,13.887106895446777,,,I,,
Raw,1727334657432,2807897056000000,18,,-1408561978376544208,0.6356792449951172,37.475809222087264,-2.308055081888962,12.83547338299547,209,23,0.0,16399,371461356229421,31,27.3,-425.9051818847656,0.6904999613761902,16,0.0,0.0,1561097980,,,,0,,5,0.1,23.0,-1501.6053466796875,13.887106895446777,,,I,,
Raw,1727334657432,2807897056000000,18,,-1408561978376544208,0.6356792449951172,37.475809222087264,-2.308055081888962,12.83547338299547,209,16,0.0,16399,371461306714303,35,27.0,158.69183349609375,0.6754999756813049,16,0.0,0.0,1561097980,,,,0,,5,0.1,22.7,-1501.6053466796875,13.887106895446777,,,I,,
Raw,1727334657432,2807897056000000,18,,-1408561978376544208,0.6356792449951172,37.475809222087264,-2.308055081888962,12.83547338299547,209,13,0.0,16399,371461311936017,53,23.3,-116.47195434570312,0.9329999685287476,16,0.0,0.0,1561097980,,,,0,,5,0.1,19.0,-1501.6053466796875,13.887106895446777,,,I,,
Raw,1727334657432,2807897056000000,18,,-1408561978376544208,0.6356792449951172,37.475809222087264,-2.308055081888962,12.83547338299547,209,9,0.0,16399,371461309936154,16,34.1,111.10130310058594,0.03739999979734421,16,0.0,1920.3757538518662,1561097980,,,,0,,5,0.1,29.8,-1501.6053466796875,13.887106895446777,,,I,,
Raw,1727334657432,2807897056000000,18,,-1408561978376544208,0.6356792449951172,37.475809222087264,-2.308055081888962,12.83547338299547,209,8,0.0,16399,371461308975981,70,21.7,-71.00659942626953,3.3385000228881836,16,0.0,0.0,1561097980,,,,0,,5,0.1,17.4,-1501.6053466796875,13.887106895446777,,,I,,
Raw,1727334657432,2807897056000000,18,,-1408561978376544208,0.6356792449951172,37.475809222087264,-2.308055081888962,12.83547338299547,209,6,0.0,16399,371461310067886,31,27.6,135.2342071533203,0.6814999580383301,16,0.0,0.0,1561097980,,,,0,,5,0.1,23.3,-1501.6053466796875,13.887106895446777,,,I,,
Raw,1727334657432,2807897056000000,18,,-1408561978376544208,0.6356792449951172,37.475809222087264,-2.308055081888962,12.83547338299547,209,4,0.0,23567,371475347502440,13,35.5,182.11427307128906,0.05960000306367874,16,0.0,1902.9177342976868,1575420030,,,,0,,6,1.14,31.2,-722.0183715820312,12.174676895141602,,,C,,
Raw,1727334657432,2807897056000000,18,,-1408561978376544208,0.6356792449951172,37.475809222087264,-2.308055081888962,12.83547338299547,209,9,0.0,23567,371475347376586,31,28.2,32.38798141479492,0.6600000262260437,16,0.0,0.0,1575420030,,,,0,,6,1.14,23.9,-722.0183715820312,12.174676895141602,,,C,,
Raw,1727334657432,2807897056000000,18,,-1408561978376544208,0.6356792449951172,37.475809222087264,-2.308055081888962,12.83547338299547,209,10,0.0,23567,371475352435266,80,20.9,302.4147033691406,1.2055000066757202,16,0.0,0.0,1575420030,,,,0,,6,1.14,16.599999999999998,-722.0183715820312,12.174676895141602,,,C,,
Raw,1727334657432,2807897056000000,18,,-1408561978376544208,0.6356792449951172,37.475809222087264,-2.308055081888962,12.83547338299547,209,10,0.0,81935,371475361151781,5,32.0,26.475000381469727,0.05250000208616257,16,0.0,2548.2550006752426,1176450050,,,,0,,1,-1.6,27.1,-7860.00048828125,100.0,,,Q,,
Raw,1727334657432,2807897056000000,18,,-1408561978376544208,0.6356792449951172,37.475809222087264,-2.308055081888962,12.83547338299547,209,23,0.0,81935,371475353846531,9,26.4,383.5750732421875,0.04989999905228615,16,0.0,2548.2550006752426,1176450050,,,,0,,1,-1.6,21.5,-7860.00048828125,100.0,,,Q,,
Raw,1727334657432,2807897056000000,18,,-1408561978376544208,0.6356792449951172,37.475809222087264,-2.308055081888962,12.83547338299547,209,26,0.0,81935,371475358134179,14,22.7,-489.2315979003906,1.0084999799728394,16,0.0,0.0,1176450050,,,,0,,1,-1.6,17.799999999999997,-7860.00048828125,100.0,,,Q,,
Raw,1727334657432,2807897056000000,18,,-1408561978376544208,0.6356792449951172,37.475809222087264,-2.308055081888962,12.83547338299547,209,28,0.0,81935,371475363226367,16,21.7,310.9411926269531,1.065999984741211,16,0.0,0.0,1176450050,,,,0,,1,-1.6,16.799999999999997,-7860.00048828125,100.0,,,Q,,
Raw,1727334657432,2807897056000000,18,,-1408561978376544208,0.6356792449951172,37.475809222087264,-2.308055081888962,12.83547338299547,209,32,0.0,81935,371475355075133,16,21.2,204.77981567382812,1.0839999914169312,16,0.0,0.0,1176450050,,,,0,,1,-1.6,16.299999999999997,-7860.00048828125,100.0,,,Q,,
Raw,1727334657432,2807897056000000,18,,-1408561978376544208,0.6356792449951172,37.475809222087264,-2.308055081888962,12.83547338299547,209,196,0.0,16399,371475299392492,12,23.8,-256.0766906738281,0.9599999785423279,16,0.0,0.0,1176450050,,,,0,,4,,18.9,-7860.00048828125,100.0,,,Q,,
Raw,1727334657432,2807897056000000,18,,-1408561978376544208,0.6356792449951172,37.475809222087264,-2.308055081888962,12.83547338299547,209,4,0.0,81935,371475347509472,6,30.8,182.31263732910156,0.07999999821186066,16,0.0,2548.2550006752426,1176450050,,,,0,,6,-1.6,25.5,-7824.0,177.48593139648438,,,Q,,
Raw,1727334657432,2807897056000000,18,,-1408561978376544208,0.6356792449951172,37.475809222087264,-2.308055081888962,12.83547338299547,209,6,0.0,81935,371475349277812,6,30.6,110.42117309570312,0.08300000429153442,16,0.0,2548.2550006752426,1176450050,,,,0,,6,-1.6,25.3,-7824.0,177.48593139648438,,,Q,,
Raw,1727334657432,2807897056000000,18,,-1408561978376544208,0.6356792449951172,37.475809222087264,-2.308055081888962,12.83547338299547,209,9,0.0,81935,371475347383623,8,28.2,32.68169403076172,0.6420000195503235,16,0.0,0.0,1176450050,,,,0,,6,-1.6,22.9,-7824.0,177.48593139648438,,,Q,,
Raw,1727334657432,2807897056000000,18,,-1408561978376544208,0.6356792449951172,37.475809222087264,-2.308055081888962,12.83547338299547,209,10,0.0,81935,371475352442276,6,31.6,302.4568786621094,0.045099999755620956,16,0.0,2548.2550006752426,1176450050,,,,0,,6,-1.6,26.3,-7824.0,177.48593139648438,,,Q,,
Raw,1727334657432,2807897056000000,18,,-1408561978376544208,0.6356792449951172,37.475809222087264,-2.308055081888962,12.83547338299547,209,11,0.0,81935,371475355076092,34,16.2,29.44538116455078,5.354000091552734,16,0.0,0.0,1176450050,,,,0,,6,-1.6,10.899999999999999,-7824.0,177.48593139648438,,,Q,,
Raw,1727334657432,2807897056000000,18,,-1408561978376544208,0.6356792449951172,37.475809222087264,-2.308055081888962,12.83547338299547,209,12,0.0,81935,371475347990769,18,21.0,470.8584899902344,1.0719999074935913,16,0.0,0.0,1176450050,,,,0,,6,-1.6,15.7,-7824.0,177.48593139648438,,,Q,,
Raw,1727334657432,2807897056000000,18,,-1408561978376544208,0.6356792449951172,37.475809222087264,-2.308055081888962,12.83547338299547,209,31,0.0,81935,371475346947800,20,19.9,-343.2024230957031,1.9704999923706055,16,0.0,0.0,1176450050,,,,0,,6,-1.6,14.599999999999998,-7824.0,177.48593139648438,,,Q,,
Raw,1727334657432,2807897056000000,18,,-1408561978376544208,0.6356792449951172,37.475809222087264,-2.308055081888962,12.83547338299547,209,36,0.0,81935,371475344069467,8,28.2,-393.0703125,0.027699999511241913,16,0.0,2548.2550006752426,1176450050,,,,0,,6,-1.6,22.9,-7824.0,177.48593139648438,,,Q,,
Status,,64,0,1,2,1575420030,21.30,309.0,21.0,0,1,0,21.3
Status,,64,1,1,10,1575420030,36.70,80.0,47.0,0,1,1,36.7
Status,,64,2,1,21,1575420030,28.00,296.0,35.0,0,1,0,28.0
Status,,64,3,1,23,1575420030,16.50,113.0,18.0,0,1,1,16.5
Status,,64,4,1,26,1575420030,23.30,160.0,33.0,0,1,1,23.3
Status,,64,5,1,28,1575420030,33.40,18.0,65.0,1,1,1,33.4
Status,,64,6,1,31,1575420030,32.50,232.0,71.0,1,1,1,32.5
Status,,64,7,1,32,1575420030,33.30,26.0,28.0,1,1,1,33.3
Status,,64,8,1,8,1575420030,0.00,240.0,7.0,0,1,0,0.0
Status,,64,9,1,16,1575420030,0.00,187.0,11.0,0,1,0,0.0
Status,,64,10,1,25,1575420030,0.00,63.0,12.0,0,1,0,0.0
Status,,64,11,1,27,1575420030,0.00,209.0,11.0,0,1,1,0.0
Status,,64,12,1,10,1176450050,31.30,80.0,47.0,1,1,1,31.3
Status,,64,13,1,23,1176450050,23.40,113.0,18.0,0,1,1,23.4
Status,,64,14,1,26,1176450050,21.40,160.0,33.0,0,1,1,21.4
Status,,64,15,1,28,1176450050,23.80,18.0,65.0,0,1,1,23.8
Status,,64,16,1,32,1176450050,25.10,26.0,28.0,0,1,1,25.1
Status,,64,17,3,14,1598062460,22.20,144.0,50.0,0,1,0,22.2
Status,,64,18,3,18,1600312450,30.10,248.0,42.0,1,1,1,30.1
Status,,64,19,3,13,1600875010,30.90,54.0,35.0,0,1,0,30.9
Status,,64,20,3,17,1604249980,18.30,192.0,23.0,1,1,0,18.3
Status,,64,21,3,3,1604812540,31.90,12.0,25.0,1,1,1,31.9
Status,,64,22,3,4,1605374980,19.80,322.0,14.0,0,1,0,19.8
Status,,64,23,3,2,1599750020,0.00,61.0,9.0,0,1,0,0.0
Status,,64,24,3,12,1601437440,0.00,0.0,0.0,0,1,0,0.0
Status,,64,25,3,15,1602000000,0.00,187.0,11.0,0,1,0,0.0
Status,,64,26,3,19,1603687550,0.00,300.0,27.0,0,1,0,0.0
Status,,64,27,5,28,1561097980,30.60,217.0,33.0,0,1,0,30.6
Status,,64,28,5,27,1561097980,23.40,270.0,26.0,0,1,0,23.4
Status,,64,29,5,25,1561097980,25.30,73.0,56.0,0,1,0,25.3
Status,,64,30,5,24,1561097980,21.60,42.0,10.0,0,1,0,21.6
Status,,64,31,5,23,1561097980,25.00,180.0,49.0,0,1,0,25.0
Status,,64,32,5,16,1561097980,29.90,23.0,49.0,0,1,0,29.9
Status,,64,33,5,14,1561097980,18.30,78.0,16.0,1,1,0,18.3
Status,,64,34,5,13,1561097980,23.30,80.0,61.0,1,1,0,23.3
Status,,64,35,5,9,1561097980,33.90,12.0,70.0,0,1,0,33.9
Status,,64,36,5,8,1561097980,24.50,99.0,50.0,0,1,0,24.5
Status,,64,37,5,6,1561097980,28.50,21.0,57.0,0,1,0,28.5
Status,,64,38,5,5,1561097980,27.10,240.0,63.0,1,1,0,27.1
Status,,64,39,5,3,1561097980,27.00,106.0,49.0,0,1,0,27.0
Status,,64,40,5,2,1561097980,25.50,147.0,75.0,0,1,0,25.5
Status,,64,41,5,1,1561097980,20.20,94.0,13.0,0,1,0,20.2
Status,,64,42,5,7,1561097980,0.00,144.0,15.0,0,1,0,0.0
Status,,64,43,4,194,1575420030,20.10,87.0,12.0,1,1,0,20.1
Status,,64,44,4,196,1575420030,29.60,78.0,29.0,1,1,0,29.6
Status,,64,45,4,195,1575420030,0.00,136.0,4.0,0,1,0,0.0
Status,,64,46,4,196,1176450050,23.80,78.0,29.0,0,1,0,23.8
Status,,64,47,6,4,1575420030,35.30,14.0,35.0,0,1,0,35.3
Status,,64,48,6,6,1575420030,17.10,341.0,41.0,0,1,1,17.1
Status,,64,49,6,9,1575420030,26.80,310.0,35.0,0,1,0,26.8
Status,,64,50,6,10,1575420030,20.90,196.0,61.0,1,1,0,20.9
Status,,64,51,6,11,1575420030,17.70,270.0,65.0,0,1,0,17.7
Status,,64,52,6,12,1575420030,13.00,170.0,41.0,0,1,0,13.0
Status,,64,53,6,36,1575420030,20.90,316.0,23.0,0,1,0,20.9
Status,,64,54,6,5,1575420030,0.00,265.0,5.0,0,1,0,0.0
Status,,64,55,6,24,1575420030,0.00,188.0,11.0,0,1,0,0.0
Status,,64,56,6,31,1575420030,0.00,139.0,32.0,0,1,0,0.0
Status,,64,57,6,4,1176450050,28.00,14.0,35.0,1,1,0,28.0
Status,,64,58,6,6,1176450050,27.20,341.0,41.0,0,1,1,27.2
Status,,64,59,6,9,1176450050,28.20,310.0,35.0,0,1,0,28.2
Status,,64,60,6,10,1176450050,32.40,196.0,61.0,0,1,0,32.4
Status,,64,61,6,11,1176450050,16.20,270.0,65.0,0,1,0,16.2
Status,,64,62,6,12,1176450050,21.40,170.0,41.0,0,1,0,21.4
Status,,64,63,6,31,1176450050,19.90,139.0,32.0,0,1,0,19.9
Raw,1727334658432,2807898056000000,18,,-1408561978376544219,0.5492153167724609,36.705441743833944,-3.6090315510272344,12.439367292393706,209,10,0.0,16399,371476361143905,11,36.7,25.398448944091797,0.022700000554323196,16,0.0,1902.9177342976868,1575420030,,,,0,,1,1.9,33.1,0.0,0.0,,,C,,
Raw,1727334658432,2807898056000000,18,,-1408561978376544219,0.5492153167724609,36.705441743833944,-3.6090315510272344,12.439367292393706,209,21,0.0,16399,371476356172756,27,28.0,-227.94326782226562,0.640500009059906,16,0.0,0.0,1575420030,,,,0,,1,1.9,24.4,0.0,0.0,,,C,,
Raw,1727334658432,2807898056000000,18,,-1408561978376544219,0.5492153167724609,36.705441743833944,-3.6090315510272344,12.439367292393706,209,26,0.0,16399,371476358127962,53,23.3,-489.806396484375,0.9434999823570251,16,0.0,0.0,1575420030,,,,0,,1,1.9,19.7,0.0,0.0,,,C,,
Raw,1727334658432,2807898056000000,18,,-1408561978376544219,0.5492153167724609,36.705441743833944,-3.6090315510272344,12.439367292393706,209,28,0.0,16399,371476363217586,16,33.4,309.8636474609375,0.0284000001847744,16,0.0,1902.9177342976868,1575420030,,,,0,,1,1.9,29.799999999999997,0.0,0.0,,,C,,
Raw,1727334658432,2807898056000000,18,,-1408561978376544219,0.5492153167724609,36.705441743833944,-3.6090315510272344,12.439367292393706,209,31,0.0,16399,371476364992475,17,32.5,-187.36817932128906,0.031200001016259193,16,0.0,1902.9177342976868,1575420030,,,,0,,1,1.9,28.9,0.0,0.0,,,C,,
Raw,1727334658432,2807898056000000,18,,-1408561978376544219,0.5492153167724609,36.705441743833944,-3.6090315510272344,12.439367292393706,209,32,0.0,16399,371476355066730,16,33.3,204.4769287109375,0.046400003135204315,16,0.0,1902.9177342976868,1575420030,,,,0,,1,1.9,29.699999999999996,0.0,0.0,,,C,,
Raw,1727334658432,2807898056000000,18,,-1408561978376544219,0.5492153167724609,36.705441743833944,-3.6090315510272344,12.439367292393706,209,194,0.0,16399,371476297453490,80,20.1,61.19844436645508,2.691999912261963,16,0.0,0.0,1575420030,,,,0,,4,1.9,16.5,0.0,0.0,,,C,,
Raw,1727334658432,2807898056000000,18,,-1408561978376544219,0.5492153167724609,36.705441743833944,-3.6090315510272344,12.439367292393706,209,196,0.0,16399,371476299385622,21,29.6,-257.2614440917969,0.0552000030875206,16,0.0,1902.9177342976868,1575420030,,,,0,,4,1.9,26.0,0.0,0.0,,,C,,
Raw,1727334658432,2807898056000000,18,,-1408561978376544219,0.5492153167724609,36.705441743833944,-3.6090315510272344,12.439367292393706,209,18,0.0,49359,36658363203661,21,30.1,316.6947326660156,0.23120000958442688,16,0.0,1873.3183770502228,1600312450,,,,0,,3,-3.29,26.1,3832.63916015625,13.322005271911621,,,C,,
Raw,1727334658432,2807898056000000,18,,-1408561978376544219,0.5492153167724609,36.705441743833944,-3.6090315510272344,12.439367292393706,209,13,0.0,49359,36658361647297,21,30.9,318.546630859375,0.2282000035047531,16,0.0,1872.6600783192619,1600875010,,,,0,,3,-3.29,26.9,3832.63916015625,13.322005271911621,,,C,,
Raw,1727334658432,2807898056000000,18,,-1408561978376544219,0.5492153167724609,36.705441743833944,-3.6090315510272344,12.439367292393706,209,3,0.0,49359,36658358793548,19,31.9,-67.40365600585938,0.25280001759529114,16,0.0,1868.0653569596157,1604812540,,,,0,,3,-3.29,27.9,3832.63916015625,13.322005271911621,,,C,,
Raw,1727334658432,2807898056000000,18,,-1408561978376544219,0.5492153167724609,36.705441743833944,-3.6090315510272344,12.439367292393706,209,28,0.0,16399,371462353029687,21,30.6,362.87310791015625,0.04620000347495079,16,0.0,1920.3757538518662,1561097980,,,,0,,5,0.24,26.3,-1501.6005859375,13.912864685058594,,,I,,
Raw,1727334658432,2807898056000000,18,,-1408561978376544219,0.5492153167724609,36.705441743833944,-3.6090315510272344,12.439367292393706,209,25,0.0,16399,371462358602724,40,25.3,115.55976104736328,0.8134999871253967,16,0.0,0.0,1561097980,,,,0,,5,0.24,21.0,-1501.6005859375,13.912864685058594,,,I,,
Raw,1727334658432,2807898056000000,18,,-1408561978376544219,0.5492153167724609,36.705441743833944,-3.6090315510272344,12.439367292393706,209,23,0.0,16399,371462356230756,46,25.0,-427.2110595703125,0.8104999661445618,16,0.0,0.0,1561097980,,,,0,,5,0.24,20.7,-1501.6005859375,13.912864685058594,,,I,,
Raw,1727334658432,2807898056000000,18,,-1408561978376544219,0.5492153167724609,36.705441743833944,-3.6090315510272344,12.439367292393706,209,16,0.0,16399,371462306713768,24,29.9,157.31492614746094,0.04230000078678131,16,0.0,1920.3757538518662,1561097980,,,,0,,5,0.24,25.599999999999998,-1501.6005859375,13.912864685058594,,,I,,
Raw,1727334658432,2807898056000000,18,,-1408561978376544219,0.5492153167724609,36.705441743833944,-3.6090315510272344,12.439367292393706,209,9,0.0,16399,371462309935793,16,33.9,109.91126251220703,0.03739999979734421,16,0.0,1920.3757538518662,1561097980,,,,0,,5,0.24,29.599999999999998,-1501.6005859375,13.912864685058594,,,I,,
Raw,1727334658432,2807898056000000,18,,-1408561978376544219,0.5492153167724609,36.705441743833944,-3.6090315510272344,12.439367292393706,209,8,0.0,16399,371462308976239,46,24.5,-72.62934112548828,0.8585000038146973,16,0.0,0.0,1561097980,,,,0,,5,0.24,20.2,-1501.6005859375,13.912864685058594,,,I,,
Raw,1727334658432,2807898056000000,18,,-1408561978376544219,0.5492153167724609,36.705441743833944,-3.6090315510272344,12.439367292393706,209,6,0.0,16399,371462310067438,27,28.5,134.78292846679688,0.6315000057220459,16,0.0,0.0,1561097980,,,,0,,5,0.24,24.2,-1501.6005859375,13.912864685058594,,,I,,
Raw,1727334658432,2807898056000000,18,,-1408561978376544219,0.5492153167724609,36.705441743833944,-3.6090315510272344,12.439367292393706,209,3,0.0,16399,371462309538460,35,27.0,1.1138291358947754,5.817600250244141,16,0.0,0.0,1561097980,,,,0,,5,0.24,22.7,-1501.6005859375,13.912864685058594,,,I,,
Raw,1727334658432,2807898056000000,18,,-1408561978376544219,0.5492153167724609,36.705441743833944,-3.6090315510272344,12.439367292393706,209,2,0.0,16399,371462313397207,40,25.5,4.945016860961914,8.93220043182373,16,0.0,0.0,1561097980,,,,0,,5,0.24,21.2,-1501.6005859375,13.912864685058594,,,I,,
Raw,1727334658432,2807898056000000,18,,-1408561978376544219,0.5492153167724609,36.705441743833944,-3.6090315510272344,12.439367292393706,209,4,0.0,23567,371476347501837,13,35.3,180.94088745117188,0.05960000306367874,16,0.0,1902.9177342976868,1575420030,,,,0,,6,1.58,30.999999999999996,-722.0184936523438,12.20296573638916,,,C,,
Raw,1727334658432,2807898056000000,18,,-1408561978376544219,0.5492153167724609,36.705441743833944,-3.6090315510272344,12.439367292393706,209,9,0.0,23567,371476347376466,35,26.8,31.465059280395508,0.7699999809265137,16,0.0,0.0,1575420030,,,,0,,6,1.58,22.5,-722.0184936523438,12.20296573638916,,,C,,
Raw,1727334658432,2807898056000000,18,,-1408561978376544219,0.5492153167724609,36.705441743833944,-3.6090315510272344,12.439367292393706,209,11,0.0,23567,371476355068937,122,17.7,29.229108810424805,2.2699999809265137,16,0.0,0.0,1575420030,,,,0,,6,1.58,13.399999999999999,-722.0184936523438,12.20296573638916,,,C,,
Raw,1727334658432,2807898056000000,18,,-1408561978376544219,0.5492153167724609,36.705441743833944,-3.6090315510272344,12.439367292393706,209,12,0.0,23567,371476347982096,181,13.0,470.94830322265625,9.534000396728516,16,0.0,0.0,1575420030,,,,0,,6,1.58,8.7,-722.0184936523438,12.20296573638916,,,C,,
Raw,1727334658432,2807898056000000,18,,-1408561978376544219,0.5492153167724609,36.705441743833944,-3.6090315510272344,12.439367292393706,209,10,0.0,81935,371476361151699,6,31.3,25.431209564208984,0.05860000103712082,16,0.0,2548.2550006752426,1176450050,,,,0,,1,-1.7,26.4,-7860.00048828125,100.0,,,Q,,
Raw,1727334658432,2807898056000000,18,,-1408561978376544219,0.5492153167724609,36.705441743833944,-3.6090315510272344,12.439367292393706,209,23,0.0,81935,371476353845248,12,23.4,382.49688720703125,0.9210000038146973,16,0.0,0.0,1176450050,,,,0,,1,-1.7,18.5,-7860.00048828125,100.0,,,Q,,
Raw,1727334658432,2807898056000000,18,,-1408561978376544219,0.5492153167724609,36.705441743833944,-3.6090315510272344,12.439367292393706,209,26,0.0,81935,371476358135814,16,21.4,-490.27642822265625,1.088499903678894,16,0.0,0.0,1176450050,,,,0,,1,-1.7,16.5,-7860.00048828125,100.0,,,Q,,
Raw,1727334658432,2807898056000000,18,,-1408561978376544219,0.5492153167724609,36.705441743833944,-3.6090315510272344,12.439367292393706,209,28,0.0,81935,371476363225333,12,23.8,309.8708801269531,0.9059999585151672,16,0.0,0.0,1176450050,,,,0,,1,-1.7,18.9,-7860.00048828125,100.0,,,Q,,
Raw,1727334658432,2807898056000000,18,,-1408561978376544219,0.5492153167724609,36.705441743833944,-3.6090315510272344,12.439367292393706,209,32,0.0,81935,371476355074462,10,25.1,204.42507934570312,0.08320000022649765,16,0.0,2548.2550006752426,1176450050,,,,0,,1,-1.7,20.200000000000003,-7860.00048828125,100.0,,,Q,,
Raw,1727334658432,2807898056000000,18,,-1408561978376544219,0.5492153167724609,36.705441743833944,-3.6090315510272344,12.439367292393706,209,4,0.0,81935,371476347508856,8,28.0,180.95339965820312,0.6420000195503235,16,0.0,0.0,1176450050,,,,0,,6,-1.7,22.7,-7824.03125,175.9880828857422,,,Q,,
Raw,1727334658432,2807898056000000,18,,-1408561978376544219,0.5492153167724609,36.705441743833944,-3.6090315510272344,12.439367292393706,209,6,0.0,81935,371476349277451,9,27.2,108.93955993652344,0.0738999992609024,16,0.0,2548.2550006752426,1176450050,,,,0,,6,-1.7,21.9,-7824.03125,175.9880828857422,,,Q,,
Raw,1727334658432,2807898056000000,18,,-1408561978376544219,0.5492153167724609,36.705441743833944,-3.6090315510272344,12.439367292393706,209,9,0.0,81935,371476347383517,8,28.2,31.25257682800293,0.06220000237226486,16,0.0,2548.2550006752426,1176450050,,,,0,,6,-1.7,22.9,-7824.03125,175.9880828857422,,,Q,,
Raw,1727334658432,2807898056000000,18,,-1408561978376544219,0.5492153167724609,36.705441743833944,-3.6090315510272344,12.439367292393706,209,10,0.0,81935,371476352441267,5,32.4,301.1919860839844,0.039000000804662704,16,0.0,2548.2550006752426,1176450050,,,,0,,6,-1.7,27.099999999999998,-7824.03125,175.9880828857422,,,Q,,
Raw,1727334658432,2807898056000000,18,,-1408561978376544219,0.5492153167724609,36.705441743833944,-3.6090315510272344,12.439367292393706,209,12,0.0,81935,371476347989201,16,21.4,470.1195068359375,1.0719999074935913,16,0.0,0.0,1176450050,,,,0,,6,-1.7,16.099999999999998,-7824.03125,175.9880828857422,,,Q,,
