# 
# Header Description:
# 
# Version: v3.1.0.2 Platform: 14 Manufacturer: samsung Model: SM-S918B GNSS Hardware Model Name: Qualcomm GNSS GEN9
# 
# Raw,utcTimeMillis,TimeNanos,LeapSecond,TimeUncertaintyNanos,FullBiasNanos,BiasNanos,BiasUncertaintyNanos,DriftNanosPerSecond,DriftUncertaintyNanosPerSecond,HardwareClockDiscontinuityCount,Svid,TimeOffsetNanos,State,ReceivedSvTimeNanos,ReceivedSvTimeUncertaintyNanos,Cn0DbHz,PseudorangeRateMetersPerSecond,PseudorangeRateUncertaintyMetersPerSecond,AccumulatedDeltaRangeState,AccumulatedDeltaRangeMeters,AccumulatedDeltaRangeUncertaintyMeters,CarrierFrequencyHz,CarrierCycles,CarrierPhase,CarrierPhaseUncertainty,MultipathIndicator,SnrInDb,ConstellationType,AgcDb,BasebandCn0DbHz,FullInterSignalBiasNanos,FullInterSignalBiasUncertaintyNanos,SatelliteInterSignalBiasNanos,SatelliteInterSignalBiasUncertaintyNanos,CodeType,ChipsetElapsedRealtimeNanos,IsFullTracking
# 
# UncalAccel,utcTimeMillis,elapsedRealtimeNanos,UncalAccelXMps2,UncalAccelYMps2,UncalAccelZMps2,BiasXMps2,BiasYMps2,BiasZMps2
# 
# Accel,utcTimeMillis,elapsedRealtimeNanos,AccelXMps2,AccelYMps2,AccelZMps2
# 
# UncalGyro,utcTimeMillis,elapsedRealtimeNanos,UncalGyroXRadPerSec,UncalGyroYRadPerSec,UncalGyroZRadPerSec,DriftXRadPerSec,DriftYRadPerSec,DriftZRadPerSec
# 
# Gyro,utcTimeMillis,elapsedRealtimeNanos,GyroXRadPerSec,GyroYRadPerSec,GyroZRadPerSec
# 
# UncalMag,utcTimeMillis,elapsedRealtimeNanos,UncalMagXMicroT,UncalMagYMicroT,UncalMagZMicroT,BiasXMicroT,BiasYMicroT,BiasZMicroT
# 
# Mag,utcTimeMillis,elapsedRealtimeNanos,MagXMicroT,MagYMicroT,MagZMicroT
# 
# Pressure,utcTimeMillis,elapsedRealtimeNanos,PressureHpa
# 
# OrientationDeg,utcTimeMillis,elapsedRealtimeNanos,yawDeg,rollDeg,pitchDeg
# 
# Fix,Provider,LatitudeDegrees,LongitudeDegrees,AltitudeMeters,SpeedMps,AccuracyMeters,BearingDegrees,UnixTimeMillis,SpeedAccuracyMps,BearingAccuracyDegrees,elapsedRealtimeNanos,VerticalAccuracyMeters,MockLocation,NumberOfUsedSignals,VerticalSpeedAccuracyMps,SolutionType
# 
# Nav,Svid,Type,Status,MessageId,Sub-messageId,Data(Bytes)
# 
# Status,UnixTimeMillis,SignalCount,SignalIndex,ConstellationType,Svid,CarrierFrequencyHz,Cn0DbHz,AzimuthDegrees,ElevationDegrees,UsedInFix,HasAlmanacData,HasEphemerisData,BasebandCn0DbHz
# 
# Agc,utcTimeMillis,TimeNanos,LeapSecond,TimeUncertaintyNanos,FullBiasNanos,BiasNanos,BiasUncertaintyNanos,DriftNanosPerSecond,DriftUncertaintyNanosPerSecond,HardwareClockDiscontinuityCount,AgcDb,CarrierFrequencyHz,ConstellationType
# 
Status,,62,0,1,2,1575420030,35.60,309.24316,22.409986,1,1,0,30.6
Status,,62,1,1,10,1575420030,36.70,81.69651,47.826553,1,1,1,31.7
Status,,62,2,1,21,1575420030,35.70,297.09418,36.86742,1,1,1,30.7
Status,,62,3,1,25,1575420030,22.20,63.44977,12.754845,1,1,0,17.2
Status,,62,4,1,26,1575420030,21.50,160.5589,34.402237,0,1,1,16.5
Status,,62,5,1,27,1575420030,19.90,210.13385,11.818553,1,1,1,14.9
Status,,62,6,1,28,1575420030,19.20,19.138947,64.52497,0,1,1,14.2
Status,,62,7,1,31,1575420030,30.40,234.87964,72.22465,1,1,1,25.4
Status,,62,8,1,32,1575420030,33.90,27.58746,28.800964,1,1,1,28.9
Status,,62,9,4,194,1575420030,23.20,88.28709,13.518235,1,1,0,18.2
Status,,62,10,4,196,1575420030,32.50,79.16972,30.036478,0,1,0,27.5
Status,,62,11,2,128,1575420030,32.60,0.0,0.0,0,0,0,27.6
Status,,62,12,3,14,1598062460,32.60,144.86435,51.553246,1,1,0,27.6
Status,,62,13,3,18,1600312450,25.30,248.23445,41.69081,1,1,0,20.3
Status,,62,14,3,13,1600875010,32.70,53.902664,35.885067,0,1,0,27.7
Status,,62,15,3,3,1604812540,37.80,13.885383,25.468828,0,1,0,32.8
Status,,62,16,3,4,1605374980,38.70,323.63617,14.961362,1,1,0,33.7
Status,,62,17,5,60,1561097980,34.80,168.27087,75.49224,1,1,1,29.8
Status,,62,18,5,41,1561097980,32.60,354.9578,36.63063,0,1,0,27.6
Status,,62,19,5,38,1561097980,24.10,116.133286,40.651188,1,1,1,19.1
Status,,62,20,5,28,1561097980,31.00,217.40475,32.73135,1,1,1,26.0
Status,,62,21,5,27,1561097980,32.90,269.84467,26.615492,1,1,0,27.9
Status,,62,22,5,25,1561097980,37.50,72.366295,57.09865,1,1,1,32.5
Status,,62,23,5,23,1561097980,30.30,180.65318,51.391285,1,1,1,25.3
Status,,62,24,5,14,1561097980,28.50,80.5985,16.313122,1,1,0,23.5
Status,,62,25,5,13,1561097980,33.80,81.59979,62.430298,1,1,1,28.8
Status,,62,26,5,8,1561097980,21.00,101.57217,51.107533,1,1,0,16.0
Status,,62,27,5,7,1561097980,22.20,145.12589,16.096,1,1,0,17.2
Status,,62,28,5,5,1561097980,40.70,241.14139,64.63034,1,1,1,35.7
Status,,62,29,5,3,1561097980,24.30,107.962685,49.369415,1,1,1,19.3
Status,,62,30,5,2,1561097980,25.00,147.72586,75.58351,1,1,0,20.0
Status,,62,31,6,4,1575420030,36.50,15.65272,35.00507,1,1,1,31.5
Status,,62,32,6,6,1575420030,38.30,342.7113,41.803,1,1,1,33.3
Status,,62,33,6,9,1575420030,35.20,311.9134,36.527027,1,1,1,30.2
Status,,62,34,6,10,1575420030,36.50,197.6621,61.699894,1,1,1,31.5
Status,,62,35,6,11,1575420030,29.80,269.30774,65.380264,0,1,0,24.8
Status,,62,36,6,31,1575420030,20.80,138.97244,32.71404,1,1,0,15.8
Status,,62,37,6,36,1575420030,22.20,316.87494,23.947157,1,1,0,17.2
Status,,62,38,1,10,1176450050,25.20,81.69651,47.826553,1,1,1,20.2
Status,,62,39,1,23,1176450050,20.10,115.590614,18.636345,1,1,1,15.1
Status,,62,40,1,26,1176450050,18.20,160.5589,34.402237,1,1,1,13.2
Status,,62,41,1,28,1176450050,35.80,19.138947,64.52497,1,1,1,30.8
Status,,62,42,1,32,1176450050,33.30,27.58746,28.800964,1,1,1,28.3
Status,,62,43,4,196,1176450050,28.60,79.16972,30.036478,1,1,0,23.6
Status,,62,44,6,4,1176450050,24.30,15.65272,35.00507,1,1,1,19.3
Status,,62,45,6,6,1176450050,30.00,342.7113,41.803,1,1,1,25.0
Status,,62,46,6,9,1176450050,29.30,311.9134,36.527027,1,1,1,24.3
Status,,62,47,6,10,1176450050,31.90,197.6621,61.699894,1,1,1,26.9
Status,,62,48,6,11,1176450050,25.60,269.30774,65.380264,0,1,0,20.6
Status,,62,49,6,36,1176450050,24.70,316.87494,23.947157,0,1,0,19.7
Status,,62,50,5,23,1176450050,27.90,180.65318,51.391285,1,1,1,22.9
Status,,62,51,5,25,1176450050,30.10,72.366295,57.09865,1,1,1,25.1
Status,,62,52,5,27,1176450050,17.30,269.84467,26.615492,1,1,0,12.3
Status,,62,53,5,28,1176450050,22.50,217.40475,32.73135,1,1,1,17.5
Status,,62,54,5,38,1176450050,20.50,116.133286,40.651188,1,1,1,15.5
Status,,62,55,5,23,1575420030,38.10,180.65318,51.391285,1,1,1,33.1
Status,,62,56,5,24,1575420030,23.30,41.881912,10.430852,1,1,0,18.3
Status,,62,57,5,25,1575420030,37.50,72.366295,57.09865,1,1,1,32.5
Status,,62,58,5,27,1575420030,27.00,269.84467,26.615492,1,1,0,22.0
Status,,62,59,5,28,1575420030,21.00,217.40475,32.73135,1,1,1,16.0
Status,,62,60,5,38,1575420030,29.20,116.133286,40.651188,1,1,1,24.2
Status,,62,61,5,41,1575420030,34.40,354.9578,36.63063,0,1,0,29.4
Raw,1727334661422,904479236000000,18,0.0,-1410465400186390297,-0.1744537353515625,34.50978692853823,-0.32658848635075055,9.65790204056439,336,2,0.0,16399,371479342332303,14,40.6,-412.0939636230469,0.049995653331279755,16,0.0,0.0,1575420030,,,,0,0.0,1,-51.91,35.6,0.0,0.0,,,C,575417685002295,0
Raw,1727334661422,904479236000000,18,0.0,-1410465400186390297,-0.1744537353515625,34.50978692853823,-0.32658848635075055,9.65790204056439,336,10,0.0,16399,371479350989693,13,41.7,27.95490837097168,0.03689195215702057,16,0.0,0.0,1575420030,,,,0,0.0,1,-51.91,36.7,0.0,0.0,,,C,575417685002295,0
Raw,1727334661422,904479236000000,18,0.0,-1410465400186390297,-0.1744537353515625,34.50978692853823,-0.32658848635075055,9.65790204056439,336,21,0.0,16399,371479346021094,14,40.7,-225.43887329101562,0.043995656073093414,16,0.0,0.0,1575420030,,,,0,0.0,1,-51.91,35.7,0.0,0.0,,,C,575417685002295,0
Raw,1727334661422,904479236000000,18,0.0,-1410465400186390297,-0.1744537353515625,34.50978692853823,-0.32658848635075055,9.65790204056439,336,28,0.0,16399,371479353060528,106,24.2,314.2795104980469,3.511000156402588,16,0.0,0.0,1575420030,,,,0,0.0,1,-51.91,19.2,0.0,0.0,,,C,575417685002295,0
Raw,1727334661422,904479236000000,18,0.0,-1410465400186390297,-0.1744537353515625,34.50978692853823,-0.32658848635075055,9.65790204056439,336,31,0.0,16399,371479354840395,24,35.4,-184.5866241455078,0.6693843007087708,16,0.0,0.0,1575420030,,,,0,0.0,1,-51.91,30.4,0.0,0.0,,,C,575417685002295,0
Raw,1727334661422,904479236000000,18,0.0,-1410465400186390297,-0.1744537353515625,34.50978692853823,-0.32658848635075055,9.65790204056439,336,32,0.0,16399,371479344910738,17,38.9,206.67559814453125,0.05329437553882599,16,0.0,0.0,1575420030,,,,0,0.0,1,-51.91,33.9,0.0,0.0,,,C,575417685002295,0
Raw,1727334661422,904479236000000,18,0.0,-1410465400186390297,-0.1744537353515625,34.50978692853823,-0.32658848635075055,9.65790204056439,336,196,0.0,16399,371479289234167,19,37.5,-254.99737548828125,0.05570867657661438,16,0.0,0.0,1575420030,,,,0,0.0,4,-51.91,32.5,0.0,0.0,,,C,575417685002295,0
Raw,1727334661422,904479236000000,18,0.0,-1410465400186390297,-0.1744537353515625,34.50978692853823,-0.32658848635075055,9.65790204056439,336,14,0.0,49359,36661355013787,19,36.6,-452.4437561035156,0.046344418078660965,16,0.0,0.0,1598062460,,,,0,0.0,3,-54.66,32.6,3775.884765625,10.589739799499512,,,C,575417685002295,0
Raw,1727334661422,904479236000000,18,0.0,-1410465400186390297,-0.1744537353515625,34.50978692853823,-0.32658848635075055,9.65790204056439,336,18,0.0,49359,36661353046615,46,29.3,319.3196716308594,1.555999994277954,16,0.0,0.0,1600312450,,,,0,0.0,3,-54.66,25.3,3775.884765625,10.589739799499512,,,C,575417685002295,0
Raw,1727334661422,904479236000000,18,0.0,-1410465400186390297,-0.1744537353515625,34.50978692853823,-0.32658848635075055,9.65790204056439,336,13,0.0,49359,36661351490295,19,36.7,321.3170166015625,0.05229989066720009,16,0.0,0.0,1600875010,,,,0,0.0,3,-54.66,32.7,3775.884765625,10.589739799499512,,,C,575417685002295,0
Raw,1727334661422,904479236000000,18,0.0,-1410465400186390297,-0.1744537353515625,34.50978692853823,-0.32658848635075055,9.65790204056439,336,3,0.0,49359,36661348640257,12,41.8,-65.19891357421875,0.038860250264406204,16,0.0,0.0,1604812540,,,,0,0.0,3,-54.66,37.8,3775.884765625,10.589739799499512,,,C,575417685002295,0
Raw,1727334661422,904479236000000,18,0.0,-1410465400186390297,-0.1744537353515625,34.50978692853823,-0.32658848635075055,9.65790204056439,336,4,0.0,49359,36661345470687,11,42.7,-159.0126495361328,0.04257335513830185,16,0.0,0.0,1605374980,,,,0,0.0,3,-54.66,38.7,3775.884765625,10.589739799499512,,,C,575417685002295,0
Raw,1727334661422,904479236000000,18,0.0,-1410465400186390297,-0.1744537353515625,34.50978692853823,-0.32658848635075055,9.65790204056439,336,60,0.0,16399,371465302495477,16,39.1,4.378500461578369,1.4881000518798828,16,0.0,0.0,1561097980,,,,0,0.0,5,-60.68,34.800000000000004,-1545.42724609375,8.688972473144531,,,I,575417685002295,0
Raw,1727334661422,904479236000000,18,0.0,-1410465400186390297,-0.1744537353515625,34.50978692853823,-0.32658848635075055,9.65790204056439,336,41,0.0,16399,371465342531653,19,36.9,-180.37791442871094,0.06644453853368759,16,0.0,0.0,1561097980,,,,0,0.0,5,-60.68,32.6,-1545.42724609375,8.688972473144531,,,I,575417685002295,0
Raw,1727334661422,904479236000000,18,0.0,-1410465400186390297,-0.1744537353515625,34.50978692853823,-0.32658848635075055,9.65790204056439,336,38,0.0,16399,371465297044115,53,28.4,-1.9395989179611206,1.6319999694824219,16,0.0,0.0,1561097980,,,,0,0.0,5,-60.68,24.099999999999998,-1545.42724609375,8.688972473144531,,,I,575417685002295,0
Raw,1727334661422,904479236000000,18,0.0,-1410465400186390297,-0.1744537353515625,34.50978692853823,-0.32658848635075055,9.65790204056439,336,28,0.0,16399,371465342872156,21,35.3,365.2090759277344,0.661113977432251,16,0.0,0.0,1561097980,,,,0,0.0,5,-60.68,30.999999999999996,-1545.42724609375,8.688972473144531,,,I,575417685002295,0
Raw,1727334661422,904479236000000,18,0.0,-1410465400186390297,-0.1744537353515625,34.50978692853823,-0.32658848635075055,9.65790204056439,336,27,0.0,16399,371465341180174,19,37.2,77.24226379394531,0.06794454157352448,16,0.0,0.0,1561097980,,,,0,0.0,5,-60.68,32.900000000000006,-1545.42724609375,8.688972473144531,,,I,575417685002295,0
Raw,1727334661422,904479236000000,18,0.0,-1410465400186390297,-0.1744537353515625,34.50978692853823,-0.32658848635075055,9.65790204056439,336,25,0.0,16399,371465348447641,12,41.8,118.29590606689453,0.03906635567545891,16,0.0,0.0,1561097980,,,,0,0.0,5,-60.68,37.5,-1545.42724609375,8.688972473144531,,,I,575417685002295,0
Raw,1727334661422,904479236000000,18,0.0,-1410465400186390297,-0.1744537353515625,34.50978692853823,-0.32658848635075055,9.65790204056439,336,23,0.0,16399,371465346081152,24,34.6,-424.71636962890625,0.11120057106018066,16,0.0,0.0,1561097980,,,,0,0.0,5,-60.68,30.3,-1545.42724609375,8.688972473144531,,,I,575417685002295,0
Raw,1727334661422,904479236000000,18,0.0,-1410465400186390297,-0.1744537353515625,34.50978692853823,-0.32658848635075055,9.65790204056439,336,14,0.0,16399,371465337202956,31,32.8,127.93671417236328,1.3819999694824219,16,0.0,0.0,1561097980,,,,0,0.0,5,-60.68,28.499999999999996,-1545.42724609375,8.688972473144531,,,I,575417685002295,0
Raw,1727334661422,904479236000000,18,0.0,-1410465400186390297,-0.1744537353515625,34.50978692853823,-0.32658848635075055,9.65790204056439,336,13,0.0,16399,371465301783681,17,38.1,-115.08893585205078,0.057939279824495316,16,0.0,0.0,1561097980,,,,0,0.0,5,-60.68,33.800000000000004,-1545.42724609375,8.688972473144531,,,I,575417685002295,0
Raw,1727334661422,904479236000000,18,0.0,-1410465400186390297,-0.1744537353515625,34.50978692853823,-0.32658848635075055,9.65790204056439,336,8,0.0,16399,371465298823013,80,25.3,-70.35366821289062,1.8834999799728394,16,0.0,0.0,1561097980,,,,0,0.0,5,-60.68,21.0,-1545.42724609375,8.688972473144531,,,I,575417685002295,0
Raw,1727334661422,904479236000000,18,0.0,-1410465400186390297,-0.1744537353515625,34.50978692853823,-0.32658848635075055,9.65790204056439,336,7,0.0,16399,371465288859187,70,26.5,-121.56099700927734,1.778499960899353,16,0.0,0.0,1561097980,,,,0,0.0,5,-60.68,22.2,-1545.42724609375,8.688972473144531,,,I,575417685002295,0
Raw,1727334661422,904479236000000,18,0.0,-1410465400186390297,-0.1744537353515625,34.50978692853823,-0.32658848635075055,9.65790204056439,336,5,0.0,16399,371465300879222,9,45.0,-1.1219265460968018,0.09320056438446045,16,0.0,0.0,1561097980,,,,0,0.0,5,-60.68,40.7,-1545.42724609375,8.688972473144531,,,I,575417685002295,0
Raw,1727334661422,904479236000000,18,0.0,-1410465400186390297,-0.1744537353515625,34.50978692853823,-0.32658848635075055,9.65790204056439,336,4,0.0,23567,371479337346817,13,40.8,183.09933471679688,0.06539195775985718,16,0.0,0.0,1575420030,,,,0,0.0,6,-55.67,36.5,-1465.1341552734375,8.820236206054688,,,C,575417685002295,0
Raw,1727334661422,904479236000000,18,0.0,-1410465400186390297,-0.1744537353515625,34.50978692853823,-0.32658848635075055,9.65790204056439,336,6,0.0,23567,371479339116119,11,42.6,111.31304931640625,0.03669833764433861,16,0.0,0.0,1575420030,,,,0,0.0,6,-55.67,38.300000000000004,-1465.1341552734375,8.820236206054688,,,C,575417685002295,0
Raw,1727334661422,904479236000000,18,0.0,-1410465400186390297,-0.1744537353515625,34.50978692853823,-0.32658848635075055,9.65790204056439,336,9,0.0,23567,371479337222963,14,39.5,33.66355895996094,0.06651468575000763,16,0.0,0.0,1575420030,,,,0,0.0,6,-55.67,35.2,-1465.1341552734375,8.820236206054688,,,C,575417685002295,0
Raw,1727334661422,904479236000000,18,0.0,-1410465400186390297,-0.1744537353515625,34.50978692853823,-0.32658848635075055,9.65790204056439,336,10,0.0,23567,371479342277971,13,40.8,303.72418212890625,0.03689195215702057,16,0.0,0.0,1575420030,,,,0,0.0,6,-55.67,36.5,-1465.1341552734375,8.820236206054688,,,C,575417685002295,0
Raw,1727334661422,904479236000000,18,0.0,-1410465400186390297,-0.1744537353515625,34.50978692853823,-0.32658848635075055,9.65790204056439,336,11,0.0,23567,371479344915429,27,34.1,31.393604278564453,0.06714597344398499,16,0.0,0.0,1575420030,,,,0,0.0,6,-55.67,29.8,-1465.1341552734375,8.820236206054688,,,C,575417685002295,0
Raw,1727334661422,904479236000000,18,0.0,-1410465400186390297,-0.1744537353515625,34.50978692853823,-0.32658848635075055,9.65790204056439,336,31,0.0,23567,371479336792105,92,25.1,-342.4715270996094,1.2055000066757202,16,0.0,0.0,1575420030,,,,0,0.0,6,-55.67,20.8,-1465.1341552734375,8.820236206054688,,,C,575417685002295,0
Raw,1727334661422,904479236000000,18,0.0,-1410465400186390297,-0.1744537353515625,34.50978692853823,-0.32658848635075055,9.65790204056439,336,10,0.0,81935,371479350989637,10,30.2,27.930633544921875,0.0757475197315216,16,0.0,0.0,1176450050,,,,0,0.0,1,-40.44,25.2,39.556217193603516,4.479862689971924,,,Q,575417685002295,0
Raw,1727334661422,904479236000000,18,0.0,-1410465400186390297,-0.1744537353515625,34.50978692853823,-0.32658848635075055,9.65790204056439,336,23,0.0,81935,371479343679655,18,25.1,384.84130859375,1.8760000467300415,16,0.0,0.0,1176450050,,,,0,0.0,1,-40.44,20.1,39.556217193603516,4.479862689971924,,,Q,575417685002295,0
Raw,1727334661422,904479236000000,18,0.0,-1410465400186390297,-0.1744537353515625,34.50978692853823,-0.32658848635075055,9.65790204056439,336,26,0.0,81935,371479347978893,23,23.2,-487.89373779296875,2.131999969482422,16,0.0,0.0,1176450050,,,,0,0.0,1,-40.44,18.2,39.556217193603516,4.479862689971924,,,Q,575417685002295,0
Raw,1727334661422,904479236000000,18,0.0,-1410465400186390297,-0.1744537353515625,34.50978692853823,-0.32658848635075055,9.65790204056439,336,28,0.0,81935,371479353060484,4,40.8,312.40911865234375,0.03374140337109566,16,0.0,0.0,1176450050,,,,0,0.0,1,-40.44,35.8,39.556217193603516,4.479862689971924,,,Q,575417685002295,0
Raw,1727334661422,904479236000000,18,0.0,-1410465400186390297,-0.1744537353515625,34.50978692853823,-0.32658848635075055,9.65790204056439,336,32,0.0,81935,371479344910617,5,38.3,206.6610107421875,0.024114787578582764,16,0.0,0.0,1176450050,,,,0,0.0,1,-40.44,33.3,39.556217193603516,4.479862689971924,,,Q,575417685002295,0
Raw,1727334661422,904479236000000,18,0.0,-1410465400186390297,-0.1744537353515625,34.50978692853823,-0.32658848635075055,9.65790204056439,336,196,0.0,16399,371479289234117,8,33.6,-254.98106384277344,0.032685063779354095,16,0.0,0.0,1176450050,,,,0,0.0,4,-40.44,28.6,39.556217193603516,4.479862689971924,,,Q,575417685002295,0
Raw,1727334661422,904479236000000,18,0.0,-1410465400186390297,-0.1744537353515625,34.50978692853823,-0.32658848635075055,9.65790204056439,336,4,0.0,81935,371479337346747,11,29.6,183.1199951171875,0.19035151600837708,16,0.0,0.0,1176450050,,,,0,0.0,6,-40.44,24.3,-1443.2679443359375,76.49615478515625,,,Q,575417685002295,0
Raw,1727334661422,904479236000000,18,0.0,-1410465400186390297,-0.1744537353515625,34.50978692853823,-0.32658848635075055,9.65790204056439,336,6,0.0,81935,371479339116031,6,35.3,111.29214477539062,0.04391361027956009,16,0.0,0.0,1176450050,,,,0,0.0,6,-40.44,29.999999999999996,-1443.2679443359375,76.49615478515625,,,Q,575417685002295,0
Raw,1727334661422,904479236000000,18,0.0,-1410465400186390297,-0.1744537353515625,34.50978692853823,-0.32658848635075055,9.65790204056439,336,9,0.0,81935,371479337222887,7,34.6,33.61912536621094,0.07259547710418701,16,0.0,0.0,1176450050,,,,0,0.0,6,-40.44,29.3,-1443.2679443359375,76.49615478515625,,,Q,575417685002295,0
Raw,1727334661422,904479236000000,18,0.0,-1410465400186390297,-0.1744537353515625,34.50978692853823,-0.32658848635075055,9.65790204056439,336,10,0.0,81935,371479342277944,6,37.2,303.7369689941406,0.03008473478257656,16,0.0,0.0,1176450050,,,,0,0.0,6,-40.44,31.900000000000002,-1443.2679443359375,76.49615478515625,,,Q,575417685002295,0
Raw,1727334661422,904479236000000,18,0.0,-1410465400186390297,-0.1744537353515625,34.50978692853823,-0.32658848635075055,9.65790204056439,336,11,0.0,81935,371479344915388,10,30.9,31.37281608581543,0.0967475175857544,16,0.0,0.0,1176450050,,,,0,0.0,6,-40.44,25.599999999999998,-1443.2679443359375,76.49615478515625,,,Q,575417685002295,0
Raw,1727334661422,904479236000000,18,0.0,-1410465400186390297,-0.1744537353515625,34.50978692853823,-0.32658848635075055,9.65790204056439,336,36,0.0,81935,371479333914372,11,30.0,-391.7169189453125,0.15435150265693665,16,0.0,0.0,1176450050,,,,0,0.0,6,-40.44,24.7,-1443.2679443359375,76.49615478515625,,,Q,575417685002295,0
Raw,1727334661422,904479236000000,18,0.0,-1410465400186390297,-0.1744537353515625,34.50978692853823,-0.32658848635075055,9.65790204056439,336,23,0.0,16399,371465346081088,8,32.4,-424.73077392578125,0.060656897723674774,16,0.0,0.0,1176450050,,,,0,0.0,5,-40.44,27.9,-1512.3201904296875,76.83747100830078,,,Q,575417685002295,0
Raw,1727334661422,904479236000000,18,0.0,-1410465400186390297,-0.1744537353515625,34.50978692853823,-0.32658848635075055,9.65790204056439,336,25,0.0,16399,371465348447567,6,34.6,118.27225494384766,0.11152034997940063,16,0.0,0.0,1176450050,,,,0,0.0,5,-40.44,30.1,-1512.3201904296875,76.83747100830078,,,Q,575417685002295,0
Raw,1727334661422,904479236000000,18,0.0,-1410465400186390297,-0.1744537353515625,34.50978692853823,-0.32658848635075055,9.65790204056439,336,28,0.0,16399,371465342872071,14,27.0,364.91375732421875,1.0444999933242798,16,0.0,0.0,1176450050,,,,0,0.0,5,-40.44,22.5,-1512.3201904296875,76.83747100830078,,,Q,575417685002295,0
Raw,1727334661422,904479236000000,18,0.0,-1410465400186390297,-0.1744537353515625,34.50978692853823,-0.32658848635075055,9.65790204056439,336,38,0.0,16399,371465297044048,18,25.0,-2.293452262878418,1.2369999885559082,16,0.0,0.0,1176450050,,,,0,0.0,5,-40.44,20.5,-1512.3201904296875,76.83747100830078,,,Q,575417685002295,0
Raw,1727334661422,904479236000000,18,0.0,-1410465400186390297,-0.1744537353515625,34.50978692853823,-0.32658848635075055,9.65790204056439,336,23,0.0,16399,371465346081124,3,45.1,-424.7513122558594,0.09219834208488464,16,0.0,0.0,1575420030,,,,0,0.0,5,-55.67,38.1,-1558.53759765625,72.97425079345703,,,P,575417685002295,0
Raw,1727334661422,904479236000000,18,0.0,-1410465400186390297,-0.1744537353515625,34.50978692853823,-0.32658848635075055,9.65790204056439,336,25,0.0,16399,371465348447640,3,44.5,118.25224304199219,0.09599757194519043,16,0.0,0.0,1575420030,,,,0,0.0,5,-55.67,37.5,-1558.53759765625,72.97425079345703,,,P,575417685002295,0
Raw,1727334661422,904479236000000,18,0.0,-1410465400186390297,-0.1744537353515625,34.50978692853823,-0.32658848635075055,9.65790204056439,336,27,0.0,16399,371465341180182,8,34.0,77.1856460571289,0.09305223077535629,16,0.0,0.0,1575420030,,,,0,0.0,5,-55.67,27.0,-1558.53759765625,72.97425079345703,,,P,575417685002295,0
Raw,1727334661422,904479236000000,18,0.0,-1410465400186390297,-0.1744537353515625,34.50978692853823,-0.32658848635075055,9.65790204056439,336,28,0.0,16399,371465342872199,16,28.0,365.05938720703125,1.2294999361038208,16,0.0,0.0,1575420030,,,,0,0.0,5,-55.67,21.0,-1558.53759765625,72.97425079345703,,,P,575417685002295,0
Raw,1727334661422,904479236000000,18,0.0,-1410465400186390297,-0.1744537353515625,34.50978692853823,-0.32658848635075055,9.65790204056439,336,38,0.0,16399,371465297044122,7,36.2,-2.2262895107269287,0.09864597767591476,16,0.0,0.0,1575420030,,,,0,0.0,5,-55.67,29.200000000000003,-1558.53759765625,72.97425079345703,,,P,575417685002295,0
Raw,1727334661422,904479236000000,18,0.0,-1410465400186390297,-0.1744537353515625,34.50978692853823,-0.32658848635075055,9.65790204056439,336,41,0.0,16399,371465342531658,4,41.4,-180.36508178710938,0.060308683663606644,16,0.0,0.0,1575420030,,,,0,0.0,5,-55.67,34.4,-1558.53759765625,72.97425079345703,,,P,575417685002295,0
Agc,1727334661422,904479236000000,18,0.0,-1410465400186390297,-0.1744537353515625,34.50978692853823,-0.32658848635075055,9.65790204056439,336,-51.91,1575420000,1
Agc,1727334661422,904479236000000,18,0.0,-1410465400186390297,-0.1744537353515625,34.50978692853823,-0.32658848635075055,9.65790204056439,336,-51.91,1575420000,4
Agc,1727334661422,904479236000000,18,0.0,-1410465400186390297,-0.1744537353515625,34.50978692853823,-0.32658848635075055,9.65790204056439,336,-54.66,1602000000,3
Agc,1727334661422,904479236000000,18,0.0,-1410465400186390297,-0.1744537353515625,34.50978692853823,-0.32658848635075055,9.65790204056439,336,-60.68,1561098000,5
Agc,1727334661422,904479236000000,18,0.0,-1410465400186390297,-0.1744537353515625,34.50978692853823,-0.32658848635075055,9.65790204056439,336,-55.67,1575420000,6
Agc,1727334661422,904479236000000,18,0.0,-1410465400186390297,-0.1744537353515625,34.50978692853823,-0.32658848635075055,9.65790204056439,336,-40.44,1176450000,1
Agc,1727334661422,904479236000000,18,0.0,-1410465400186390297,-0.1744537353515625,34.50978692853823,-0.32658848635075055,9.65790204056439,336,-40.44,1176450000,4
Agc,1727334661422,904479236000000,18,0.0,-1410465400186390297,-0.1744537353515625,34.50978692853823,-0.32658848635075055,9.65790204056439,336,-40.44,1176450000,6
Agc,1727334661422,904479236000000,18,0.0,-1410465400186390297,-0.1744537353515625,34.50978692853823,-0.32658848635075055,9.65790204056439,336,-40.44,1176450000,5
Agc,1727334661422,904479236000000,18,0.0,-1410465400186390297,-0.1744537353515625,34.50978692853823,-0.32658848635075055,9.65790204056439,336,-55.67,1575420000,5
Status,,66,0,1,2,1575420030,35.90,309.24316,22.409986,1,1,0,30.9
Status,,66,1,1,10,1575420030,38.20,81.69651,47.826553,1,1,1,33.2
Status,,66,2,1,16,1575420030,18.30,187.52747,11.773935,0,1,0,13.3
Status,,66,3,1,21,1575420030,36.30,297.09418,36.86742,1,1,1,31.3
Status,,66,4,1,23,1575420030,20.80,115.590614,18.636345,0,1,1,15.8
Status,,66,5,1,25,1575420030,22.20,63.44977,12.754845,1,1,0,17.2
Status,,66,6,1,26,1575420030,20.00,160.5589,34.402237,0,1,1,15.0
Status,,66,7,1,27,1575420030,19.90,210.13385,11.818553,1,1,1,14.9
Status,,66,8,1,28,1575420030,23.80,19.138947,64.52497,1,1,1,18.8
Status,,66,9,1,31,1575420030,25.90,234.87964,72.22465,1,1,1,20.9
Status,,66,10,1,32,1575420030,30.30,27.58746,28.800964,1,1,1,25.3
Status,,66,11,4,194,1575420030,23.20,88.28709,13.518235,1,1,0,18.2
Status,,66,12,4,196,1575420030,31.40,79.16972,30.036478,1,1,0,26.4
Status,,66,13,2,128,1575420030,32.60,0.0,0.0,0,0,0,27.6
Status,,66,14,3,14,1598062460,31.60,144.86435,51.553246,1,1,0,26.6
Status,,66,15,3,2,1599750020,18.30,64.18298,9.994038,0,1,0,13.3
Status,,66,16,3,18,1600312450,30.90,248.23445,41.69081,1,1,0,25.9
Status,,66,17,3,13,1600875010,31.70,53.902664,35.885067,0,1,0,26.7
Status,,66,18,3,17,1604249980,19.80,193.46922,22.576744,0,1,0,14.8
Status,,66,19,3,3,1604812540,37.00,13.885383,25.468828,0,1,0,32.0
Status,,66,20,3,4,1605374980,39.30,323.63617,14.961362,1,1,0,34.3
Status,,66,21,5,60,1561097980,34.30,168.27087,75.49224,1,1,1,29.3
Status,,66,22,5,41,1561097980,34.90,354.9578,36.63063,0,1,0,29.9
Status,,66,23,5,38,1561097980,30.10,116.133286,40.651188,1,1,1,25.1
Status,,66,24,5,28,1561097980,34.80,217.40475,32.73135,1,1,1,29.8
Status,,66,25,5,27,1561097980,31.40,269.84467,26.615492,1,1,0,26.4
Status,,66,26,5,25,1561097980,39.20,72.366295,57.09865,1,1,1,34.2
Status,,66,27,5,23,1561097980,26.60,180.65318,51.391285,1,1,1,21.6
Status,,66,28,5,14,1561097980,27.70,80.5985,16.313122,1,1,0,22.7
Status,,66,29,5,13,1561097980,35.20,81.59979,62.430298,1,1,1,30.2
Status,,66,30,5,8,1561097980,21.00,101.57217,51.107533,1,1,0,16.0
Status,,66,31,5,7,1561097980,22.20,145.12589,16.096,1,1,0,17.2
Status,,66,32,5,5,1561097980,39.70,241.14139,64.63034,1,1,1,34.7
Status,,66,33,5,3,1561097980,24.30,107.962685,49.369415,1,1,1,19.3
Status,,66,34,5,2,1561097980,25.00,147.72586,75.58351,1,1,0,20.0
Status,,66,35,6,4,1575420030,36.60,15.65272,35.00507,1,1,1,31.6
Status,,66,36,6,6,1575420030,37.20,342.7113,41.803,1,1,1,32.2
Status,,66,37,6,9,1575420030,34.10,311.9134,36.527027,1,1,1,29.1
Status,,66,38,6,10,1575420030,36.40,197.6621,61.699894,1,1,1,31.4
Status,,66,39,6,11,1575420030,33.50,269.30774,65.380264,0,1,0,28.5
Status,,66,40,6,31,1575420030,20.80,138.97244,32.71404,1,1,0,15.8
Status,,66,41,6,36,1575420030,22.10,316.87494,23.947157,1,1,0,17.1
Status,,66,42,1,10,1176450050,25.40,81.69651,47.826553,1,1,1,20.4
Status,,66,43,1,23,1176450050,21.80,115.590614,18.636345,1,1,1,16.8
Status,,66,44,1,26,1176450050,20.60,160.5589,34.402237,1,1,1,15.6
Status,,66,45,1,28,1176450050,36.20,19.138947,64.52497,1,1,1,31.2
Status,,66,46,1,32,1176450050,32.30,27.58746,28.800964,1,1,1,27.3
Status,,66,47,4,196,1176450050,27.60,79.16972,30.036478,1,1,0,22.6
Status,,66,48,6,4,1176450050,22.60,15.65272,35.00507,1,1,1,17.6
Status,,66,49,6,6,1176450050,28.60,342.7113,41.803,1,1,1,23.6
Status,,66,50,6,9,1176450050,28.40,311.9134,36.527027,1,1,1,23.4
Status,,66,51,6,10,1176450050,29.90,197.6621,61.699894,1,1,1,24.9
Status,,66,52,6,11,1176450050,26.50,269.30774,65.380264,0,1,0,21.5
Status,,66,53,6,36,1176450050,20.90,316.87494,23.947157,1,1,0,15.9
Status,,66,54,5,23,1176450050,31.10,180.65318,51.391285,1,1,1,26.1
Status,,66,55,5,25,1176450050,30.10,72.366295,57.09865,1,1,1,25.1
Status,,66,56,5,27,1176450050,16.70,269.84467,26.615492,1,1,0,11.7
Status,,66,57,5,28,1176450050,21.10,217.40475,32.73135,1,1,1,16.1
Status,,66,58,5,38,1176450050,22.20,116.133286,40.651188,1,1,1,17.2
Status,,66,59,5,23,1575420030,37.00,180.65318,51.391285,1,1,1,32.0
Status,,66,60,5,24,1575420030,19.80,41.881912,10.430852,1,1,0,14.8
Status,,66,61,5,25,1575420030,37.60,72.366295,57.09865,1,1,1,32.6
Status,,66,62,5,27,1575420030,29.20,269.84467,26.615492,1,1,0,24.2
Status,,66,63,5,28,1575420030,34.20,217.40475,32.73135,1,1,1,29.2
Status,,66,64,5,38,1575420030,28.90,116.133286,40.651188,1,1,1,23.9
Status,,66,65,5,41,1575420030,37.50,354.9578,36.63063,0,1,0,32.5
Raw,1727334662422,904480236000000,18,0.0,-1410465400186390296,-0.5784072875976562,28.859114536317065,0.04730249816356129,9.61518920805415,336,2,0.0,16399,371480342333662,14,40.9,-411.78448486328125,0.049995653331279755,16,0.0,0.0,1575420030,,,,0,0.0,1,-51.93,35.9,0.0,0.0,,,C,575418676933180,0
Raw,1727334662422,904480236000000,18,0.0,-1410465400186390296,-0.5784072875976562,28.859114536317065,0.04730249816356129,9.61518920805415,336,10,0.0,16399,371480350989603,11,43.2,28.490318298339844,0.03519833832979202,16,0.0,0.0,1575420030,,,,0,0.0,1,-51.93,38.2,0.0,0.0,,,C,575418676933180,0
Raw,1727334662422,904480236000000,18,0.0,-1410465400186390296,-0.5784072875976562,28.859114536317065,0.04730249816356129,9.61518920805415,336,16,0.0,16399,371480339861514,122,23.3,-514.5065307617188,4.340000152587891,16,0.0,0.0,1575420030,,,,0,0.0,1,-51.93,18.3,0.0,0.0,,,C,575418676933180,0
Raw,1727334662422,904480236000000,18,0.0,-1410465400186390296,-0.5784072875976562,28.859114536317065,0.04730249816356129,9.61518920805415,336,21,0.0,16399,371480346021825,13,41.3,-225.08802795410156,0.04289195314049721,16,0.0,0.0,1575420030,,,,0,0.0,1,-51.93,36.3,0.0,0.0,,,C,575418676933180,0
Raw,1727334662422,904480236000000,18,0.0,-1410465400186390296,-0.5784072875976562,28.859114536317065,0.04730249816356129,9.61518920805415,336,23,0.0,16399,371480343678362,92,25.8,385.01165771484375,4.156000137329102,16,0.0,0.0,1575420030,,,,0,0.0,1,-51.93,20.8,0.0,0.0,,,C,575418676933180,0
Raw,1727334662422,904480236000000,18,0.0,-1410465400186390296,-0.5784072875976562,28.859114536317065,0.04730249816356129,9.61518920805415,336,26,0.0,16399,371480347980548,92,25.0,-487.5989990234375,2.617000102996826,16,0.0,0.0,1575420030,,,,0,0.0,1,-51.93,20.0,0.0,0.0,,,C,575418676933180,0
Raw,1727334662422,904480236000000,18,0.0,-1410465400186390296,-0.5784072875976562,28.859114536317065,0.04730249816356129,9.61518920805415,336,28,0.0,16399,371480353059459,61,28.8,312.43365478515625,0.9239999651908875,16,0.0,0.0,1575420030,,,,0,0.0,1,-51.93,23.8,0.0,0.0,,,C,575418676933180,0
Raw,1727334662422,904480236000000,18,0.0,-1410465400186390296,-0.5784072875976562,28.859114536317065,0.04730249816356129,9.61518920805415,336,31,0.0,16399,371480354841039,46,30.9,-184.2803955078125,0.7924999594688416,16,0.0,0.0,1575420030,,,,0,0.0,1,-51.93,25.9,0.0,0.0,,,C,575418676933180,0
Raw,1727334662422,904480236000000,18,0.0,-1410465400186390296,-0.5784072875976562,28.859114536317065,0.04730249816356129,9.61518920805415,336,32,0.0,16399,371480344910050,24,35.3,206.8510284423828,2.3970272541046143,16,0.0,0.0,1575420030,,,,0,0.0,1,-51.93,30.299999999999997,0.0,0.0,,,C,575418676933180,0
Raw,1727334662422,904480236000000,18,0.0,-1410465400186390296,-0.5784072875976562,28.859114536317065,0.04730249816356129,9.61518920805415,336,196,0.0,16399,371480289235014,21,36.4,-254.61756896972656,0.6449720859527588,16,0.0,0.0,1575420030,,,,0,0.0,4,-51.93,31.4,0.0,0.0,,,C,575418676933180,0
Raw,1727334662422,904480236000000,18,0.0,-1410465400186390296,-0.5784072875976562,28.859114536317065,0.04730249816356129,9.61518920805415,336,14,0.0,49359,36662355015299,21,35.6,-452.0467529296875,0.6272587180137634,16,0.0,0.0,1598062460,,,,0,0.0,3,-54.66,31.6,3775.885009765625,10.622779846191406,,,C,575418676933180,0
Raw,1727334662422,904480236000000,18,0.0,-1410465400186390296,-0.5784072875976562,28.859114536317065,0.04730249816356129,9.61518920805415,336,2,0.0,49359,36662343623080,122,22.3,86.94403076171875,4.466000556945801,16,0.0,0.0,1599750020,,,,0,0.0,3,-54.66,18.3,3775.885009765625,10.622779846191406,,,C,575418676933180,0
Raw,1727334662422,904480236000000,18,0.0,-1410465400186390296,-0.5784072875976562,28.859114536317065,0.04730249816356129,9.61518920805415,336,18,0.0,49359,36662353045565,24,34.9,319.8203125,2.9088265895843506,16,0.0,0.0,1600312450,,,,0,0.0,3,-54.66,30.9,3775.885009765625,10.622779846191406,,,C,575418676933180,0
Raw,1727334662422,904480236000000,18,0.0,-1410465400186390296,-0.5784072875976562,28.859114536317065,0.04730249816356129,9.61518920805415,336,13,0.0,49359,36662351489186,21,35.7,321.7948913574219,0.07038996368646622,16,0.0,0.0,1600875010,,,,0,0.0,3,-54.66,31.700000000000003,3775.885009765625,10.622779846191406,,,C,575418676933180,0
Raw,1727334662422,904480236000000,18,0.0,-1410465400186390296,-0.5784072875976562,28.859114536317065,0.04730249816356129,9.61518920805415,336,17,0.0,49359,36662347998925,106,23.8,689.0601196289062,4.3535003662109375,16,0.0,0.0,1604249980,,,,0,0.0,3,-54.66,19.8,3775.885009765625,10.622779846191406,,,C,575418676933180,0
Raw,1727334662422,904480236000000,18,0.0,-1410465400186390296,-0.5784072875976562,28.859114536317065,0.04730249816356129,9.61518920805415,336,3,0.0,49359,36662348640521,12,41.0,-64.8571548461914,0.038860250264406204,16,0.0,0.0,1604812540,,,,0,0.0,3,-54.66,37.0,3775.885009765625,10.622779846191406,,,C,575418676933180,0
Raw,1727334662422,904480236000000,18,0.0,-1410465400186390296,-0.5784072875976562,28.859114536317065,0.04730249816356129,9.61518920805415,336,4,0.0,49359,36662345471243,10,43.3,-158.81558227539062,0.04178903251886368,16,0.0,0.0,1605374980,,,,0,0.0,3,-54.66,39.3,3775.885009765625,10.622779846191406,,,C,575418676933180,0
Raw,1727334662422,904480236000000,18,0.0,-1410465400186390296,-0.5784072875976562,28.859114536317065,0.04730249816356129,9.61518920805415,336,60,0.0,16399,371466302495474,16,38.6,4.186460971832275,1.6589000225067139,16,0.0,0.0,1561097980,,,,0,0.0,5,-60.68,34.300000000000004,-1545.16748046875,8.607829093933105,,,I,575418676933180,0
Raw,1727334662422,904480236000000,18,0.0,-1410465400186390296,-0.5784072875976562,28.859114536317065,0.04730249816356129,9.61518920805415,336,41,0.0,16399,371466342532233,16,39.2,-180.09567260742188,0.05503739044070244,16,0.0,0.0,1561097980,,,,0,0.0,5,-60.68,34.900000000000006,-1545.16748046875,8.607829093933105,,,I,575418676933180,0
Raw,1727334662422,904480236000000,18,0.0,-1410465400186390296,-0.5784072875976562,28.859114536317065,0.04730249816356129,9.61518920805415,336,38,0.0,16399,371466297044091,24,34.4,-1.6961699724197388,2.975292921066284,16,0.0,0.0,1561097980,,,,0,0.0,5,-60.68,30.099999999999998,-1545.16748046875,8.607829093933105,,,I,575418676933180,0
Raw,1727334662422,904480236000000,18,0.0,-1410465400186390296,-0.5784072875976562,28.859114536317065,0.04730249816356129,9.61518920805415,336,28,0.0,16399,371466342870934,16,39.1,365.59063720703125,0.05503739044070244,16,0.0,0.0,1561097980,,,,0,0.0,5,-60.68,34.800000000000004,-1545.16748046875,8.607829093933105,,,I,575418676933180,0
Raw,1727334662422,904480236000000,18,0.0,-1410465400186390296,-0.5784072875976562,28.859114536317065,0.04730249816356129,9.61518920805415,336,27,0.0,16399,371466341179906,21,35.7,77.5402603149414,0.0864955484867096,16,0.0,0.0,1561097980,,,,0,0.0,5,-60.68,31.400000000000002,-1545.16748046875,8.607829093933105,,,I,575418676933180,0
Raw,1727334662422,904480236000000,18,0.0,-1410465400186390296,-0.5784072875976562,28.859114536317065,0.04730249816356129,9.61518920805415,336,25,0.0,16399,371466348447233,10,43.5,118.78772735595703,0.03745322301983833,16,0.0,0.0,1561097980,,,,0,0.0,5,-60.68,39.2,-1545.16748046875,8.607829093933105,,,I,575418676933180,0
Raw,1727334662422,904480236000000,18,0.0,-1410465400186390296,-0.5784072875976562,28.859114536317065,0.04730249816356129,9.61518920805415,336,23,0.0,16399,371466346082596,40,30.9,-424.2152404785156,0.8044999837875366,16,0.0,0.0,1561097980,,,,0,0.0,5,-60.68,26.599999999999998,-1545.16748046875,8.607829093933105,,,I,575418676933180,0
Raw,1727334662422,904480236000000,18,0.0,-1410465400186390296,-0.5784072875976562,28.859114536317065,0.04730249816356129,9.61518920805415,336,14,0.0,16399,371466337202568,35,32.0,127.5910415649414,0.6679999828338623,16,0.0,0.0,1561097980,,,,0,0.0,5,-60.68,27.7,-1545.16748046875,8.607829093933105,,,I,575418676933180,0
Raw,1727334662422,904480236000000,18,0.0,-1410465400186390296,-0.5784072875976562,28.859114536317065,0.04730249816356129,9.61518920805415,336,13,0.0,16399,371466301784057,14,39.5,-114.67501831054688,0.05158277228474617,16,0.0,0.0,1561097980,,,,0,0.0,5,-60.68,35.2,-1545.16748046875,8.607829093933105,,,I,575418676933180,0
Raw,1727334662422,904480236000000,18,0.0,-1410465400186390296,-0.5784072875976562,28.859114536317065,0.04730249816356129,9.61518920805415,336,5,0.0,16399,371466300879227,10,44.0,-0.8052626848220825,0.17312739789485931,16,0.0,0.0,1561097980,,,,0,0.0,5,-60.68,39.7,-1545.16748046875,8.607829093933105,,,I,575418676933180,0
Raw,1727334662422,904480236000000,18,0.0,-1410465400186390296,-0.5784072875976562,28.859114536317065,0.04730249816356129,9.61518920805415,336,4,0.0,23567,371480337346218,13,40.9,183.40155029296875,0.06539195775985718,16,0.0,0.0,1575420030,,,,0,0.0,6,-55.71,36.6,-1464.999267578125,8.728238105773926,,,C,575418676933180,0
Raw,1727334662422,904480236000000,18,0.0,-1410465400186390296,-0.5784072875976562,28.859114536317065,0.04730249816356129,9.61518920805415,336,6,0.0,23567,371480339115733,12,41.5,111.59183502197266,0.03749757260084152,16,0.0,0.0,1575420030,,,,0,0.0,6,-55.71,37.2,-1464.999267578125,8.728238105773926,,,C,575418676933180,0
Raw,1727334662422,904480236000000,18,0.0,-1410465400186390296,-0.5784072875976562,28.859114536317065,0.04730249816356129,9.61518920805415,336,9,0.0,23567,371480337222845,16,38.4,33.87923049926758,0.06780868768692017,16,0.0,0.0,1575420030,,,,0,0.0,6,-55.71,34.1,-1464.999267578125,8.728238105773926,,,C,575418676933180,0
Raw,1727334662422,904480236000000,18,0.0,-1410465400186390296,-0.5784072875976562,28.859114536317065,0.04730249816356129,9.61518920805415,336,10,0.0,23567,371480342276963,13,40.7,304.16290283203125,0.03689195215702057,16,0.0,0.0,1575420030,,,,0,0.0,6,-55.71,36.400000000000006,-1464.999267578125,8.728238105773926,,,C,575418676933180,0
Raw,1727334662422,904480236000000,18,0.0,-1410465400186390296,-0.5784072875976562,28.859114536317065,0.04730249816356129,9.61518920805415,336,11,0.0,23567,371480344915325,17,37.8,31.781494140625,0.06790715456008911,16,0.0,0.0,1575420030,,,,0,0.0,6,-55.71,33.5,-1464.999267578125,8.728238105773926,,,C,575418676933180,0
Raw,1727334662422,904480236000000,18,0.0,-1410465400186390296,-0.5784072875976562,28.859114536317065,0.04730249816356129,9.61518920805415,336,36,0.0,23567,371480333915793,70,26.4,-391.3199157714844,1.8369998931884766,16,0.0,0.0,1575420030,,,,0,0.0,6,-55.71,22.099999999999998,-1464.999267578125,8.728238105773926,,,C,575418676933180,0
Raw,1727334662422,904480236000000,18,0.0,-1410465400186390296,-0.5784072875976562,28.859114536317065,0.04730249816356129,9.61518920805415,336,10,0.0,81935,371480350989560,10,30.4,28.502294540405273,0.0757475197315216,16,0.0,0.0,1176450050,,,,0,0.0,1,-40.68,25.4,39.554744720458984,4.4807562828063965,,,Q,575418676933180,0
Raw,1727334662422,904480236000000,18,0.0,-1410465400186390296,-0.5784072875976562,28.859114536317065,0.04730249816356129,9.61518920805415,336,23,0.0,81935,371480343678360,16,26.8,385.6567687988281,1.065999984741211,16,0.0,0.0,1176450050,,,,0,0.0,1,-40.68,21.8,39.554744720458984,4.4807562828063965,,,Q,575418676933180,0
Raw,1727334662422,904480236000000,18,0.0,-1410465400186390296,-0.5784072875976562,28.859114536317065,0.04730249816356129,9.61518920805415,336,26,0.0,81935,371480347980526,18,25.6,-487.4605407714844,1.1619999408721924,16,0.0,0.0,1176450050,,,,0,0.0,1,-40.68,20.6,39.554744720458984,4.4807562828063965,,,Q,575418676933180,0
Raw,1727334662422,904480236000000,18,0.0,-1410465400186390296,-0.5784072875976562,28.859114536317065,0.04730249816356129,9.61518920805415,336,28,0.0,81935,371480353059443,3,41.2,312.8453369140625,0.03223791718482971,16,0.0,0.0,1176450050,,,,0,0.0,1,-40.68,36.2,39.554744720458984,4.4807562828063965,,,Q,575418676933180,0
Raw,1727334662422,904480236000000,18,0.0,-1410465400186390296,-0.5784072875976562,28.859114536317065,0.04730249816356129,9.61518920805415,336,32,0.0,81935,371480344909924,5,37.3,207.05345153808594,0.02704531140625477,16,0.0,0.0,1176450050,,,,0,0.0,1,-40.68,32.3,39.554744720458984,4.4807562828063965,,,Q,575418676933180,0
Raw,1727334662422,904480236000000,18,0.0,-1410465400186390296,-0.5784072875976562,28.859114536317065,0.04730249816356129,9.61518920805415,336,196,0.0,16399,371480289234971,8,32.6,-254.48117065429688,0.03515689820051193,16,0.0,0.0,1176450050,,,,0,0.0,4,-40.68,27.6,39.554744720458984,4.4807562828063965,,,Q,575418676933180,0
Raw,1727334662422,904480236000000,18,0.0,-1410465400186390296,-0.5784072875976562,28.859114536317065,0.04730249816356129,9.61518920805415,336,4,0.0,81935,371480337346141,14,27.9,183.48892211914062,1.037000060081482,16,0.0,0.0,1176450050,,,,0,0.0,6,-40.68,22.599999999999998,-1443.1099853515625,65.47538757324219,,,Q,575418676933180,0
Raw,1727334662422,904480236000000,18,0.0,-1410465400186390296,-0.5784072875976562,28.859114536317065,0.04730249816356129,9.61518920805415,336,6,0.0,81935,371480339115662,8,33.9,111.60726928710938,0.04768506437540054,16,0.0,0.0,1176450050,,,,0,0.0,6,-40.68,28.599999999999998,-1443.1099853515625,65.47538757324219,,,Q,575418676933180,0
Raw,1727334662422,904480236000000,18,0.0,-1410465400186390296,-0.5784072875976562,28.859114536317065,0.04730249816356129,9.61518920805415,336,9,0.0,81935,371480337222776,8,33.7,33.91795349121094,0.07468506693840027,16,0.0,0.0,1176450050,,,,0,0.0,6,-40.68,28.400000000000002,-1443.1099853515625,65.47538757324219,,,Q,575418676933180,0
Raw,1727334662422,904480236000000,18,0.0,-1410465400186390296,-0.5784072875976562,28.859114536317065,0.04730249816356129,9.61518920805415,336,10,0.0,81935,371480342276930,7,35.2,304.2095947265625,0.06300851702690125,16,0.0,0.0,1176450050,,,,0,0.0,6,-40.68,29.900000000000002,-1443.1099853515625,65.47538757324219,,,Q,575418676933180,0
Raw,1727334662422,904480236000000,18,0.0,-1410465400186390296,-0.5784072875976562,28.859114536317065,0.04730249816356129,9.61518920805415,336,11,0.0,81935,371480344915278,9,31.8,31.848342895507812,0.06637202203273773,16,0.0,0.0,1176450050,,,,0,0.0,6,-40.68,26.5,-1443.1099853515625,65.47538757324219,,,Q,575418676933180,0
Raw,1727334662422,904480236000000,18,0.0,-1410465400186390296,-0.5784072875976562,28.859114536317065,0.04730249816356129,9.61518920805415,336,36,0.0,81935,371480333915705,18,26.2,-391.390380859375,1.0809999704360962,16,0.0,0.0,1176450050,,,,0,0.0,6,-40.68,20.9,-1443.1099853515625,65.47538757324219,,,Q,575418676933180,0
Raw,1727334662422,904480236000000,18,0.0,-1410465400186390296,-0.5784072875976562,28.859114536317065,0.04730249816356129,9.61518920805415,336,23,0.0,16399,371466346082509,6,35.6,-424.29827880859375,0.06608473509550095,16,0.0,0.0,1176450050,,,,0,0.0,5,-40.68,31.1,-1512.070556640625,65.8122787475586,,,Q,575418676933180,0
Raw,1727334662422,904480236000000,18,0.0,-1410465400186390296,-0.5784072875976562,28.859114536317065,0.04730249816356129,9.61518920805415,336,25,0.0,16399,371466348447169,6,34.6,118.7508544921875,0.11152034997940063,16,0.0,0.0,1176450050,,,,0,0.0,5,-40.68,30.1,-1512.070556640625,65.8122787475586,,,Q,575418676933180,0
Raw,1727334662422,904480236000000,18,0.0,-1410465400186390296,-0.5784072875976562,28.859114536317065,0.04730249816356129,9.61518920805415,336,27,0.0,16399,371466341179803,30,21.2,77.46772003173828,3.1430001258850098,16,0.0,0.0,1176450050,,,,0,0.0,5,-40.68,16.7,-1512.070556640625,65.8122787475586,,,Q,575418676933180,0
Raw,1727334662422,904480236000000,18,0.0,-1410465400186390296,-0.5784072875976562,28.859114536317065,0.04730249816356129,9.61518920805415,336,28,0.0,16399,371466342870862,16,25.6,365.4488830566406,1.2144999504089355,16,0.0,0.0,1176450050,,,,0,0.0,5,-40.68,21.1,-1512.070556640625,65.8122787475586,,,Q,575418676933180,0
Raw,1727334662422,904480236000000,18,0.0,-1410465400186390296,-0.5784072875976562,28.859114536317065,0.04730249816356129,9.61518920805415,336,38,0.0,16399,371466297044056,14,26.7,-1.5926752090454102,1.1469999551773071,16,0.0,0.0,1176450050,,,,0,0.0,5,-40.68,22.2,-1512.070556640625,65.8122787475586,,,Q,575418676933180,0
Raw,1727334662422,904480236000000,18,0.0,-1410465400186390296,-0.5784072875976562,28.859114536317065,0.04730249816356129,9.61518920805415,336,23,0.0,16399,371466346082543,3,44.0,-424.2801818847656,0.09299757331609726,16,0.0,0.0,1575420030,,,,0,0.0,5,-55.71,37.0,-1558.5797119140625,61.92666244506836,,,P,575418676933180,0
Raw,1727334662422,904480236000000,18,0.0,-1410465400186390296,-0.5784072875976562,28.859114536317065,0.04730249816356129,9.61518920805415,336,24,0.0,16399,371466336378917,20,26.8,505.9052429199219,2.0455000400543213,16,0.0,0.0,1575420030,,,,0,0.0,5,-55.71,19.8,-1558.5797119140625,61.92666244506836,,,P,575418676933180,0
Raw,1727334662422,904480236000000,18,0.0,-1410465400186390296,-0.5784072875976562,28.859114536317065,0.04730249816356129,9.61518920805415,336,25,0.0,16399,371466348447251,3,44.6,118.77271270751953,0.09599757194519043,16,0.0,0.0,1575420030,,,,0,0.0,5,-55.71,37.6,-1558.5797119140625,61.92666244506836,,,P,575418676933180,0
Raw,1727334662422,904480236000000,18,0.0,-1410465400186390296,-0.5784072875976562,28.859114536317065,0.04730249816356129,9.61518920805415,336,27,0.0,16399,371466341179896,7,36.2,77.54421997070312,0.08964597433805466,16,0.0,0.0,1575420030,,,,0,0.0,5,-55.71,29.200000000000003,-1558.5797119140625,61.92666244506836,,,P,575418676933180,0
Raw,1727334662422,904480236000000,18,0.0,-1410465400186390296,-0.5784072875976562,28.859114536317065,0.04730249816356129,9.61518920805415,336,28,0.0,16399,371466342870935,4,41.2,365.5806884765625,0.09030868113040924,16,0.0,0.0,1575420030,,,,0,0.0,5,-55.71,34.2,-1558.5797119140625,61.92666244506836,,,P,575418676933180,0
Raw,1727334662422,904480236000000,18,0.0,-1410465400186390296,-0.5784072875976562,28.859114536317065,0.04730249816356129,9.61518920805415,336,38,0.0,16399,371466297044137,8,35.9,-1.6746587753295898,0.10020638257265091,16,0.0,0.0,1575420030,,,,0,0.0,5,-55.71,28.9,-1558.5797119140625,61.92666244506836,,,P,575418676933180,0
Raw,1727334662422,904480236000000,18,0.0,-1410465400186390296,-0.5784072875976562,28.859114536317065,0.04730249816356129,9.61518920805415,336,41,0.0,16399,371466342532249,3,44.5,-180.0938720703125,0.056997574865818024,16,0.0,0.0,1575420030,,,,0,0.0,5,-55.71,37.5,-1558.5797119140625,61.92666244506836,,,P,575418676933180,0
Agc,1727334662422,904480236000000,18,0.0,-1410465400186390296,-0.5784072875976562,28.859114536317065,0.04730249816356129,9.61518920805415,336,-51.93,1575420000,1
Agc,1727334662422,904480236000000,18,0.0,-1410465400186390296,-0.5784072875976562,28.859114536317065,0.04730249816356129,9.61518920805415,336,-51.93,1575420000,4
Agc,1727334662422,904480236000000,18,0.0,-1410465400186390296,-0.5784072875976562,28.859114536317065,0.04730249816356129,9.61518920805415,336,-54.66,1602000000,3
Agc,1727334662422,904480236000000,18,0.0,-1410465400186390296,-0.5784072875976562,28.859114536317065,0.04730249816356129,9.61518920805415,336,-60.68,1561098000,5
Agc,1727334662422,904480236000000,18,0.0,-1410465400186390296,-0.5784072875976562,28.859114536317065,0.04730249816356129,9.61518920805415,336,-55.71,1575420000,6
Agc,1727334662422,904480236000000,18,0.0,-1410465400186390296,-0.5784072875976562,28.859114536317065,0.04730249816356129,9.61518920805415,336,-40.68,1176450000,1
Agc,1727334662422,904480236000000,18,0.0,-1410465400186390296,-0.5784072875976562,28.859114536317065,0.04730249816356129,9.61518920805415,336,-40.68,1176450000,4
Agc,1727334662422,904480236000000,18,0.0,-1410465400186390296,-0.5784072875976562,28.859114536317065,0.04730249816356129,9.61518920805415,336,-40.68,1176450000,6
Agc,1727334662422,904480236000000,18,0.0,-1410465400186390296,-0.5784072875976562,28.859114536317065,0.04730249816356129,9.61518920805415,336,-40.68,1176450000,5
Agc,1727334662422,904480236000000,18,0.0,-1410465400186390296,-0.5784072875976562,28.859114536317065,0.04730249816356129,9.61518920805415,336,-55.71,1575420000,5
Status,,68,0,1,2,1575420030,35.30,309.24316,22.409986,1,1,0,30.3
Status,,68,1,1,10,1575420030,37.70,81.69651,47.826553,1,1,1,32.7
Status,,68,2,1,16,1575420030,18.30,187.52747,11.773935,1,1,0,13.3
Status,,68,3,1,21,1575420030,38.70,297.09418,36.86742,1,1,1,33.7
Status,,68,4,1,23,1575420030,22.70,115.590614,18.636345,0,1,1,17.7
Status,,68,5,1,25,1575420030,22.20,63.44977,12.754845,1,1,0,17.2
Status,,68,6,1,26,1575420030,28.60,160.5589,34.402237,0,1,1,23.6
Status,,68,7,1,27,1575420030,19.90,210.13385,11.818553,1,1,1,14.9
Status,,68,8,1,28,1575420030,29.60,19.138947,64.52497,1,1,1,24.6
Status,,68,9,1,31,1575420030,30.50,234.87964,72.22465,1,1,1,25.5
Status,,68,10,1,32,1575420030,37.60,27.58746,28.800964,1,1,1,32.6
Status,,68,11,4,194,1575420030,22.90,88.28709,13.518235,1,1,0,17.9
Status,,68,12,4,196,1575420030,32.60,79.16972,30.036478,1,1,0,27.6
Status,,68,13,2,128,1575420030,32.60,0.0,0.0,0,0,0,27.6
Status,,68,14,3,14,1598062460,22.90,144.86435,51.553246,1,1,0,17.9
Status,,68,15,3,2,1599750020,18.30,64.18298,9.994038,1,1,0,13.3
Status,,68,16,3,18,1600312450,35.70,248.23445,41.69081,1,1,0,30.7
Status,,68,17,3,13,1600875010,30.20,53.902664,35.885067,0,1,0,25.2
Status,,68,18,3,17,1604249980,23.40,193.46922,22.576744,1,1,0,18.4
Status,,68,19,3,3,1604812540,29.20,13.885383,25.468828,0,1,0,24.2
Status,,68,20,3,4,1605374980,39.90,323.63617,14.961362,1,1,0,34.9
Status,,68,21,5,60,1561097980,34.30,168.27087,75.49224,1,1,1,29.3
Status,,68,22,5,41,1561097980,29.30,354.9578,36.63063,0,1,0,24.3
Status,,68,23,5,38,1561097980,26.90,116.133286,40.651188,1,1,1,21.9
Status,,68,24,5,28,1561097980,34.00,217.40475,32.73135,1,1,1,29.0
Status,,68,25,5,27,1561097980,26.60,269.84467,26.615492,1,1,0,21.6
Status,,68,26,5,25,1561097980,37.10,72.366295,57.09865,1,1,1,32.1
Status,,68,27,5,23,1561097980,37.60,180.65318,51.391285,1,1,1,32.6
Status,,68,28,5,14,1561097980,29.30,80.5985,16.313122,1,1,0,24.3
Status,,68,29,5,13,1561097980,34.40,81.59979,62.430298,1,1,1,29.4
Status,,68,30,5,8,1561097980,24.10,101.57217,51.107533,1,1,0,19.1
Status,,68,31,5,7,1561097980,22.20,145.12589,16.096,1,1,0,17.2
Status,,68,32,5,5,1561097980,36.10,241.14139,64.63034,1,1,1,31.1
Status,,68,33,5,3,1561097980,27.80,107.962685,49.369415,1,1,1,22.8
Status,,68,34,5,2,1561097980,26.20,147.72586,75.58351,1,1,0,21.2
Status,,68,35,6,4,1575420030,31.80,15.65272,35.00507,1,1,1,26.8
Status,,68,36,6,6,1575420030,35.50,342.7113,41.803,1,1,1,30.5
Status,,68,37,6,9,1575420030,33.30,311.9134,36.527027,1,1,1,28.3
Status,,68,38,6,10,1575420030,36.80,197.6621,61.699894,1,1,1,31.8
Status,,68,39,6,11,1575420030,33.10,269.30774,65.380264,0,1,0,28.1
Status,,68,40,6,12,1575420030,15.80,171.22789,41.508186,0,1,1,10.8
Status,,68,41,6,31,1575420030,20.80,138.97244,32.71404,1,1,0,15.8
Status,,68,42,6,36,1575420030,22.60,316.87494,23.947157,1,1,0,17.6
Status,,68,43,1,10,1176450050,23.10,81.69651,47.826553,1,1,1,18.1
Status,,68,44,1,23,1176450050,21.80,115.590614,18.636345,1,1,1,16.8
Status,,68,45,1,26,1176450050,20.60,160.5589,34.402237,1,1,1,15.6
Status,,68,46,1,28,1176450050,35.10,19.138947,64.52497,1,1,1,30.1
Status,,68,47,1,32,1176450050,32.40,27.58746,28.800964,1,1,1,27.4
Status,,68,48,4,196,1176450050,27.60,79.16972,30.036478,1,1,0,22.6
Status,,68,49,6,4,1176450050,26.40,15.65272,35.00507,1,1,1,21.4
Status,,68,50,6,6,1176450050,26.00,342.7113,41.803,1,1,1,21.0
Status,,68,51,6,9,1176450050,25.70,311.9134,36.527027,1,1,1,20.7
Status,,68,52,6,10,1176450050,28.70,197.6621,61.699894,1,1,1,23.7
Status,,68,53,6,11,1176450050,25.90,269.30774,65.380264,0,1,0,20.9
Status,,68,54,6,36,1176450050,20.90,316.87494,23.947157,1,1,0,15.9
Status,,68,55,5,23,1176450050,25.80,180.65318,51.391285,1,1,1,20.8
Status,,68,56,5,25,1176450050,24.10,72.366295,57.09865,1,1,1,19.1
Status,,68,57,5,27,1176450050,16.70,269.84467,26.615492,1,1,0,11.7
Status,,68,58,5,28,1176450050,21.10,217.40475,32.73135,1,1,1,16.1
Status,,68,59,5,38,1176450050,22.70,116.133286,40.651188,1,1,1,17.7
Status,,68,60,5,41,1176450050,18.00,354.9578,36.63063,0,1,0,13.0
Status,,68,61,5,23,1575420030,38.80,180.65318,51.391285,1,1,1,33.8
Status,,68,62,5,24,1575420030,19.80,41.881912,10.430852,1,1,0,14.8
Status,,68,63,5,25,1575420030,36.90,72.366295,57.09865,1,1,1,31.9
Status,,68,64,5,27,1575420030,22.30,269.84467,26.615492,1,1,0,17.3
Status,,68,65,5,28,1575420030,32.00,217.40475,32.73135,1,1,1,27.0
Status,,68,66,5,38,1575420030,26.50,116.133286,40.651188,1,1,1,21.5
Status,,68,67,5,41,1575420030,33.30,354.9578,36.63063,0,1,0,28.3
Raw,1727334663422,904481236000000,18,0.0,-1410465400186390290,-0.6775474548339844,25.20781163184438,1.4335878133258306,9.62882823906537,336,2,0.0,16399,371481342335060,14,40.3,-412.1384582519531,0.049995653331279755,16,0.0,0.0,1575420030,,,,0,0.0,1,-52.1,35.3,0.0,0.0,,,C,575419683192764,0
Raw,1727334663422,904481236000000,18,0.0,-1410465400186390290,-0.6775474548339844,25.20781163184438,1.4335878133258306,9.62882823906537,336,10,0.0,16399,371481350989489,12,42.7,28.511642456054688,0.03599757328629494,16,0.0,0.0,1575420030,,,,0,0.0,1,-52.1,37.7,0.0,0.0,,,C,575419683192764,0
Raw,1727334663422,904481236000000,18,0.0,-1410465400186390290,-0.6775474548339844,25.20781163184438,1.4335878133258306,9.62882823906537,336,21,0.0,16399,371481346022601,11,43.7,-225.39199829101562,0.04119833931326866,16,0.0,0.0,1575420030,,,,0,0.0,1,-52.1,38.7,0.0,0.0,,,C,575419683192764,0
Raw,1727334663422,904481236000000,18,0.0,-1410465400186390290,-0.6775474548339844,25.20781163184438,1.4335878133258306,9.62882823906537,336,23,0.0,16399,371481343677071,70,27.7,385.2304992675781,1.0190000534057617,16,0.0,0.0,1575420030,,,,0,0.0,1,-52.1,22.7,0.0,0.0,,,C,575419683192764,0
Raw,1727334663422,904481236000000,18,0.0,-1410465400186390290,-0.6775474548339844,25.20781163184438,1.4335878133258306,9.62882823906537,336,26,0.0,16399,371481347982168,31,33.6,-487.5989990234375,0.6330000162124634,16,0.0,0.0,1575420030,,,,0,0.0,1,-52.1,28.6,0.0,0.0,,,C,575419683192764,0
Raw,1727334663422,904481236000000,18,0.0,-1410465400186390290,-0.6775474548339844,25.20781163184438,1.4335878133258306,9.62882823906537,336,28,0.0,16399,371481353058451,27,34.6,312.3955993652344,0.5839999914169312,16,0.0,0.0,1575420030,,,,0,0.0,1,-52.1,29.6,0.0,0.0,,,C,575419683192764,0
Raw,1727334663422,904481236000000,18,0.0,-1410465400186390290,-0.6775474548339844,25.20781163184438,1.4335878133258306,9.62882823906537,336,31,0.0,16399,371481354841568,24,35.5,-184.44786071777344,4.094670295715332,16,0.0,0.0,1575420030,,,,0,0.0,1,-52.1,30.5,0.0,0.0,,,C,575419683192764,0
Raw,1727334663422,904481236000000,18,0.0,-1410465400186390290,-0.6775474548339844,25.20781163184438,1.4335878133258306,9.62882823906537,336,32,0.0,16399,371481344909365,12,42.6,206.73158264160156,0.044997572898864746,16,0.0,0.0,1575420030,,,,0,0.0,1,-52.1,37.6,0.0,0.0,,,C,575419683192764,0
Raw,1727334663422,904481236000000,18,0.0,-1410465400186390290,-0.6775474548339844,25.20781163184438,1.4335878133258306,9.62882823906537,336,194,0.0,16399,371481287298378,70,27.9,63.32973861694336,2.447000026702881,16,0.0,0.0,1575420030,,,,0,0.0,4,-52.1,22.9,0.0,0.0,,,C,575419683192764,0
Raw,1727334663422,904481236000000,18,0.0,-1410465400186390290,-0.6775474548339844,25.20781163184438,1.4335878133258306,9.62882823906537,336,196,0.0,16399,371481289235886,19,37.6,-254.8035888671875,0.6265896558761597,16,0.0,0.0,1575420030,,,,0,0.0,4,-52.1,32.6,0.0,0.0,,,C,575419683192764,0
Raw,1727334663422,904481236000000,18,0.0,-1410465400186390290,-0.6775474548339844,25.20781163184438,1.4335878133258306,9.62882823906537,336,14,0.0,49359,36663355016747,70,26.9,-452.10986328125,1.0809999704360962,16,0.0,0.0,1598062460,,,,0,0.0,3,-54.88,22.9,3775.771484375,10.461152076721191,,,C,575419683192764,0
Raw,1727334663422,904481236000000,18,0.0,-1410465400186390290,-0.6775474548339844,25.20781163184438,1.4335878133258306,9.62882823906537,336,18,0.0,49359,36663353044475,14,39.7,319.6366271972656,0.033347953110933304,16,0.0,0.0,1600312450,,,,0,0.0,3,-54.88,35.7,3775.771484375,10.461152076721191,,,C,575419683192764,0
Raw,1727334663422,904481236000000,18,0.0,-1410465400186390290,-0.6775474548339844,25.20781163184438,1.4335878133258306,9.62882823906537,336,13,0.0,49359,36663351488170,24,34.2,321.8996276855469,1.7872055768966675,16,0.0,0.0,1600875010,,,,0,0.0,3,-54.88,30.200000000000003,3775.771484375,10.461152076721191,,,C,575419683192764,0
Raw,1727334663422,904481236000000,18,0.0,-1410465400186390290,-0.6775474548339844,25.20781163184438,1.4335878133258306,9.62882823906537,336,17,0.0,49359,36663347996803,61,27.4,687.920166015625,1.0130000114440918,16,0.0,0.0,1604249980,,,,0,0.0,3,-54.88,23.4,3775.771484375,10.461152076721191,,,C,575419683192764,0
Raw,1727334663422,904481236000000,18,0.0,-1410465400186390290,-0.6775474548339844,25.20781163184438,1.4335878133258306,9.62882823906537,336,3,0.0,49359,36663348640770,27,33.2,-64.98130798339844,0.6315000057220459,16,0.0,0.0,1604812540,,,,0,0.0,3,-54.88,29.200000000000003,3775.771484375,10.461152076721191,,,C,575419683192764,0
Raw,1727334663422,904481236000000,18,0.0,-1410465400186390290,-0.6775474548339844,25.20781163184438,1.4335878133258306,9.62882823906537,336,4,0.0,49359,36663345471759,10,43.9,-159.32179260253906,0.04178903251886368,16,0.0,0.0,1605374980,,,,0,0.0,3,-54.88,39.9,3775.771484375,10.461152076721191,,,C,575419683192764,0
Raw,1727334663422,904481236000000,18,0.0,-1410465400186390290,-0.6775474548339844,25.20781163184438,1.4335878133258306,9.62882823906537,336,41,0.0,16399,371467342532848,27,33.6,-179.75856018066406,0.640500009059906,16,0.0,0.0,1561097980,,,,0,0.0,5,-60.62,29.3,-1544.8675537109375,8.522847175598145,,,I,575419683192764,0
Raw,1727334663422,904481236000000,18,0.0,-1410465400186390290,-0.6775474548339844,25.20781163184438,1.4335878133258306,9.62882823906537,336,38,0.0,16399,371467297044063,40,31.2,-2.410095691680908,0.7279999852180481,16,0.0,0.0,1561097980,,,,0,0.0,5,-60.62,26.9,-1544.8675537109375,8.522847175598145,,,I,575419683192764,0
Raw,1727334663422,904481236000000,18,0.0,-1410465400186390290,-0.6775474548339844,25.20781163184438,1.4335878133258306,9.62882823906537,336,28,0.0,16399,371467342869725,16,38.3,365.65850830078125,1.207274317741394,16,0.0,0.0,1561097980,,,,0,0.0,5,-60.62,34.0,-1544.8675537109375,8.522847175598145,,,I,575419683192764,0
Raw,1727334663422,904481236000000,18,0.0,-1410465400186390290,-0.6775474548339844,25.20781163184438,1.4335878133258306,9.62882823906537,336,27,0.0,16399,371467341179671,40,30.9,77.32469940185547,0.8119999766349792,16,0.0,0.0,1561097980,,,,0,0.0,5,-60.62,26.599999999999998,-1544.8675537109375,8.522847175598145,,,I,575419683192764,0
Raw,1727334663422,904481236000000,18,0.0,-1410465400186390290,-0.6775474548339844,25.20781163184438,1.4335878133258306,9.62882823906537,336,25,0.0,16399,371467348446834,12,41.4,118.7777099609375,0.03906635567545891,16,0.0,0.0,1561097980,,,,0,0.0,5,-60.62,37.1,-1544.8675537109375,8.522847175598145,,,I,575419683192764,0
