# 
# Header Description:
# 
# Version: v3.1.0.2 Platform: 14 Manufacturer: samsung Model: SM-S918B GNSS Hardware Model Name: Qualcomm GNSS GEN9
# 
# Raw,utcTimeMillis,TimeNanos,LeapSecond,TimeUncertaintyNanos,FullBiasNanos,BiasNanos,BiasUncertaintyNanos,DriftNanosPerSecond,DriftUncertaintyNanosPerSecond,HardwareClockDiscontinuityCount,Svid,TimeOffsetNanos,State,ReceivedSvTimeNanos,ReceivedSvTimeUncertaintyNanos,Cn0DbHz,PseudorangeRateMetersPerSecond,PseudorangeRateUncertaintyMetersPerSecond,AccumulatedDeltaRangeState,AccumulatedDeltaRangeMeters,AccumulatedDeltaRangeUncertaintyMeters,CarrierFrequencyHz,CarrierCycles,CarrierPhase,CarrierPhaseUncertainty,MultipathIndicator,SnrInDb,ConstellationType,AgcDb,BasebandCn0DbHz,FullInterSignalBiasNanos,FullInterSignalBiasUncertaintyNanos,SatelliteInterSignalBiasNanos,SatelliteInterSignalBiasUncertaintyNanos,CodeType,ChipsetElapsedRealtimeNanos,IsFullTracking
# 
# UncalAccel,utcTimeMillis,elapsedRealtimeNanos,UncalAccelXMps2,UncalAccelYMps2,UncalAccelZMps2,BiasXMps2,BiasYMps2,BiasZMps2
# 
# Accel,utcTimeMillis,elapsedRealtimeNanos,AccelXMps2,AccelYMps2,AccelZMps2
# 
# UncalGyro,utcTimeMillis,elapsedRealtimeNanos,UncalGyroXRadPerSec,UncalGyroYRadPerSec,UncalGyroZRadPerSec,DriftXRadPerSec,DriftYRadPerSec,DriftZRadPerSec
# 
# Gyro,utcTimeMillis,elapsedRealtimeNanos,GyroXRadPerSec,GyroYRadPerSec,GyroZRadPerSec
# 
# UncalMag,utcTimeMillis,elapsedRealtimeNanos,UncalMagXMicroT,UncalMagYMicroT,UncalMagZMicroT,BiasXMicroT,BiasYMicroT,BiasZMicroT
# 
# Mag,utcTimeMillis,elapsedRealtimeNanos,MagXMicroT,MagYMicroT,MagZMicroT
# 
# Pressure,utcTimeMillis,elapsedRealtimeNanos,PressureHpa
# 
# OrientationDeg,utcTimeMillis,elapsedRealtimeNanos,yawDeg,rollDeg,pitchDeg
# 
# Fix,Provider,LatitudeDegrees,LongitudeDegrees,AltitudeMeters,SpeedMps,AccuracyMeters,BearingDegrees,UnixTimeMillis,SpeedAccuracyMps,BearingAccuracyDegrees,elapsedRealtimeNanos,VerticalAccuracyMeters,MockLocation,NumberOfUsedSignals,VerticalSpeedAccuracyMps,SolutionType
# 
# Nav,Svid,Type,Status,MessageId,Sub-messageId,Data(Bytes)
# 
# Status,UnixTimeMillis,SignalCount,SignalIndex,ConstellationType,Svid,CarrierFrequencyHz,Cn0DbHz,AzimuthDegrees,ElevationDegrees,UsedInFix,HasAlmanacData,HasEphemerisData,BasebandCn0DbHz
# 
# Agc,utcTimeMillis,TimeNanos,LeapSecond,TimeUncertaintyNanos,FullBiasNanos,BiasNanos,BiasUncertaintyNanos,DriftNanosPerSecond,DriftUncertaintyNanosPerSecond,HardwareClockDiscontinuityCount,AgcDb,CarrierFrequencyHz,ConstellationType
# 
Status,,72,0,1,2,1575420030,32.60,306.22324,24.416368,1,1,1,27.6
Status,,72,1,1,10,1575420030,32.60,87.931076,47.166843,1,1,1,27.6
Status,,72,2,1,16,1575420030,22.50,185.31236,14.07207,1,1,0,17.5
Status,,72,3,1,21,1575420030,32.30,292.79858,38.24058,1,1,1,27.3
Status,,72,4,1,23,1575420030,25.10,118.94025,16.619663,1,1,1,20.1
Status,,72,5,1,26,1575420030,32.00,157.49365,37.26756,1,1,1,27.0
Status,,72,6,1,28,1575420030,40.60,18.74752,60.44449,1,1,1,35.6
Status,,72,7,1,31,1575420030,33.70,247.55554,74.952034,1,1,1,28.7
Status,,72,8,1,32,1575420030,30.50,31.146574,27.52773,1,1,1,25.5
Status,,72,9,4,195,1575420030,22.10,137.33232,4.1585565,0,1,0,17.1
Status,,72,10,4,196,1575420030,23.50,80.52804,30.314009,1,1,0,18.5
Status,,72,11,3,14,1598062460,37.90,139.96548,55.559692,1,1,0,32.9
Status,,72,12,3,18,1600312450,33.00,242.7273,39.246624,1,1,0,28.0
Status,,72,13,3,13,1600875010,19.50,49.17554,33.640022,0,1,0,14.5
Status,,72,14,3,15,1602000000,18.60,187.19913,16.685816,0,1,0,13.6
Status,,72,15,3,17,1604249980,25.70,191.20529,18.984812,1,1,0,20.7
Status,,72,16,3,3,1604812540,28.10,18.395266,25.832079,0,1,0,23.1
Status,,72,17,3,4,1605374980,24.70,327.67688,15.798752,1,1,0,19.7
Status,,72,18,5,60,1561097980,35.60,168.34195,75.39607,1,1,1,30.6
Status,,72,19,5,59,1561097980,26.80,95.265526,18.805506,1,1,0,21.8
Status,,72,20,5,41,1561097980,36.10,358.62985,37.83034,0,1,0,31.1
Status,,72,21,5,38,1561097980,30.60,119.04224,40.599575,1,1,1,25.6
Status,,72,22,5,32,1561097980,19.70,310.0999,8.510524,1,1,0,14.7
Status,,72,23,5,28,1561097980,32.70,214.25002,30.532698,1,1,1,27.7
Status,,72,24,5,27,1561097980,25.30,265.90793,26.106401,1,1,0,20.3
Status,,72,25,5,25,1561097980,35.90,66.03234,55.69479,1,1,1,30.9
Status,,72,26,5,23,1561097980,32.50,179.95447,55.12098,1,1,1,27.5
Status,,72,27,5,16,1561097980,40.40,23.929611,47.72181,0,1,0,35.4
Status,,72,28,5,13,1561097980,37.80,86.07969,63.494724,1,1,1,32.8
Status,,72,29,5,8,1561097980,32.90,105.34377,51.606968,1,1,0,27.9
Status,,72,30,5,7,1561097980,33.40,144.1436,16.770784,1,1,0,28.4
Status,,72,31,5,6,1561097980,37.20,19.870949,56.35277,0,1,0,32.2
Status,,72,32,5,5,1561097980,35.20,241.10393,64.62199,1,1,1,30.2
Status,,72,33,5,3,1561097980,32.70,108.05172,49.34833,1,1,1,27.7
Status,,72,34,5,2,1561097980,27.10,147.8439,75.5348,1,1,0,22.1
Status,,72,35,6,4,1575420030,24.80,18.642311,33.91931,1,1,1,19.8
Status,,72,36,6,6,1575420030,40.00,346.34534,41.052086,1,1,1,35.0
Status,,72,37,6,9,1575420030,35.30,315.65424,36.325565,1,1,1,30.3
Status,,72,38,6,10,1575420030,36.40,195.84358,58.200157,1,1,1,31.4
Status,,72,39,6,11,1575420030,30.20,260.79416,64.69399,0,1,0,25.2
Status,,72,40,6,12,1575420030,27.60,171.46704,38.262566,1,1,1,22.6
Status,,72,41,6,24,1575420030,17.10,187.20912,14.376276,0,1,0,12.1
Status,,72,42,6,31,1575420030,37.10,136.02664,34.777576,1,1,0,32.1
Status,,72,43,6,36,1575420030,27.50,314.62476,25.974043,1,1,0,22.5
Status,,72,44,1,10,1176450050,24.80,87.931076,47.166843,1,1,1,19.8
Status,,72,45,1,23,1176450050,17.30,118.94025,16.619663,0,1,1,12.3
Status,,72,46,1,26,1176450050,27.00,157.49365,37.26756,1,1,1,22.0
Status,,72,47,1,28,1176450050,33.00,18.74752,60.44449,1,1,1,28.0
Status,,72,48,1,32,1176450050,20.60,31.146574,27.52773,1,1,1,15.6
Status,,72,49,4,194,1176450050,18.50,87.013954,14.303241,1,1,0,13.5
Status,,72,50,6,4,1176450050,15.60,18.642311,33.91931,0,1,1,10.6
Status,,72,51,6,6,1176450050,33.70,346.34534,41.052086,1,1,1,28.7
Status,,72,52,6,9,1176450050,26.80,315.65424,36.325565,1,1,1,21.8
Status,,72,53,6,10,1176450050,25.60,195.84358,58.200157,1,1,1,20.6
Status,,72,54,6,11,1176450050,20.60,260.79416,64.69399,0,1,0,15.6
Status,,72,55,6,12,1176450050,17.10,171.46704,38.262566,1,1,1,12.1
Status,,72,56,6,31,1176450050,20.10,136.02664,34.777576,0,1,0,15.1
Status,,72,57,6,36,1176450050,19.50,314.62476,25.974043,0,1,0,14.5
Status,,72,58,5,23,1176450050,20.90,179.95447,55.12098,1,1,1,15.9
Status,,72,59,5,25,1176450050,21.90,66.03234,55.69479,1,1,1,16.9
Status,,72,60,5,28,1176450050,23.20,214.25002,30.532698,1,1,1,18.2
Status,,72,61,5,32,1176450050,17.90,310.0999,8.510524,1,1,0,12.9
Status,,72,62,5,38,1176450050,17.20,119.04224,40.599575,0,1,1,12.2
Status,,72,63,5,41,1176450050,30.90,358.62985,37.83034,0,1,0,25.9
Status,,72,64,5,23,1575420030,31.00,179.95447,55.12098,1,1,1,26.0
Status,,72,65,5,24,1575420030,22.20,40.41495,8.0257435,1,1,0,17.2
Status,,72,66,5,25,1575420030,33.40,66.03234,55.69479,1,1,1,28.4
Status,,72,67,5,27,1575420030,26.60,265.90793,26.106401,1,1,0,21.6
Status,,72,68,5,28,1575420030,31.90,214.25002,30.532698,1,1,1,26.9
Status,,72,69,5,32,1575420030,20.60,310.0999,8.510524,1,1,0,15.6
Status,,72,70,5,38,1575420030,30.10,119.04224,40.599575,1,1,1,25.1
Status,,72,71,5,41,1575420030,34.60,358.62985,37.83034,0,1,0,29.6
Raw,1727335155428,904973239000000,18,0.0,-1410465400189211374,-0.32754039764404297,37.18240259331651,2.1515648959879847,9.56133849628373,339,2,0.0,16399,371973348802350,19,37.6,-373.418212890625,3.482494831085205,16,0.0,0.0,1575420030,,,,0,0.0,1,-51.86,32.6,0.0,0.0,,,C,575911683421899,0
Raw,1727335155428,904973239000000,18,0.0,-1410465400189211374,-0.32754039764404297,37.18240259331651,2.1515648959879847,9.56133849628373,339,10,0.0,16399,371973356730610,19,37.6,69.35401153564453,0.6160897016525269,16,0.0,0.0,1575420030,,,,0,0.0,1,-51.86,32.6,0.0,0.0,,,C,575911683421899,0
Raw,1727335155428,904973239000000,18,0.0,-1410465400189211374,-0.32754039764404297,37.18240259331651,2.1515648959879847,9.56133849628373,339,21,0.0,16399,371973352180231,19,37.3,-183.45790100097656,1.1929707527160645,16,0.0,0.0,1575420030,,,,0,0.0,1,-51.86,32.3,0.0,0.0,,,C,575911683421899,0
Raw,1727335155428,904973239000000,18,0.0,-1410465400189211374,-0.32754039764404297,37.18240259331651,2.1515648959879847,9.56133849628373,339,23,0.0,16399,371973348837457,46,30.1,418.4748229980469,0.8014999628067017,16,0.0,0.0,1575420030,,,,0,0.0,1,-51.86,25.1,0.0,0.0,,,C,575911683421899,0
Raw,1727335155428,904973239000000,18,0.0,-1410465400189211374,-0.32754039764404297,37.18240259331651,2.1515648959879847,9.56133849628373,339,26,0.0,16399,371973354592682,19,37.0,-473.7114562988281,2.331732749938965,16,0.0,0.0,1575420030,,,,0,0.0,1,-51.86,32.0,0.0,0.0,,,C,575911683421899,0
Raw,1727335155428,904973239000000,18,0.0,-1410465400189211374,-0.32754039764404297,37.18240259331651,2.1515648959879847,9.56133849628373,339,28,0.0,16399,371973358330763,9,45.6,356.0205993652344,0.02180919423699379,16,0.0,0.0,1575420030,,,,0,0.0,1,-51.86,40.6,0.0,0.0,,,C,575911683421899,0
Raw,1727335155428,904973239000000,18,0.0,-1410465400189211374,-0.32754039764404297,37.18240259331651,2.1515648959879847,9.56133849628373,339,31,0.0,16399,371973360916526,17,38.7,-124.20201873779297,1.2010563611984253,16,0.0,0.0,1575420030,,,,0,0.0,1,-51.86,33.7,0.0,0.0,,,C,575911683421899,0
Raw,1727335155428,904973239000000,18,0.0,-1410465400189211374,-0.32754039764404297,37.18240259331651,2.1515648959879847,9.56133849628373,339,32,0.0,16399,371973350401114,24,35.5,195.2217254638672,4.67155122756958,16,0.0,0.0,1575420030,,,,0,0.0,1,-51.86,30.5,0.0,0.0,,,C,575911683421899,0
Raw,1727335155428,904973239000000,18,0.0,-1410465400189211374,-0.32754039764404297,37.18240259331651,2.1515648959879847,9.56133849628373,339,195,0.0,16399,371973301304105,70,27.1,158.6002655029297,1.0220000743865967,16,0.0,0.0,1575420030,,,,0,0.0,4,-51.86,22.1,0.0,0.0,,,C,575911683421899,0
Raw,1727335155428,904973239000000,18,0.0,-1410465400189211374,-0.32754039764404297,37.18240259331651,2.1515648959879847,9.56133849628373,339,196,0.0,16399,371973295477249,61,28.5,-256.4778137207031,0.9210000038146973,16,0.0,0.0,1575420030,,,,0,0.0,4,-51.86,23.5,0.0,0.0,,,C,575911683421899,0
Raw,1727335155428,904973239000000,18,0.0,-1410465400189211374,-0.32754039764404297,37.18240259331651,2.1515648959879847,9.56133849628373,339,14,0.0,49359,37155361532700,12,41.9,-393.6246032714844,0.04939134418964386,16,0.0,0.0,1598062460,,,,0,0.0,3,-54.79,37.9,3772.71923828125,9.828857421875,,,C,575911683421899,0
Raw,1727335155428,904973239000000,18,0.0,-1410465400189211374,-0.32754039764404297,37.18240259331651,2.1515648959879847,9.56133849628373,339,18,0.0,49359,37155358297247,17,37.0,373.1623229980469,0.5940498113632202,16,0.0,0.0,1600312450,,,,0,0.0,3,-54.79,33.0,3772.71923828125,9.828857421875,,,C,575911683421899,0
Raw,1727335155428,904973239000000,18,0.0,-1410465400189211374,-0.32754039764404297,37.18240259331651,2.1515648959879847,9.56133849628373,339,15,0.0,49359,37155351868076,122,22.6,-774.3047485351562,4.088000297546387,16,0.0,0.0,1602000000,,,,0,0.0,3,-54.79,18.6,3772.71923828125,9.828857421875,,,C,575911683421899,0
Raw,1727335155428,904973239000000,18,0.0,-1410465400189211374,-0.32754039764404297,37.18240259331651,2.1515648959879847,9.56133849628373,339,17,0.0,49359,37155352686963,46,29.7,688.6490478515625,0.8554999828338623,16,0.0,0.0,1604249980,,,,0,0.0,3,-54.79,25.7,3772.71923828125,9.828857421875,,,C,575911683421899,0
Raw,1727335155428,904973239000000,18,0.0,-1410465400189211374,-0.32754039764404297,37.18240259331651,2.1515648959879847,9.56133849628373,339,3,0.0,49359,37155354581736,31,32.1,-79.82323455810547,0.67249995470047,16,0.0,0.0,1604812540,,,,0,0.0,3,-54.79,28.1,3772.71923828125,9.828857421875,,,C,575911683421899,0
Raw,1727335155428,904973239000000,18,0.0,-1410465400189211374,-0.32754039764404297,37.18240259331651,2.1515648959879847,9.56133849628373,339,4,0.0,49359,37155351570947,53,28.7,-179.5159912109375,0.9269999861717224,16,0.0,0.0,1605374980,,,,0,0.0,3,-54.79,24.7,3772.71923828125,9.828857421875,,,C,575911683421899,0
Raw,1727335155428,904973239000000,18,0.0,-1410465400189211374,-0.32754039764404297,37.18240259331651,2.1515648959879847,9.56133849628373,339,60,0.0,16399,371959308309778,14,39.9,1.469102144241333,1.4881000518798828,16,0.0,0.0,1561097980,,,,0,0.0,5,-60.87,35.6,-1537.9195556640625,7.207118511199951,,,I,575911683421899,0
Raw,1727335155428,904973239000000,18,0.0,-1410465400189211374,-0.32754039764404297,37.18240259331651,2.1515648959879847,9.56133849628373,339,41,0.0,16399,371959348657596,13,40.4,-188.3751678466797,0.03996894136071205,16,0.0,0.0,1561097980,,,,0,0.0,5,-60.87,36.1,-1537.9195556640625,7.207118511199951,,,I,575911683421899,0
Raw,1727335155428,904973239000000,18,0.0,-1410465400189211374,-0.32754039764404297,37.18240259331651,2.1515648959879847,9.56133849628373,339,38,0.0,16399,371959302855720,24,34.9,13.04074764251709,1.269437551498413,16,0.0,0.0,1561097980,,,,0,0.0,5,-60.87,30.599999999999998,-1537.9195556640625,7.207118511199951,,,I,575911683421899,0
Raw,1727335155428,904973239000000,18,0.0,-1410465400189211374,-0.32754039764404297,37.18240259331651,2.1515648959879847,9.56133849628373,339,28,0.0,16399,371959348084864,19,37.0,373.4603576660156,2.3619184494018555,16,0.0,0.0,1561097980,,,,0,0.0,5,-60.87,32.7,-1537.9195556640625,7.207118511199951,,,I,575911683421899,0
Raw,1727335155428,904973239000000,18,0.0,-1410465400189211374,-0.32754039764404297,37.18240259331651,2.1515648959879847,9.56133849628373,339,27,0.0,16399,371959346847519,46,29.6,110.55713653564453,0.8644999861717224,16,0.0,0.0,1561097980,,,,0,0.0,5,-60.87,25.3,-1537.9195556640625,7.207118511199951,,,I,575911683421899,0
Raw,1727335155428,904973239000000,18,0.0,-1410465400189211374,-0.32754039764404297,37.18240259331651,2.1515648959879847,9.56133849628373,339,25,0.0,16399,371959354033718,14,40.2,166.8208465576172,0.6082012057304382,16,0.0,0.0,1561097980,,,,0,0.0,5,-60.87,35.900000000000006,-1537.9195556640625,7.207118511199951,,,I,575911683421899,0
Raw,1727335155428,904973239000000,18,0.0,-1410465400189211374,-0.32754039764404297,37.18240259331651,2.1515648959879847,9.56133849628373,339,23,0.0,16399,371959352575458,19,36.8,-391.6978454589844,1.7798000574111938,16,0.0,0.0,1561097980,,,,0,0.0,5,-60.87,32.5,-1537.9195556640625,7.207118511199951,,,I,575911683421899,0
Raw,1727335155428,904973239000000,18,0.0,-1410465400189211374,-0.32754039764404297,37.18240259331651,2.1515648959879847,9.56133849628373,339,16,0.0,16399,371959302113088,9,44.7,164.0411834716797,0.045857902616262436,16,0.0,0.0,1561097980,,,,0,0.0,5,-60.87,40.400000000000006,-1537.9195556640625,7.207118511199951,,,I,575911683421899,0
Raw,1727335155428,904973239000000,18,0.0,-1410465400189211374,-0.32754039764404297,37.18240259331651,2.1515648959879847,9.56133849628373,339,13,0.0,16399,371959307783280,12,42.1,-101.39877319335938,0.04056635499000549,16,0.0,0.0,1561097980,,,,0,0.0,5,-60.87,37.800000000000004,-1537.9195556640625,7.207118511199951,,,I,575911683421899,0
Raw,1727335155428,904973239000000,18,0.0,-1410465400189211374,-0.32754039764404297,37.18240259331651,2.1515648959879847,9.56133849628373,339,8,0.0,16399,371959304746104,19,37.2,-54.33882522583008,1.7918000221252441,16,0.0,0.0,1561097980,,,,0,0.0,5,-60.87,32.900000000000006,-1537.9195556640625,7.207118511199951,,,I,575911683421899,0
Raw,1727335155428,904973239000000,18,0.0,-1410465400189211374,-0.32754039764404297,37.18240259331651,2.1515648959879847,9.56133849628373,339,7,0.0,16399,371959294890262,17,37.7,-134.07443237304688,0.038439277559518814,16,0.0,0.0,1561097980,,,,0,0.0,5,-60.87,33.400000000000006,-1537.9195556640625,7.207118511199951,,,I,575911683421899,0
Raw,1727335155428,904973239000000,18,0.0,-1410465400189211374,-0.32754039764404297,37.18240259331651,2.1515648959879847,9.56133849628373,339,6,0.0,16399,371959305502431,12,41.5,143.7074432373047,0.6196848154067993,16,0.0,0.0,1561097980,,,,0,0.0,5,-60.87,37.2,-1537.9195556640625,7.207118511199951,,,I,575911683421899,0
Raw,1727335155428,904973239000000,18,0.0,-1410465400189211374,-0.32754039764404297,37.18240259331651,2.1515648959879847,9.56133849628373,339,5,0.0,16399,371959306702287,14,39.5,2.141240358352661,1.4881000518798828,16,0.0,0.0,1561097980,,,,0,0.0,5,-60.87,35.2,-1537.9195556640625,7.207118511199951,,,I,575911683421899,0
Raw,1727335155428,904973239000000,18,0.0,-1410465400189211374,-0.32754039764404297,37.18240259331651,2.1515648959879847,9.56133849628373,339,3,0.0,16399,371959305200364,19,37.0,-1.1522369384765625,1.8282999992370605,16,0.0,0.0,1561097980,,,,0,0.0,5,-60.87,32.7,-1537.9195556640625,7.207118511199951,,,I,575911683421899,0
Raw,1727335155428,904973239000000,18,0.0,-1410465400189211374,-0.32754039764404297,37.18240259331651,2.1515648959879847,9.56133849628373,339,4,0.0,23567,371973342876164,53,29.1,172.32888793945312,4.744985103607178,16,0.0,0.0,1575420030,,,,0,0.0,6,-55.67,24.8,-1465.4033203125,7.374180793762207,,,C,575911683421899,0
Raw,1727335155428,904973239000000,18,0.0,-1410465400189211374,-0.32754039764404297,37.18240259331651,2.1515648959879847,9.56133849628373,339,6,0.0,23567,371973344759388,9,44.3,105.63565826416016,0.06080919876694679,16,0.0,0.0,1575420030,,,,0,0.0,6,-55.67,40.0,-1465.4033203125,7.374180793762207,,,C,575911683421899,0
Raw,1727335155428,904973239000000,18,0.0,-1410465400189211374,-0.32754039764404297,37.18240259331651,2.1515648959879847,9.56133849628373,339,9,0.0,23567,371973342990154,14,39.6,33.12704849243164,0.06801468878984451,16,0.0,0.0,1575420030,,,,0,0.0,6,-55.67,35.300000000000004,-1465.4033203125,7.374180793762207,,,C,575911683421899,0
Raw,1727335155428,904973239000000,18,0.0,-1410465400189211374,-0.32754039764404297,37.18240259331651,2.1515648959879847,9.56133849628373,339,10,0.0,23567,371973347570249,13,40.7,338.0430603027344,0.06239195168018341,16,0.0,0.0,1575420030,,,,0,0.0,6,-55.67,36.400000000000006,-1465.4033203125,7.374180793762207,,,C,575911683421899,0
Raw,1727335155428,904973239000000,18,0.0,-1410465400189211374,-0.32754039764404297,37.18240259331651,2.1515648959879847,9.56133849628373,339,11,0.0,23567,371973350649129,24,34.5,75.65921020507812,0.05689182132482529,16,0.0,0.0,1575420030,,,,0,0.0,6,-55.67,30.2,-1465.4033203125,7.374180793762207,,,C,575911683421899,0
Raw,1727335155428,904973239000000,18,0.0,-1410465400189211374,-0.32754039764404297,37.18240259331651,2.1515648959879847,9.56133849628373,339,12,0.0,23567,371973342850810,35,31.9,491.2174072265625,0.8080363869667053,16,0.0,0.0,1575420030,,,,0,0.0,6,-55.67,27.599999999999998,-1465.4033203125,7.374180793762207,,,C,575911683421899,0
Raw,1727335155428,904973239000000,18,0.0,-1410465400189211374,-0.32754039764404297,37.18240259331651,2.1515648959879847,9.56133849628373,339,24,0.0,23567,371973335945975,139,21.4,-419.7307434082031,4.27400016784668,16,0.0,0.0,1575420030,,,,0,0.0,6,-55.67,17.099999999999998,-1465.4033203125,7.374180793762207,,,C,575911683421899,0
Raw,1727335155428,904973239000000,18,0.0,-1410465400189211374,-0.32754039764404297,37.18240259331651,2.1515648959879847,9.56133849628373,339,31,0.0,23567,371973343170337,12,41.4,-333.8235168457031,0.06749757379293442,16,0.0,0.0,1575420030,,,,0,0.0,6,-55.67,37.1,-1465.4033203125,7.374180793762207,,,C,575911683421899,0
Raw,1727335155428,904973239000000,18,0.0,-1410465400189211374,-0.32754039764404297,37.18240259331651,2.1515648959879847,9.56133849628373,339,36,0.0,23567,371973340356366,35,31.8,-359.3251037597656,1.5995204448699951,16,0.0,0.0,1575420030,,,,0,0.0,6,-55.67,27.5,-1465.4033203125,7.374180793762207,,,C,575911683421899,0
Raw,1727335155428,904973239000000,18,0.0,-1410465400189211374,-0.32754039764404297,37.18240259331651,2.1515648959879847,9.56133849628373,339,23,0.0,81935,371973348837369,27,22.3,419.5743713378906,4.143500328063965,16,0.0,0.0,1176450050,,,,0,0.0,1,-40.67,17.3,39.520931243896484,4.629636764526367,,,Q,575911683421899,0
Raw,1727335155428,904973239000000,18,0.0,-1410465400189211374,-0.32754039764404297,37.18240259331651,2.1515648959879847,9.56133849628373,339,26,0.0,81935,371973354592623,8,32.0,-473.6311340332031,0.07265689969062805,16,0.0,0.0,1176450050,,,,0,0.0,1,-40.67,27.0,39.520931243896484,4.629636764526367,,,Q,575911683421899,0
Raw,1727335155428,904973239000000,18,0.0,-1410465400189211374,-0.32754039764404297,37.18240259331651,2.1515648959879847,9.56133849628373,339,28,0.0,81935,371973358330709,5,38.0,356.1690979003906,0.07511478662490845,16,0.0,0.0,1176450050,,,,0,0.0,1,-40.67,33.0,39.520931243896484,4.629636764526367,,,Q,575911683421899,0
Raw,1727335155428,904973239000000,18,0.0,-1410465400189211374,-0.32754039764404297,37.18240259331651,2.1515648959879847,9.56133849628373,339,4,0.0,81935,371973342876101,34,20.9,171.4865264892578,4.384500503540039,16,0.0,0.0,1176450050,,,,0,0.0,6,-40.67,15.599999999999998,-1443.4403076171875,81.42090606689453,,,Q,575911683421899,0
Raw,1727335155428,904973239000000,18,0.0,-1410465400189211374,-0.32754039764404297,37.18240259331651,2.1515648959879847,9.56133849628373,339,6,0.0,81935,371973344759318,5,39.0,105.63272857666016,0.05411478877067566,16,0.0,0.0,1176450050,,,,0,0.0,6,-40.67,33.7,-1443.4403076171875,81.42090606689453,,,Q,575911683421899,0
Raw,1727335155428,904973239000000,18,0.0,-1410465400189211374,-0.32754039764404297,37.18240259331651,2.1515648959879847,9.56133849628373,339,9,0.0,81935,371973342990088,9,32.1,33.3983039855957,0.8278561234474182,16,0.0,0.0,1176450050,,,,0,0.0,6,-40.67,26.8,-1443.4403076171875,81.42090606689453,,,Q,575911683421899,0
Raw,1727335155428,904973239000000,18,0.0,-1410465400189211374,-0.32754039764404297,37.18240259331651,2.1515648959879847,9.56133849628373,339,36,0.0,81935,371973340356325,20,24.8,-359.9446105957031,2.051500082015991,16,0.0,0.0,1176450050,,,,0,0.0,6,-40.67,19.5,-1443.4403076171875,81.42090606689453,,,Q,575911683421899,0
Raw,1727335155428,904973239000000,18,0.0,-1410465400189211374,-0.32754039764404297,37.18240259331651,2.1515648959879847,9.56133849628373,339,23,0.0,16399,371959352575407,18,25.4,-391.6197509765625,1.9495000839233398,16,0.0,0.0,1176450050,,,,0,0.0,5,-40.67,20.9,-1504.8055419921875,81.74929809570312,,,Q,575911683421899,0
Raw,1727335155428,904973239000000,18,0.0,-1410465400189211374,-0.32754039764404297,37.18240259331651,2.1515648959879847,9.56133849628373,339,25,0.0,16399,371959354033669,16,26.4,166.89962768554688,1.1424999237060547,16,0.0,0.0,1176450050,,,,0,0.0,5,-40.67,21.9,-1504.8055419921875,81.74929809570312,,,Q,575911683421899,0
Raw,1727335155428,904973239000000,18,0.0,-1410465400189211374,-0.32754039764404297,37.18240259331651,2.1515648959879847,9.56133849628373,339,41,0.0,16399,371959348657488,6,35.4,-188.23049926757812,2.404972553253174,16,0.0,0.0,1176450050,,,,0,0.0,5,-40.67,30.9,-1504.8055419921875,81.74929809570312,,,Q,575911683421899,0
Raw,1727335155428,904973239000000,18,0.0,-1410465400189211374,-0.32754039764404297,37.18240259331651,2.1515648959879847,9.56133849628373,339,23,0.0,16399,371959352575477,6,38.0,-391.5888671875,1.2103674411773682,16,0.0,0.0,1575420030,,,,0,0.0,5,-55.67,31.0,-1551.6915283203125,77.87228393554688,,,P,575911683421899,0
Raw,1727335155428,904973239000000,18,0.0,-1410465400189211374,-0.32754039764404297,37.18240259331651,2.1515648959879847,9.56133849628373,339,25,0.0,16399,371959354033750,5,40.4,166.88938903808594,0.06490714848041534,16,0.0,0.0,1575420030,,,,0,0.0,5,-55.67,33.4,-1551.6915283203125,77.87228393554688,,,P,575911683421899,0
Raw,1727335155428,904973239000000,18,0.0,-1410465400189211374,-0.32754039764404297,37.18240259331651,2.1515648959879847,9.56133849628373,339,27,0.0,16399,371959346847532,9,33.6,110.5983657836914,1.789703369140625,16,0.0,0.0,1575420030,,,,0,0.0,5,-55.67,26.6,-1551.6915283203125,77.87228393554688,,,P,575911683421899,0
Raw,1727335155428,904973239000000,18,0.0,-1410465400189211374,-0.32754039764404297,37.18240259331651,2.1515648959879847,9.56133849628373,339,28,0.0,16399,371959348084878,6,38.9,373.4657897949219,0.0776054859161377,16,0.0,0.0,1575420030,,,,0,0.0,5,-55.67,31.9,-1551.6915283203125,77.87228393554688,,,P,575911683421899,0
Raw,1727335155428,904973239000000,18,0.0,-1410465400189211374,-0.32754039764404297,37.18240259331651,2.1515648959879847,9.56133849628373,339,38,0.0,16399,371959302855734,6,37.1,13.047516822814941,0.05989003926515579,16,0.0,0.0,1575420030,,,,0,0.0,5,-55.67,30.1,-1551.6915283203125,77.87228393554688,,,P,575911683421899,0
Raw,1727335155428,904973239000000,18,0.0,-1410465400189211374,-0.32754039764404297,37.18240259331651,2.1515648959879847,9.56133849628373,339,41,0.0,16399,371959348657614,4,41.6,-188.19705200195312,0.06930868327617645,16,0.0,0.0,1575420030,,,,0,0.0,5,-55.67,34.6,-1551.6915283203125,77.87228393554688,,,P,575911683421899,0
Agc,1727335155428,904973239000000,18,0.0,-1410465400189211374,-0.32754039764404297,37.18240259331651,2.1515648959879847,9.56133849628373,339,-51.86,1575420000,1
Agc,1727335155428,904973239000000,18,0.0,-1410465400189211374,-0.32754039764404297,37.18240259331651,2.1515648959879847,9.56133849628373,339,-51.86,1575420000,4
Agc,1727335155428,904973239000000,18,0.0,-1410465400189211374,-0.32754039764404297,37.18240259331651,2.1515648959879847,9.56133849628373,339,-54.79,1602000000,3
Agc,1727335155428,904973239000000,18,0.0,-1410465400189211374,-0.32754039764404297,37.18240259331651,2.1515648959879847,9.56133849628373,339,-60.87,1561098000,5
Agc,1727335155428,904973239000000,18,0.0,-1410465400189211374,-0.32754039764404297,37.18240259331651,2.1515648959879847,9.56133849628373,339,-55.67,1575420000,6
Agc,1727335155428,904973239000000,18,0.0,-1410465400189211374,-0.32754039764404297,37.18240259331651,2.1515648959879847,9.56133849628373,339,-40.67,1176450000,1
Agc,1727335155428,904973239000000,18,0.0,-1410465400189211374,-0.32754039764404297,37.18240259331651,2.1515648959879847,9.56133849628373,339,-40.67,1176450000,4
Agc,1727335155428,904973239000000,18,0.0,-1410465400189211374,-0.32754039764404297,37.18240259331651,2.1515648959879847,9.56133849628373,339,-40.67,1176450000,6
Agc,1727335155428,904973239000000,18,0.0,-1410465400189211374,-0.32754039764404297,37.18240259331651,2.1515648959879847,9.56133849628373,339,-40.67,1176450000,5
Agc,1727335155428,904973239000000,18,0.0,-1410465400189211374,-0.32754039764404297,37.18240259331651,2.1515648959879847,9.56133849628373,339,-55.67,1575420000,5
Status,,75,0,1,2,1575420030,31.10,306.22324,24.416368,1,1,1,26.1
Status,,75,1,1,10,1575420030,32.00,87.931076,47.166843,1,1,1,27.0
Status,,75,2,1,16,1575420030,20.50,185.31236,14.07207,1,1,0,15.5
Status,,75,3,1,21,1575420030,31.10,292.79858,38.24058,1,1,1,26.1
Status,,75,4,1,23,1575420030,26.80,118.94025,16.619663,1,1,1,21.8
Status,,75,5,1,25,1575420030,18.60,60.00697,11.598716,0,1,0,13.6
Status,,75,6,1,26,1575420030,37.60,157.49365,37.26756,1,1,1,32.6
Status,,75,7,1,28,1575420030,38.00,18.74752,60.44449,1,1,1,33.0
Status,,75,8,1,31,1575420030,36.80,247.55554,74.952034,1,1,1,31.8
Status,,75,9,1,32,1575420030,29.00,31.146574,27.52773,1,1,1,24.0
Status,,75,10,4,195,1575420030,22.10,137.33232,4.1585565,0,1,0,17.1
Status,,75,11,4,196,1575420030,23.50,80.52804,30.314009,1,1,0,18.5
Status,,75,12,3,14,1598062460,35.90,139.96548,55.559692,1,1,0,30.9
Status,,75,13,3,18,1600312450,31.70,242.7273,39.246624,1,1,0,26.7
Status,,75,14,3,13,1600875010,19.50,49.17554,33.640022,0,1,0,14.5
Status,,75,15,3,15,1602000000,23.80,187.19913,16.685816,0,1,0,18.8
Status,,75,16,3,17,1604249980,27.40,191.20529,18.984812,1,1,0,22.4
Status,,75,17,3,3,1604812540,25.70,18.395266,25.832079,0,1,0,20.7
Status,,75,18,3,4,1605374980,26.60,327.67688,15.798752,1,1,0,21.6
Status,,75,19,5,60,1561097980,40.30,168.34195,75.39607,1,1,1,35.3
Status,,75,20,5,59,1561097980,26.80,95.265526,18.805506,1,1,0,21.8
Status,,75,21,5,41,1561097980,39.70,358.62985,37.83034,0,1,0,34.7
Status,,75,22,5,38,1561097980,36.30,119.04224,40.599575,1,1,1,31.3
Status,,75,23,5,32,1561097980,19.70,310.0999,8.510524,1,1,0,14.7
Status,,75,24,5,28,1561097980,34.00,214.25002,30.532698,1,1,1,29.0
Status,,75,25,5,27,1561097980,28.30,265.90793,26.106401,1,1,0,23.3
Status,,75,26,5,25,1561097980,30.50,66.03234,55.69479,1,1,1,25.5
Status,,75,27,5,23,1561097980,33.40,179.95447,55.12098,1,1,1,28.4
Status,,75,28,5,16,1561097980,37.80,23.929611,47.72181,0,1,0,32.8
Status,,75,29,5,14,1561097980,19.40,84.10374,15.658736,0,1,0,14.4
Status,,75,30,5,13,1561097980,31.90,86.07969,63.494724,1,1,1,26.9
Status,,75,31,5,8,1561097980,29.80,105.34377,51.606968,1,1,0,24.8
Status,,75,32,5,7,1561097980,27.70,144.1436,16.770784,1,1,0,22.7
Status,,75,33,5,6,1561097980,38.80,19.870949,56.35277,0,1,0,33.8
Status,,75,34,5,5,1561097980,36.30,241.10393,64.62199,1,1,1,31.3
Status,,75,35,5,3,1561097980,32.70,108.05172,49.34833,1,1,1,27.7
Status,,75,36,5,2,1561097980,33.90,147.8439,75.5348,1,1,0,28.9
Status,,75,37,5,1,1561097980,23.80,95.58928,13.997915,0,1,0,18.8
Status,,75,38,6,4,1575420030,24.70,18.642311,33.91931,1,1,1,19.7
Status,,75,39,6,6,1575420030,43.00,346.34534,41.052086,1,1,1,38.0
Status,,75,40,6,9,1575420030,36.20,315.65424,36.325565,1,1,1,31.2
Status,,75,41,6,10,1575420030,33.60,195.84358,58.200157,1,1,1,28.6
Status,,75,42,6,11,1575420030,25.20,260.79416,64.69399,0,1,0,20.2
Status,,75,43,6,12,1575420030,27.60,171.46704,38.262566,1,1,1,22.6
Status,,75,44,6,24,1575420030,22.30,187.20912,14.376276,1,1,0,17.3
Status,,75,45,6,31,1575420030,32.80,136.02664,34.777576,1,1,0,27.8
Status,,75,46,6,36,1575420030,26.30,314.62476,25.974043,1,1,0,21.3
Status,,75,47,1,10,1176450050,24.80,87.931076,47.166843,1,1,1,19.8
Status,,75,48,1,23,1176450050,17.30,118.94025,16.619663,0,1,1,12.3
Status,,75,49,1,26,1176450050,27.00,157.49365,37.26756,1,1,1,22.0
Status,,75,50,1,28,1176450050,25.00,18.74752,60.44449,1,1,1,20.0
Status,,75,51,1,32,1176450050,20.60,31.146574,27.52773,1,1,1,15.6
Status,,75,52,4,194,1176450050,18.50,87.013954,14.303241,1,1,0,13.5
Status,,75,53,6,4,1176450050,15.60,18.642311,33.91931,0,1,1,10.6
Status,,75,54,6,6,1176450050,26.00,346.34534,41.052086,1,1,1,21.0
Status,,75,55,6,9,1176450050,26.80,315.65424,36.325565,1,1,1,21.8
Status,,75,56,6,10,1176450050,18.60,195.84358,58.200157,1,1,1,13.6
Status,,75,57,6,11,1176450050,20.60,260.79416,64.69399,0,1,0,15.6
Status,,75,58,6,12,1176450050,17.10,171.46704,38.262566,1,1,1,12.1
Status,,75,59,6,31,1176450050,20.10,136.02664,34.777576,0,1,0,15.1
Status,,75,60,6,36,1176450050,19.50,314.62476,25.974043,1,1,0,14.5
Status,,75,61,5,23,1176450050,23.90,179.95447,55.12098,1,1,1,18.9
Status,,75,62,5,25,1176450050,21.90,66.03234,55.69479,1,1,1,16.9
Status,,75,63,5,28,1176450050,18.40,214.25002,30.532698,1,1,1,13.4
Status,,75,64,5,32,1176450050,17.90,310.0999,8.510524,1,1,0,12.9
Status,,75,65,5,38,1176450050,17.20,119.04224,40.599575,0,1,1,12.2
Status,,75,66,5,41,1176450050,25.80,358.62985,37.83034,0,1,0,20.8
Status,,75,67,5,23,1575420030,30.20,179.95447,55.12098,1,1,1,25.2
Status,,75,68,5,24,1575420030,22.20,40.41495,8.0257435,1,1,0,17.2
Status,,75,69,5,25,1575420030,28.50,66.03234,55.69479,1,1,1,23.5
Status,,75,70,5,27,1575420030,26.20,265.90793,26.106401,1,1,0,21.2
Status,,75,71,5,28,1575420030,31.10,214.25002,30.532698,1,1,1,26.1
Status,,75,72,5,32,1575420030,17.30,310.0999,8.510524,1,1,0,12.3
Status,,75,73,5,38,1575420030,34.50,119.04224,40.599575,1,1,1,29.5
Status,,75,74,5,41,1575420030,38.40,358.62985,37.83034,0,1,0,33.4
Raw,1727335156428,904974239000000,18,0.0,-1410465400189211380,-0.2134990692138672,32.993753848131746,1.6183738192630437,10.942561178593014,339,2,0.0,16399,371974348803567,21,36.1,-372.7286071777344,5.213520050048828,16,0.0,0.0,1575420030,,,,0,0.0,1,-51.86,31.1,0.0,0.0,,,C,575912691434138,0
Raw,1727335156428,904974239000000,18,0.0,-1410465400189211380,-0.2134990692138672,32.993753848131746,1.6183738192630437,10.942561178593014,339,10,0.0,16399,371974356730332,19,37.0,69.35614776611328,2.32873272895813,16,0.0,0.0,1575420030,,,,0,0.0,1,-51.86,32.0,0.0,0.0,,,C,575912691434138,0
Raw,1727335156428,904974239000000,18,0.0,-1410465400189211380,-0.2134990692138672,32.993753848131746,1.6183738192630437,10.942561178593014,339,16,0.0,16399,371974346550190,92,25.5,-536.571044921875,2.615499973297119,16,0.0,0.0,1575420030,,,,0,0.0,1,-51.86,20.5,0.0,0.0,,,C,575912691434138,0
Raw,1727335156428,904974239000000,18,0.0,-1410465400189211380,-0.2134990692138672,32.993753848131746,1.6183738192630437,10.942561178593014,339,21,0.0,16399,371974352180819,21,36.1,-183.56752014160156,6.920163154602051,16,0.0,0.0,1575420030,,,,0,0.0,1,-51.86,31.1,0.0,0.0,,,C,575912691434138,0
Raw,1727335156428,904974239000000,18,0.0,-1410465400189211380,-0.2134990692138672,32.993753848131746,1.6183738192630437,10.942561178593014,339,23,0.0,16399,371974348836156,40,31.8,418.6841125488281,0.7414999604225159,16,0.0,0.0,1575420030,,,,0,0.0,1,-51.86,26.8,0.0,0.0,,,C,575912691434138,0
Raw,1727335156428,904974239000000,18,0.0,-1410465400189211380,-0.2134990692138672,32.993753848131746,1.6183738192630437,10.942561178593014,339,25,0.0,16399,371974347860063,122,23.6,248.44740295410156,4.712000370025635,16,0.0,0.0,1575420030,,,,0,0.0,1,-51.86,18.6,0.0,0.0,,,C,575912691434138,0
Raw,1727335156428,904974239000000,18,0.0,-1410465400189211380,-0.2134990692138672,32.993753848131746,1.6183738192630437,10.942561178593014,339,26,0.0,16399,371974354594263,12,42.6,-473.8653869628906,1.1717596054077148,16,0.0,0.0,1575420030,,,,0,0.0,1,-51.86,37.6,0.0,0.0,,,C,575912691434138,0
Raw,1727335156428,904974239000000,18,0.0,-1410465400189211380,-0.2134990692138672,32.993753848131746,1.6183738192630437,10.942561178593014,339,28,0.0,16399,371974358329589,11,43.0,356.4609680175781,0.023198336362838745,16,0.0,0.0,1575420030,,,,0,0.0,1,-51.86,38.0,0.0,0.0,,,C,575912691434138,0
Raw,1727335156428,904974239000000,18,0.0,-1410465400189211380,-0.2134990692138672,32.993753848131746,1.6183738192630437,10.942561178593014,339,31,0.0,16399,371974360916958,13,41.8,-123.6853256225586,1.19365394115448,16,0.0,0.0,1575420030,,,,0,0.0,1,-51.86,36.8,0.0,0.0,,,C,575912691434138,0
Raw,1727335156428,904974239000000,18,0.0,-1410465400189211380,-0.2134990692138672,32.993753848131746,1.6183738192630437,10.942561178593014,339,32,0.0,16399,371974350400460,27,34.0,194.2898406982422,0.5885000228881836,16,0.0,0.0,1575420030,,,,0,0.0,1,-51.86,29.0,0.0,0.0,,,C,575912691434138,0
Raw,1727335156428,904974239000000,18,0.0,-1410465400189211380,-0.2134990692138672,32.993753848131746,1.6183738192630437,10.942561178593014,339,14,0.0,49359,37156361534026,14,39.9,-393.6106872558594,0.05136111378669739,16,0.0,0.0,1598062460,,,,0,0.0,3,-54.71,35.9,3771.808349609375,9.681258201599121,,,C,575912691434138,0
Raw,1727335156428,904974239000000,18,0.0,-1410465400189211380,-0.2134990692138672,32.993753848131746,1.6183738192630437,10.942561178593014,339,18,0.0,49359,37156358295989,21,35.7,372.9986877441406,5.6799163818359375,16,0.0,0.0,1600312450,,,,0,0.0,3,-54.71,31.700000000000003,3771.808349609375,9.681258201599121,,,C,575912691434138,0
Raw,1727335156428,904974239000000,18,0.0,-1410465400189211380,-0.2134990692138672,32.993753848131746,1.6183738192630437,10.942561178593014,339,15,0.0,49359,37156351870741,61,27.8,-775.698974609375,1.0069999694824219,16,0.0,0.0,1602000000,,,,0,0.0,3,-54.71,23.8,3771.808349609375,9.681258201599121,,,C,575912691434138,0
Raw,1727335156428,904974239000000,18,0.0,-1410465400189211380,-0.2134990692138672,32.993753848131746,1.6183738192630437,10.942561178593014,339,17,0.0,49359,37156352684569,35,31.4,688.0136108398438,0.7354999780654907,16,0.0,0.0,1604249980,,,,0,0.0,3,-54.71,27.4,3771.808349609375,9.681258201599121,,,C,575912691434138,0
Raw,1727335156428,904974239000000,18,0.0,-1410465400189211380,-0.2134990692138672,32.993753848131746,1.6183738192630437,10.942561178593014,339,3,0.0,49359,37156354581978,46,29.7,-80.2622299194336,0.8524999618530273,16,0.0,0.0,1604812540,,,,0,0.0,3,-54.71,25.7,3771.808349609375,9.681258201599121,,,C,575912691434138,0
Raw,1727335156428,904974239000000,18,0.0,-1410465400189211380,-0.2134990692138672,32.993753848131746,1.6183738192630437,10.942561178593014,339,4,0.0,49359,37156351571520,40,30.6,-179.12384033203125,0.796999990940094,16,0.0,0.0,1605374980,,,,0,0.0,3,-54.71,26.6,3771.808349609375,9.681258201599121,,,C,575912691434138,0
Raw,1727335156428,904974239000000,18,0.0,-1410465400189211380,-0.2134990692138672,32.993753848131746,1.6183738192630437,10.942561178593014,339,60,0.0,16399,371960308309758,9,44.6,5.165862083435059,1.0312999486923218,16,0.0,0.0,1561097980,,,,0,0.0,5,-60.9,40.300000000000004,-1538.1021728515625,7.169967174530029,,,I,575912691434138,0
Raw,1727335156428,904974239000000,18,0.0,-1410465400189211380,-0.2134990692138672,32.993753848131746,1.6183738192630437,10.942561178593014,339,41,0.0,16399,371960348658222,10,44.0,-187.9066162109375,0.03745322301983833,16,0.0,0.0,1561097980,,,,0,0.0,5,-60.9,39.7,-1538.1021728515625,7.169967174530029,,,I,575912691434138,0
Raw,1727335156428,904974239000000,18,0.0,-1410465400189211380,-0.2134990692138672,32.993753848131746,1.6183738192630437,10.942561178593014,339,38,0.0,16399,371960302855704,13,40.6,12.784719467163086,0.04896894097328186,16,0.0,0.0,1561097980,,,,0,0.0,5,-60.9,36.300000000000004,-1538.1021728515625,7.169967174530029,,,I,575912691434138,0
Raw,1727335156428,904974239000000,18,0.0,-1410465400189211380,-0.2134990692138672,32.993753848131746,1.6183738192630437,10.942561178593014,339,28,0.0,16399,371960348083623,16,38.3,373.3888244628906,3.5027482509613037,16,0.0,0.0,1561097980,,,,0,0.0,5,-60.9,34.0,-1538.1021728515625,7.169967174530029,,,I,575912691434138,0
Raw,1727335156428,904974239000000,18,0.0,-1410465400189211380,-0.2134990692138672,32.993753848131746,1.6183738192630437,10.942561178593014,339,27,0.0,16399,371960346847171,31,32.6,110.58594512939453,0.684499979019165,16,0.0,0.0,1561097980,,,,0,0.0,5,-60.9,28.3,-1538.1021728515625,7.169967174530029,,,I,575912691434138,0
Raw,1727335156428,904974239000000,18,0.0,-1410465400189211380,-0.2134990692138672,32.993753848131746,1.6183738192630437,10.942561178593014,339,25,0.0,16399,371960354033132,24,34.8,166.636962890625,4.70814847946167,16,0.0,0.0,1561097980,,,,0,0.0,5,-60.9,30.499999999999996,-1538.1021728515625,7.169967174530029,,,I,575912691434138,0
Raw,1727335156428,904974239000000,18,0.0,-1410465400189211380,-0.2134990692138672,32.993753848131746,1.6183738192630437,10.942561178593014,339,23,0.0,16399,371960352576760,17,37.7,-391.5130615234375,1.193676233291626,16,0.0,0.0,1561097980,,,,0,0.0,5,-60.9,33.400000000000006,-1538.1021728515625,7.169967174530029,,,I,575912691434138,0
Raw,1727335156428,904974239000000,18,0.0,-1410465400189211380,-0.2134990692138672,32.993753848131746,1.6183738192630437,10.942561178593014,339,16,0.0,16399,371960302112542,12,42.1,164.11221313476562,0.624184787273407,16,0.0,0.0,1561097980,,,,0,0.0,5,-60.9,37.800000000000004,-1538.1021728515625,7.169967174530029,,,I,575912691434138,0
Raw,1727335156428,904974239000000,18,0.0,-1410465400189211380,-0.2134990692138672,32.993753848131746,1.6183738192630437,10.942561178593014,339,14,0.0,16399,371960342804686,106,23.7,138.2780303955078,4.6595001220703125,16,0.0,0.0,1561097980,,,,0,0.0,5,-60.9,19.4,-1538.1021728515625,7.169967174530029,,,I,575912691434138,0
Raw,1727335156428,904974239000000,18,0.0,-1410465400189211380,-0.2134990692138672,32.993753848131746,1.6183738192630437,10.942561178593014,339,13,0.0,16399,371960307783628,21,36.2,-101.46366119384766,3.5342063903808594,16,0.0,0.0,1561097980,,,,0,0.0,5,-60.9,31.900000000000002,-1538.1021728515625,7.169967174530029,,,I,575912691434138,0
Raw,1727335156428,904974239000000,18,0.0,-1410465400189211380,-0.2134990692138672,32.993753848131746,1.6183738192630437,10.942561178593014,339,8,0.0,16399,371960304746270,27,34.1,-53.99190139770508,0.5975000262260437,16,0.0,0.0,1561097980,,,,0,0.0,5,-60.9,29.8,-1538.1021728515625,7.169967174530029,,,I,575912691434138,0
Raw,1727335156428,904974239000000,18,0.0,-1410465400189211380,-0.2134990692138672,32.993753848131746,1.6183738192630437,10.942561178593014,339,7,0.0,16399,371960294890676,35,32.0,-134.03396606445312,0.67249995470047,16,0.0,0.0,1561097980,,,,0,0.0,5,-60.9,27.7,-1538.1021728515625,7.169967174530029,,,I,575912691434138,0
Raw,1727335156428,904974239000000,18,0.0,-1410465400189211380,-0.2134990692138672,32.993753848131746,1.6183738192630437,10.942561178593014,339,6,0.0,16399,371960305501957,11,43.1,143.9339141845703,0.042759791016578674,16,0.0,0.0,1561097980,,,,0,0.0,5,-60.9,38.800000000000004,-1538.1021728515625,7.169967174530029,,,I,575912691434138,0
Raw,1727335156428,904974239000000,18,0.0,-1410465400189211380,-0.2134990692138672,32.993753848131746,1.6183738192630437,10.942561178593014,339,5,0.0,16399,371960306702278,13,40.6,-2.899796485900879,1.3622000217437744,16,0.0,0.0,1561097980,,,,0,0.0,5,-60.9,36.300000000000004,-1538.1021728515625,7.169967174530029,,,I,575912691434138,0
Raw,1727335156428,904974239000000,18,0.0,-1410465400189211380,-0.2134990692138672,32.993753848131746,1.6183738192630437,10.942561178593014,339,2,0.0,16399,371960309060186,17,38.2,1.73795747756958,3.1274001598358154,16,0.0,0.0,1561097980,,,,0,0.0,5,-60.9,33.900000000000006,-1538.1021728515625,7.169967174530029,,,I,575912691434138,0
Raw,1727335156428,904974239000000,18,0.0,-1410465400189211380,-0.2134990692138672,32.993753848131746,1.6183738192630437,10.942561178593014,339,1,0.0,16399,371960295216839,61,28.1,2.275668144226074,10.502300262451172,16,0.0,0.0,1561097980,,,,0,0.0,5,-60.9,23.8,-1538.1021728515625,7.169967174530029,,,I,575912691434138,0
Raw,1727335156428,904974239000000,18,0.0,-1410465400189211380,-0.2134990692138672,32.993753848131746,1.6183738192630437,10.942561178593014,339,4,0.0,23567,371974342875596,53,29.0,171.32139587402344,0.8884999752044678,16,0.0,0.0,1575420030,,,,0,0.0,6,-55.64,24.7,-1465.626708984375,7.328823089599609,,,C,575912691434138,0
Raw,1727335156428,904974239000000,18,0.0,-1410465400189211380,-0.2134990692138672,32.993753848131746,1.6183738192630437,10.942561178593014,339,6,0.0,23567,371974344759033,6,47.3,106.0243148803711,0.05930587649345398,16,0.0,0.0,1575420030,,,,0,0.0,6,-55.64,43.0,-1465.626708984375,7.328823089599609,,,C,575912691434138,0
Raw,1727335156428,904974239000000,18,0.0,-1410465400189211380,-0.2134990692138672,32.993753848131746,1.6183738192630437,10.942561178593014,339,9,0.0,23567,371974342990040,13,40.5,33.824256896972656,0.06689195334911346,16,0.0,0.0,1575420030,,,,0,0.0,6,-55.64,36.2,-1465.626708984375,7.328823089599609,,,C,575912691434138,0
Raw,1727335156428,904974239000000,18,0.0,-1410465400189211380,-0.2134990692138672,32.993753848131746,1.6183738192630437,10.942561178593014,339,10,0.0,23567,371974347569125,17,37.9,338.2556457519531,0.06640715152025223,16,0.0,0.0,1575420030,,,,0,0.0,6,-55.64,33.6,-1465.626708984375,7.328823089599609,,,C,575912691434138,0
Raw,1727335156428,904974239000000,18,0.0,-1410465400189211380,-0.2134990692138672,32.993753848131746,1.6183738192630437,10.942561178593014,339,11,0.0,23567,371974350648896,46,29.5,76.25626373291016,3.1306798458099365,16,0.0,0.0,1575420030,,,,0,0.0,6,-55.64,25.2,-1465.626708984375,7.328823089599609,,,C,575912691434138,0
Raw,1727335156428,904974239000000,18,0.0,-1410465400189211380,-0.2134990692138672,32.993753848131746,1.6183738192630437,10.942561178593014,339,12,0.0,23567,371974342849142,35,31.9,490.8460693359375,3.1014888286590576,16,0.0,0.0,1575420030,,,,0,0.0,6,-55.64,27.599999999999998,-1465.626708984375,7.328823089599609,,,C,575912691434138,0
Raw,1727335156428,904974239000000,18,0.0,-1410465400189211380,-0.2134990692138672,32.993753848131746,1.6183738192630437,10.942561178593014,339,24,0.0,23567,371974335947406,70,26.6,-420.5014343261719,1.1139999628067017,16,0.0,0.0,1575420030,,,,0,0.0,6,-55.64,22.3,-1465.626708984375,7.328823089599609,,,C,575912691434138,0
Raw,1727335156428,904974239000000,18,0.0,-1410465400189211380,-0.2134990692138672,32.993753848131746,1.6183738192630437,10.942561178593014,339,31,0.0,23567,371974343171459,19,37.1,-334.1692199707031,0.07459552586078644,16,0.0,0.0,1575420030,,,,0,0.0,6,-55.64,32.800000000000004,-1465.626708984375,7.328823089599609,,,C,575912691434138,0
Raw,1727335156428,904974239000000,18,0.0,-1410465400189211380,-0.2134990692138672,32.993753848131746,1.6183738192630437,10.942561178593014,339,36,0.0,23567,371974340357611,40,30.6,-358.7779846191406,0.0770602822303772,16,0.0,0.0,1575420030,,,,0,0.0,6,-55.64,26.3,-1465.626708984375,7.328823089599609,,,C,575912691434138,0
Raw,1727335156428,904974239000000,18,0.0,-1410465400189211380,-0.2134990692138672,32.993753848131746,1.6183738192630437,10.942561178593014,339,28,0.0,81935,371974358329526,10,30.0,356.3387756347656,0.828499972820282,16,0.0,0.0,1176450050,,,,0,0.0,1,-40.09,25.0,39.520931243896484,4.629636764526367,,,Q,575912691434138,0
Raw,1727335156428,904974239000000,18,0.0,-1410465400189211380,-0.2134990692138672,32.993753848131746,1.6183738192630437,10.942561178593014,339,6,0.0,81935,371974344758957,9,31.3,106.05902099609375,0.06637202203273773,16,0.0,0.0,1176450050,,,,0,0.0,6,-40.09,26.0,-1443.6573486328125,73.21414184570312,,,Q,575912691434138,0
Raw,1727335156428,904974239000000,18,0.0,-1410465400189211380,-0.2134990692138672,32.993753848131746,1.6183738192630437,10.942561178593014,339,10,0.0,81935,371974347569054,23,23.9,337.9529724121094,2.1019999980926514,16,0.0,0.0,1176450050,,,,0,0.0,6,-40.09,18.599999999999998,-1443.6573486328125,73.21414184570312,,,Q,575912691434138,0
Raw,1727335156428,904974239000000,18,0.0,-1410465400189211380,-0.2134990692138672,32.993753848131746,1.6183738192630437,10.942561178593014,339,23,0.0,16399,371960352576724,12,28.4,-391.60699462890625,0.9794999957084656,16,0.0,0.0,1176450050,,,,0,0.0,5,-40.09,23.9,-1504.9774169921875,73.53732299804688,,,Q,575912691434138,0
Raw,1727335156428,904974239000000,18,0.0,-1410465400189211380,-0.2134990692138672,32.993753848131746,1.6183738192630437,10.942561178593014,339,28,0.0,16399,371960348083509,23,22.9,373.8709716796875,3.0335001945495605,16,0.0,0.0,1176450050,,,,0,0.0,5,-40.09,18.4,-1504.9774169921875,73.53732299804688,,,Q,575912691434138,0
Raw,1727335156428,904974239000000,18,0.0,-1410465400189211380,-0.2134990692138672,32.993753848131746,1.6183738192630437,10.942561178593014,339,41,0.0,16399,371960348658113,10,30.3,-187.97813415527344,3.1906838417053223,16,0.0,0.0,1176450050,,,,0,0.0,5,-40.09,25.8,-1504.9774169921875,73.53732299804688,,,Q,575912691434138,0
Raw,1727335156428,904974239000000,18,0.0,-1410465400189211380,-0.2134990692138672,32.993753848131746,1.6183738192630437,10.942561178593014,339,23,0.0,16399,371960352576782,6,37.2,-391.02239990234375,2.3614158630371094,16,0.0,0.0,1575420030,,,,0,0.0,5,-55.64,30.200000000000003,-1551.8638916015625,69.66218566894531,,,P,575912691434138,0
Raw,1727335156428,904974239000000,18,0.0,-1410465400189211380,-0.2134990692138672,32.993753848131746,1.6183738192630437,10.942561178593014,339,25,0.0,16399,371960354033171,8,35.5,166.6136474609375,2.9201114177703857,16,0.0,0.0,1575420030,,,,0,0.0,5,-55.64,28.5,-1551.8638916015625,69.66218566894531,,,P,575912691434138,0
Raw,1727335156428,904974239000000,18,0.0,-1410465400189211380,-0.2134990692138672,32.993753848131746,1.6183738192630437,10.942561178593014,339,27,0.0,16399,371960346847211,9,33.2,111.86592864990234,2.360584259033203,16,0.0,0.0,1575420030,,,,0,0.0,5,-55.64,26.200000000000003,-1551.8638916015625,69.66218566894531,,,P,575912691434138,0
Raw,1727335156428,904974239000000,18,0.0,-1410465400189211380,-0.2134990692138672,32.993753848131746,1.6183738192630437,10.942561178593014,339,28,0.0,16399,371960348083639,6,38.1,373.53424072265625,0.0776054859161377,16,0.0,0.0,1575420030,,,,0,0.0,5,-55.64,31.1,-1551.8638916015625,69.66218566894531,,,P,575912691434138,0
Raw,1727335156428,904974239000000,18,0.0,-1410465400189211380,-0.2134990692138672,32.993753848131746,1.6183738192630437,10.942561178593014,339,32,0.0,16399,371960339931957,27,24.3,-277.72412109375,3.125,16,0.0,0.0,1575420030,,,,0,0.0,5,-55.64,17.3,-1551.8638916015625,69.66218566894531,,,P,575912691434138,0
Raw,1727335156428,904974239000000,18,0.0,-1410465400189211380,-0.2134990692138672,32.993753848131746,1.6183738192630437,10.942561178593014,339,38,0.0,16399,371960302855702,4,41.5,12.774312019348145,0.060308683663606644,16,0.0,0.0,1575420030,,,,0,0.0,5,-55.64,34.5,-1551.8638916015625,69.66218566894531,,,P,575912691434138,0
Raw,1727335156428,904974239000000,18,0.0,-1410465400189211380,-0.2134990692138672,32.993753848131746,1.6183738192630437,10.942561178593014,339,41,0.0,16399,371960348658237,3,45.4,-187.93048095703125,0.06519833952188492,16,0.0,0.0,1575420030,,,,0,0.0,5,-55.64,38.4,-1551.8638916015625,69.66218566894531,,,P,575912691434138,0
Agc,1727335156428,904974239000000,18,0.0,-1410465400189211380,-0.2134990692138672,32.993753848131746,1.6183738192630437,10.942561178593014,339,-51.86,1575420000,1
Agc,1727335156428,904974239000000,18,0.0,-1410465400189211380,-0.2134990692138672,32.993753848131746,1.6183738192630437,10.942561178593014,339,-51.86,1575420000,4
Agc,1727335156428,904974239000000,18,0.0,-1410465400189211380,-0.2134990692138672,32.993753848131746,1.6183738192630437,10.942561178593014,339,-54.71,1602000000,3
Agc,1727335156428,904974239000000,18,0.0,-1410465400189211380,-0.2134990692138672,32.993753848131746,1.6183738192630437,10.942561178593014,339,-60.9,1561098000,5
Agc,1727335156428,904974239000000,18,0.0,-1410465400189211380,-0.2134990692138672,32.993753848131746,1.6183738192630437,10.942561178593014,339,-55.64,1575420000,6
Agc,1727335156428,904974239000000,18,0.0,-1410465400189211380,-0.2134990692138672,32.993753848131746,1.6183738192630437,10.942561178593014,339,-40.09,1176450000,1
Agc,1727335156428,904974239000000,18,0.0,-1410465400189211380,-0.2134990692138672,32.993753848131746,1.6183738192630437,10.942561178593014,339,-40.09,1176450000,4
Agc,1727335156428,904974239000000,18,0.0,-1410465400189211380,-0.2134990692138672,32.993753848131746,1.6183738192630437,10.942561178593014,339,-40.09,1176450000,6
Agc,1727335156428,904974239000000,18,0.0,-1410465400189211380,-0.2134990692138672,32.993753848131746,1.6183738192630437,10.942561178593014,339,-40.09,1176450000,5
Agc,1727335156428,904974239000000,18,0.0,-1410465400189211380,-0.2134990692138672,32.993753848131746,1.6183738192630437,10.942561178593014,339,-55.64,1575420000,5
Fix,FLP,12.9372150000,77.5420776000,795.699951171875,0.34337032,18.476,338.6774,1727335155241,1.5,45.0,575911675000000,1.1458774,0,,,
Status,,76,0,1,2,1575420030,34.40,306.22324,24.416368,1,1,1,29.4
Status,,76,1,1,10,1575420030,29.40,87.931076,47.166843,1,1,1,24.4
Status,,76,2,1,16,1575420030,20.50,185.31236,14.07207,1,1,0,15.5
Status,,76,3,1,21,1575420030,30.40,292.79858,38.24058,1,1,1,25.4
Status,,76,4,1,23,1575420030,28.10,118.94025,16.619663,1,1,1,23.1
Status,,76,5,1,25,1575420030,18.60,60.00697,11.598716,0,1,0,13.6
Status,,76,6,1,26,1575420030,37.90,157.49365,37.26756,1,1,1,32.9
Status,,76,7,1,28,1575420030,30.40,18.74752,60.44449,1,1,1,25.4
Status,,76,8,1,31,1575420030,36.50,247.55554,74.952034,1,1,1,31.5
Status,,76,9,1,32,1575420030,29.50,31.146574,27.52773,1,1,1,24.5
Status,,76,10,4,194,1575420030,24.20,87.013954,14.303241,0,1,0,19.2
Status,,76,11,4,195,1575420030,22.10,137.33232,4.1585565,0,1,0,17.1
Status,,76,12,4,196,1575420030,23.50,80.52804,30.314009,1,1,0,18.5
Status,,76,13,3,14,1598062460,36.30,139.96548,55.559692,1,1,0,31.3
Status,,76,14,3,18,1600312450,30.30,242.7273,39.246624,1,1,0,25.3
Status,,76,15,3,13,1600875010,20.60,49.17554,33.640022,0,1,0,15.6
Status,,76,16,3,15,1602000000,24.40,187.19913,16.685816,0,1,0,19.4
Status,,76,17,3,17,1604249980,25.70,191.20529,18.984812,1,1,0,20.7
Status,,76,18,3,3,1604812540,28.00,18.395266,25.832079,0,1,0,23.0
Status,,76,19,3,4,1605374980,26.20,327.67688,15.798752,1,1,0,21.2
Status,,76,20,5,60,1561097980,40.50,168.34195,75.39607,1,1,1,35.5
Status,,76,21,5,59,1561097980,28.60,95.265526,18.805506,1,1,0,23.6
Status,,76,22,5,41,1561097980,34.90,358.62985,37.83034,0,1,0,29.9
Status,,76,23,5,38,1561097980,36.30,119.04224,40.599575,1,1,1,31.3
Status,,76,24,5,32,1561097980,20.50,310.0999,8.510524,1,1,0,15.5
Status,,76,25,5,28,1561097980,32.60,214.25002,30.532698,1,1,1,27.6
Status,,76,26,5,27,1561097980,26.60,265.90793,26.106401,1,1,0,21.6
Status,,76,27,5,25,1561097980,31.10,66.03234,55.69479,1,1,1,26.1
Status,,76,28,5,23,1561097980,30.40,179.95447,55.12098,1,1,1,25.4
Status,,76,29,5,16,1561097980,30.90,23.929611,47.72181,0,1,0,25.9
Status,,76,30,5,14,1561097980,19.40,84.10374,15.658736,0,1,0,14.4
Status,,76,31,5,13,1561097980,34.50,86.07969,63.494724,1,1,1,29.5
Status,,76,32,5,8,1561097980,29.90,105.34377,51.606968,1,1,0,24.9
Status,,76,33,5,7,1561097980,28.50,144.1436,16.770784,1,1,0,23.5
Status,,76,34,5,6,1561097980,26.20,19.870949,56.35277,0,1,0,21.2
Status,,76,35,5,5,1561097980,32.30,241.10393,64.62199,1,1,1,27.3
Status,,76,36,5,3,1561097980,32.70,108.05172,49.34833,1,1,1,27.7
Status,,76,37,5,2,1561097980,38.10,147.8439,75.5348,1,1,0,33.1
Status,,76,38,5,1,1561097980,23.80,95.58928,13.997915,0,1,0,18.8
Status,,76,39,6,4,1575420030,25.80,18.642311,33.91931,1,1,1,20.8
Status,,76,40,6,6,1575420030,40.50,346.34534,41.052086,1,1,1,35.5
Status,,76,41,6,9,1575420030,34.10,315.65424,36.325565,1,1,1,29.1
Status,,76,42,6,10,1575420030,31.70,195.84358,58.200157,1,1,1,26.7
Status,,76,43,6,11,1575420030,26.00,260.79416,64.69399,0,1,0,21.0
Status,,76,44,6,12,1575420030,27.30,171.46704,38.262566,1,1,1,22.3
Status,,76,45,6,24,1575420030,22.30,187.20912,14.376276,1,1,0,17.3
Status,,76,46,6,31,1575420030,37.10,136.02664,34.777576,1,1,0,32.1
Status,,76,47,6,36,1575420030,26.40,314.62476,25.974043,1,1,0,21.4
Status,,76,48,1,10,1176450050,24.80,87.931076,47.166843,1,1,1,19.8
Status,,76,49,1,23,1176450050,17.30,118.94025,16.619663,0,1,1,12.3
Status,,76,50,1,26,1176450050,27.00,157.49365,37.26756,1,1,1,22.0
Status,,76,51,1,28,1176450050,22.40,18.74752,60.44449,1,1,1,17.4
Status,,76,52,1,32,1176450050,20.60,31.146574,27.52773,1,1,1,15.6
Status,,76,53,4,194,1176450050,18.50,87.013954,14.303241,1,1,0,13.5
Status,,76,54,6,4,1176450050,15.60,18.642311,33.91931,0,1,1,10.6
Status,,76,55,6,6,1176450050,25.60,346.34534,41.052086,1,1,1,20.6
Status,,76,56,6,9,1176450050,18.30,315.65424,36.325565,1,1,1,13.3
Status,,76,57,6,10,1176450050,18.60,195.84358,58.200157,1,1,1,13.6
Status,,76,58,6,11,1176450050,20.60,260.79416,64.69399,0,1,0,15.6
Status,,76,59,6,12,1176450050,17.10,171.46704,38.262566,1,1,1,12.1
Status,,76,60,6,31,1176450050,20.10,136.02664,34.777576,0,1,0,15.1
Status,,76,61,6,36,1176450050,19.50,314.62476,25.974043,1,1,0,14.5
Status,,76,62,5,23,1176450050,23.90,179.95447,55.12098,1,1,1,18.9
Status,,76,63,5,25,1176450050,21.90,66.03234,55.69479,1,1,1,16.9
Status,,76,64,5,28,1176450050,18.40,214.25002,30.532698,1,1,1,13.4
Status,,76,65,5,32,1176450050,17.90,310.0999,8.510524,1,1,0,12.9
Status,,76,66,5,38,1176450050,17.20,119.04224,40.599575,0,1,1,12.2
Status,,76,67,5,41,1176450050,20.90,358.62985,37.83034,0,1,0,15.9
Status,,76,68,5,23,1575420030,29.40,179.95447,55.12098,1,1,1,24.4
Status,,76,69,5,24,1575420030,22.20,40.41495,8.0257435,1,1,0,17.2
Status,,76,70,5,25,1575420030,28.10,66.03234,55.69479,1,1,1,23.1
Status,,76,71,5,27,1575420030,22.90,265.90793,26.106401,1,1,0,17.9
Status,,76,72,5,28,1575420030,31.00,214.25002,30.532698,1,1,1,26.0
Status,,76,73,5,32,1575420030,17.30,310.0999,8.510524,1,1,0,12.3
Status,,76,74,5,38,1575420030,34.00,119.04224,40.599575,1,1,1,29.0
Status,,76,75,5,41,1575420030,34.50,358.62985,37.83034,0,1,0,29.5
Raw,1727335157428,904975239000000,18,0.0,-1410465400189211384,-0.07289981842041016,35.66137093002908,1.6225994336303464,10.421449193559846,339,2,0.0,16399,371975348804835,16,39.4,-372.5594177246094,1.7585482597351074,16,0.0,0.0,1575420030,,,,0,0.0,1,-51.91,34.4,0.0,0.0,,,C,575913686268721,0
Raw,1727335157428,904975239000000,18,0.0,-1410465400189211384,-0.07289981842041016,35.66137093002908,1.6225994336303464,10.421449193559846,339,10,0.0,16399,371975356730175,27,34.4,69.2002944946289,0.5795000195503235,16,0.0,0.0,1575420030,,,,0,0.0,1,-51.91,29.4,0.0,0.0,,,C,575913686268721,0
Raw,1727335157428,904975239000000,18,0.0,-1410465400189211384,-0.07289981842041016,35.66137093002908,1.6225994336303464,10.421449193559846,339,21,0.0,16399,371975352181392,24,35.4,-183.6463165283203,5.810312747955322,16,0.0,0.0,1575420030,,,,0,0.0,1,-51.91,30.4,0.0,0.0,,,C,575913686268721,0
Raw,1727335157428,904975239000000,18,0.0,-1410465400189211384,-0.07289981842041016,35.66137093002908,1.6225994336303464,10.421449193559846,339,23,0.0,16399,371975348834645,31,33.1,418.6841125488281,0.6315000057220459,16,0.0,0.0,1575420030,,,,0,0.0,1,-51.91,28.1,0.0,0.0,,,C,575913686268721,0
Raw,1727335157428,904975239000000,18,0.0,-1410465400189211384,-0.07289981842041016,35.66137093002908,1.6225994336303464,10.421449193559846,339,26,0.0,16399,371975354595836,12,42.9,-474.3642578125,0.0299975723028183,16,0.0,0.0,1575420030,,,,0,0.0,1,-51.91,37.9,0.0,0.0,,,C,575913686268721,0
Raw,1727335157428,904975239000000,18,0.0,-1410465400189211384,-0.07289981842041016,35.66137093002908,1.6225994336303464,10.421449193559846,339,28,0.0,16399,371975358328380,24,35.4,355.2007751464844,4.65955114364624,16,0.0,0.0,1575420030,,,,0,0.0,1,-51.91,30.4,0.0,0.0,,,C,575913686268721,0
Raw,1727335157428,904975239000000,18,0.0,-1410465400189211384,-0.07289981842041016,35.66137093002908,1.6225994336303464,10.421449193559846,339,31,0.0,16399,371975360917347,13,41.5,-123.74858856201172,0.6227729916572571,16,0.0,0.0,1575420030,,,,0,0.0,1,-51.91,36.5,0.0,0.0,,,C,575913686268721,0
Raw,1727335157428,904975239000000,18,0.0,-1410465400189211384,-0.07289981842041016,35.66137093002908,1.6225994336303464,10.421449193559846,339,32,0.0,16399,371975350399772,27,34.5,194.48963928222656,0.5885000228881836,16,0.0,0.0,1575420030,,,,0,0.0,1,-51.91,29.5,0.0,0.0,,,C,575913686268721,0
Raw,1727335157428,904975239000000,18,0.0,-1410465400189211384,-0.07289981842041016,35.66137093002908,1.6225994336303464,10.421449193559846,339,194,0.0,16399,371975293013528,53,29.2,64.62373352050781,0.8689999580383301,16,0.0,0.0,1575420030,,,,0,0.0,4,-51.91,24.2,0.0,0.0,,,C,575913686268721,0
Raw,1727335157428,904975239000000,18,0.0,-1410465400189211384,-0.07289981842041016,35.66137093002908,1.6225994336303464,10.421449193559846,339,14,0.0,49359,37157361535327,13,40.3,-394.0420837402344,1.7386502027511597,16,0.0,0.0,1598062460,,,,0,0.0,3,-54.82,36.3,3770.938720703125,9.556954383850098,,,C,575913686268721,0
Raw,1727335157428,904975239000000,18,0.0,-1410465400189211384,-0.07289981842041016,35.66137093002908,1.6225994336303464,10.421449193559846,339,18,0.0,49359,37157358294679,24,34.3,373.13336181640625,7.959336280822754,16,0.0,0.0,1600312450,,,,0,0.0,3,-54.82,30.299999999999997,3770.938720703125,9.556954383850098,,,C,575913686268721,0
Raw,1727335157428,904975239000000,18,0.0,-1410465400189211384,-0.07289981842041016,35.66137093002908,1.6225994336303464,10.421449193559846,339,13,0.0,49359,37157356722117,92,24.6,390.5845947265625,2.7204999923706055,16,0.0,0.0,1600875010,,,,0,0.0,3,-54.82,20.6,3770.938720703125,9.556954383850098,,,C,575913686268721,0
Raw,1727335157428,904975239000000,18,0.0,-1410465400189211384,-0.07289981842041016,35.66137093002908,1.6225994336303464,10.421449193559846,339,15,0.0,49359,37157351873395,53,28.4,-775.9329223632812,0.9269999861717224,16,0.0,0.0,1602000000,,,,0,0.0,3,-54.82,24.4,3770.938720703125,9.556954383850098,,,C,575913686268721,0
Raw,1727335157428,904975239000000,18,0.0,-1410465400189211384,-0.07289981842041016,35.66137093002908,1.6225994336303464,10.421449193559846,339,17,0.0,49359,37157352682328,46,29.7,687.6492309570312,0.8554999828338623,16,0.0,0.0,1604249980,,,,0,0.0,3,-54.82,25.7,3770.938720703125,9.556954383850098,,,C,575913686268721,0
Raw,1727335157428,904975239000000,18,0.0,-1410465400189211384,-0.07289981842041016,35.66137093002908,1.6225994336303464,10.421449193559846,339,3,0.0,49359,37157354582228,31,32.0,-80.44904327392578,0.67249995470047,16,0.0,0.0,1604812540,,,,0,0.0,3,-54.82,28.0,3770.938720703125,9.556954383850098,,,C,575913686268721,0
