# 
# Header Description:
# 
# Version: v3.0.6.4 Platform: 14 Manufacturer: samsung Model: SM-M346B
# 
# Raw,utcTimeMillis,TimeNanos,LeapSecond,TimeUncertaintyNanos,FullBiasNanos,BiasNanos,BiasUncertaintyNanos,DriftNanosPerSecond,DriftUncertaintyNanosPerSecond,HardwareClockDiscontinuityCount,Svid,TimeOffsetNanos,State,ReceivedSvTimeNanos,ReceivedSvTimeUncertaintyNanos,Cn0DbHz,PseudorangeRateMetersPerSecond,PseudorangeRateUncertaintyMetersPerSecond,AccumulatedDeltaRangeState,AccumulatedDeltaRangeMeters,AccumulatedDeltaRangeUncertaintyMeters,CarrierFrequencyHz,CarrierCycles,CarrierPhase,CarrierPhaseUncertainty,MultipathIndicator,SnrInDb,ConstellationType,AgcDb,BasebandCn0DbHz,FullInterSignalBiasNanos,FullInterSignalBiasUncertaintyNanos,SatelliteInterSignalBiasNanos,SatelliteInterSignalBiasUncertaintyNanos,CodeType,ChipsetElapsedRealtimeNanos
# 
# UncalAccel,utcTimeMillis,elapsedRealtimeNanos,UncalAccelXMps2,UncalAccelYMps2,UncalAccelZMps2,BiasXMps2,BiasYMps2,BiasZMps2
# 
# Accel,utcTimeMillis,elapsedRealtimeNanos,AccelXMps2,AccelYMps2,AccelZMps2
# 
# UncalGyro,utcTimeMillis,elapsedRealtimeNanos,UncalGyroXRadPerSec,UncalGyroYRadPerSec,UncalGyroZRadPerSec,DriftXRadPerSec,DriftYRadPerSec,DriftZRadPerSec
# 
# Gyro,utcTimeMillis,elapsedRealtimeNanos,GyroXRadPerSec,GyroYRadPerSec,GyroZRadPerSec
# 
# UncalMag,utcTimeMillis,elapsedRealtimeNanos,UncalMagXMicroT,UncalMagYMicroT,UncalMagZMicroT,BiasXMicroT,BiasYMicroT,BiasZMicroT
# 
# Mag,utcTimeMillis,elapsedRealtimeNanos,MagXMicroT,MagYMicroT,MagZMicroT
# 
# OrientationDeg,utcTimeMillis,elapsedRealtimeNanos,yawDeg,rollDeg,pitchDeg
# 
# Fix,Provider,LatitudeDegrees,LongitudeDegrees,AltitudeMeters,SpeedMps,AccuracyMeters,BearingDegrees,UnixTimeMillis,SpeedAccuracyMps,BearingAccuracyDegrees,elapsedRealtimeNanos,VerticalAccuracyMeters,MockLocation,NumberOfUsedSignals,VerticalSpeedAccuracyMps,SolutionType
# 
# Nav,Svid,Type,Status,MessageId,Sub-messageId,Data(Bytes)
# 
# Status,UnixTimeMillis,SignalCount,SignalIndex,ConstellationType,Svid,CarrierFrequencyHz,Cn0DbHz,AzimuthDegrees,ElevationDegrees,UsedInFix,HasAlmanacData,HasEphemerisData,BasebandCn0DbHz
# 
# Agc,utcTimeMillis,TimeNanos,LeapSecond,TimeUncertaintyNanos,FullBiasNanos,BiasNanos,BiasUncertaintyNanos,DriftNanosPerSecond,DriftUncertaintyNanosPerSecond,HardwareClockDiscontinuityCount,AgcDb,CarrierFrequencyHz,ConstellationType
# 
Raw,1727335156881,4315267151,18,0.0,-1411370370566517248,0.0,2000046.0,-19.388717651367188,0.0,0,31,0.0,19,7954692,15,33.29999923706055,-130.59292602539062,0.12486109882593155,16,0.0,0.0882892832159996,1575420030,,,,0,,1,1.2999999523162842,28.299999237060547,0.0,0.0,0.0,0.0,C,1587460855401231
Raw,1727335156881,4315267151,18,0.0,-1411370370566517248,0.0,2000046.0,-19.388717651367188,0.0,0,26,0.0,19,1632474,17,31.899999618530273,-482.0353088378906,0.13819599151611328,16,0.0,0.09771838784217834,1575420030,,,,0,,1,1.2999999523162842,26.899999618530273,0.0,0.0,0.0,0.0,C,1587460855401231
Raw,1727335156881,4315267151,18,0.0,-1411370370566517248,0.0,2000046.0,-19.388717651367188,0.0,0,28,0.0,19,5366517,15,34.0,348.53802490234375,0.11890606582164764,16,0.0,0.08407847583293915,1575420030,,,,0,,1,1.2999999523162842,29.0,0.0,0.0,0.0,0.0,C,1587460855401231
Raw,1727335156881,4315267151,18,0.0,-1411370370566517248,0.0,2000046.0,-19.388717651367188,0.0,0,2,0.0,19,15841732,21,28.299999237060547,-379.41400146484375,0.18419939279556274,16,0.0,0.13024738430976868,1575420030,,,,0,,1,1.2999999523162842,23.299999237060547,0.0,0.0,0.0,0.0,C,1587460855401231
Raw,1727335156881,4315267151,18,0.0,-1411370370566517248,0.0,2000046.0,-19.388717651367188,0.0,0,10,0.0,19,3767843,21,28.200000762939453,62.18421173095703,0.18579070270061493,16,0.0,0.1313726007938385,1575420030,,,,0,,1,1.2999999523162842,23.200000762939453,0.0,0.0,0.0,0.0,C,1587460855401231
Raw,1727335156881,4315267151,18,0.0,-1411370370566517248,0.0,2000046.0,-19.388717651367188,0.0,0,23,0.0,19,15873041,25,26.0,412.74847412109375,0.22675736248493195,16,0.0,0.16034013032913208,1575420030,,,,0,,1,1.2999999523162842,21.0,0.0,0.0,0.0,0.0,C,1587460855401231
Raw,1727335156881,4315267151,18,0.0,-1411370370566517248,0.0,2000046.0,-19.388717651367188,0.0,0,32,0.0,19,17437685,28,24.799999237060547,188.967529296875,0.25507602095603943,16,0.0,0.18036425113677979,1575420030,,,,0,,1,1.2999999523162842,19.799999237060547,0.0,0.0,0.0,0.0,C,1587460855401231
Raw,1727335156881,4315267151,18,0.0,-1411370370566517248,0.0,2000046.0,-19.388717651367188,0.0,0,21,0.0,17,218716,29,24.100000381469727,-190.14512634277344,0.27411526441574097,16,0.0,0.19382689893245697,1575420030,,,,0,,1,1.2999999523162842,19.100000381469727,0.0,0.0,0.0,0.0,C,1587460855401231
Raw,1727335156881,4315267151,18,0.0,-1411370370566517248,0.0,2000046.0,-19.388717651367188,0.0,0,28,0.0,51,15119040,10,40.70000076293945,366.3983459472656,0.07846274971961975,19,-40308.58774160431,0.15150076150894165,1561097980,,,,0,,5,1.2999999523162842,35.70000076293945,0.0,0.0,0.0,0.0,C,1587460855401231
Raw,1727335156881,4315267151,18,0.0,-1411370370566517248,0.0,2000046.0,-19.388717651367188,0.0,0,9,0.0,1040,2026076,16,32.70000076293945,26.334577560424805,0.13032881915569305,16,0.0,0.09215550869703293,1575420030,,,,0,,6,1.2999999523162842,27.700000762939453,0.0,0.0,0.0,0.0,C,1587460855401231
Raw,1727335156881,4315267151,18,0.0,-1411370370566517248,0.0,2000046.0,-19.388717651367188,0.0,0,18,0.0,51,5336653,18,30.399999618530273,365.7735595703125,0.15500031411647797,16,0.0,0.1096007227897644,1600312450,,,,0,,3,1.2999999523162842,25.399999618530273,0.0,0.0,0.0,0.0,C,1587460855401231
Raw,1727335156881,4315267151,18,0.0,-1411370370566517248,0.0,2000046.0,-19.388717651367188,0.0,0,10,0.0,1040,2604650,17,31.700000762939453,336.4339294433594,0.14027409255504608,16,0.0,0.09918781369924545,1575420030,,,,0,,6,1.2999999523162842,26.700000762939453,0.0,0.0,0.0,0.0,C,1587460855401231
Raw,1727335156881,4315267151,18,0.0,-1411370370566517248,0.0,2000046.0,-19.388717651367188,0.0,0,39,0.0,51,8725357,16,32.20000076293945,166.0952911376953,0.13516435027122498,16,0.0,0.09557471424341202,1561097980,,,,0,,5,1.2999999523162842,27.200000762939453,0.0,0.0,0.0,0.0,C,1587460855401231
Raw,1727335156881,4315267151,18,0.0,-1411370370566517248,0.0,2000046.0,-19.388717651367188,0.0,0,41,0.0,51,15694405,16,32.20000076293945,-195.580810546875,0.13516435027122498,16,0.0,0.09557471424341202,1561097980,,,,0,,5,1.2999999523162842,27.200000762939453,0.0,0.0,0.0,0.0,C,1587460855401231
Raw,1727335156881,4315267151,18,0.0,-1411370370566517248,0.0,2000046.0,-19.388717651367188,0.0,0,14,0.0,51,8575842,20,28.899999618530273,-400.8733825683594,0.1750669777393341,16,0.0,0.12378986179828644,1598062460,,,,0,,3,1.2999999523162842,23.899999618530273,0.0,0.0,0.0,0.0,C,1587460855401231
Raw,1727335156881,4315267151,18,0.0,-1411370370566517248,0.0,2000046.0,-19.388717651367188,0.0,0,6,0.0,51,12537635,22,27.899999618530273,136.62843322753906,0.19069050252437592,16,0.0,0.13483725488185883,1561097980,,,,0,,5,1.2999999523162842,22.899999618530273,0.0,0.0,0.0,0.0,C,1587460855401231
Raw,1727335156881,4315267151,18,0.0,-1411370370566517248,0.0,2000046.0,-19.388717651367188,0.0,0,23,0.0,51,19613271,19,29.600000381469727,-398.9081726074219,0.16524554789066315,16,0.0,0.11684512346982956,1561097980,,,,0,,5,1.2999999523162842,24.600000381469727,0.0,0.0,0.0,0.0,C,1587460855401231
Raw,1727335156881,4315267151,18,0.0,-1411370370566517248,0.0,2000046.0,-19.388717651367188,0.0,0,13,0.0,51,14819752,19,29.600000381469727,-109.01126098632812,0.16524554789066315,16,0.0,0.11684512346982956,1561097980,,,,0,,5,1.2999999523162842,24.600000381469727,0.0,0.0,0.0,0.0,C,1587460855401231
Raw,1727335156881,4315267151,18,0.0,-1411370370566517248,0.0,2000046.0,-19.388717651367188,0.0,0,6,0.0,1040,2794877,26,25.700000762939453,92.395751953125,0.23337766528129578,16,0.0,0.16502134501934052,1575420030,,,,0,,6,1.2999999523162842,20.700000762939453,0.0,0.0,0.0,0.0,C,1587460855401231
Raw,1727335156881,4315267151,18,0.0,-1411370370566517248,0.0,2000046.0,-19.388717651367188,0.0,0,7,0.0,51,1926854,25,26.200000762939453,-141.03842163085938,0.2224990874528885,16,0.0,0.15732909739017487,1561097980,,,,0,,5,1.2999999523162842,21.200000762939453,0.0,0.0,0.0,0.0,C,1587460855401231
Raw,1727335156881,4315267151,18,0.0,-1411370370566517248,0.0,2000046.0,-19.388717651367188,0.0,0,9,0.0,51,12445061,25,26.0,114.79586029052734,0.22675736248493195,16,0.0,0.16034013032913208,1561097980,,,,0,,5,1.2999999523162842,21.0,0.0,0.0,0.0,0.0,C,1587460855401231
Raw,1727335156881,4315267151,18,0.0,-1411370370566517248,0.0,2000046.0,-19.388717651367188,0.0,0,17,0.0,51,19724846,27,25.100000381469727,680.96435546875,0.2475186139345169,16,0.0,0.17502041161060333,1604249980,,,,0,,3,1.2999999523162842,20.100000381469727,0.0,0.0,0.0,0.0,C,1587460855401231
Fix,FLP,12.9372208000,77.5421361000,795.7000122070312,0.19120154,44.459,49.485077,1727335157658,1.5,45.0,1456404819000000,1.1565174,0,,,
Raw,1727335157991,5433536685,18,0.0,-1411370370558257920,0.0,2000046.0,-19.893701553344727,0.0,0,31,0.0,19,6224681,15,34.29999923706055,-130.75599670410156,0.11648360639810562,16,0.0,0.08236555755138397,1575420030,,,,0,,1,1.2999999523162842,29.299999237060547,0.0,0.0,0.0,0.0,C,1587461973664951
Raw,1727335157991,5433536685,18,0.0,-1411370370558257920,0.0,2000046.0,-19.893701553344727,0.0,0,2,0.0,19,14112622,19,29.700000762939453,-378.9868469238281,0.16391023993492126,16,0.0,0.1159009337425232,1575420030,,,,0,,1,1.2999999523162842,24.700000762939453,0.0,0.0,0.0,0.0,C,1587461973664951
Raw,1727335157991,5433536685,18,0.0,-1411370370558257920,0.0,2000046.0,-19.893701553344727,0.0,0,26,0.0,19,19903816,16,32.599998474121094,-481.90313720703125,0.13127493858337402,16,0.0,0.09282451122999191,1575420030,,,,0,,1,1.2999999523162842,27.600000381469727,0.0,0.0,0.0,0.0,C,1587461973664951
Raw,1727335157991,5433536685,18,0.0,-1411370370558257920,0.0,2000046.0,-19.893701553344727,0.0,0,28,0.0,19,3634757,15,33.79999923706055,349.8831787109375,0.12056328356266022,16,0.0,0.08525029569864273,1575420030,,,,0,,1,1.2999999523162842,28.799999237060547,0.0,0.0,0.0,0.0,C,1587461973664951
Raw,1727335157991,5433536685,18,0.0,-1411370370558257920,0.0,2000046.0,-19.893701553344727,0.0,0,10,0.0,19,2037119,21,28.200000762939453,62.71388244628906,0.18579070270061493,16,0.0,0.1313726007938385,1575420030,,,,0,,1,1.2999999523162842,23.200000762939453,0.0,0.0,0.0,0.0,C,1587461973664951
Raw,1727335157991,5433536685,18,0.0,-1411370370558257920,0.0,2000046.0,-19.893701553344727,0.0,0,32,0.0,19,15706498,25,26.200000762939453,189.1796417236328,0.2224990874528885,16,0.0,0.15732909739017487,1575420030,,,,0,,1,1.2999999523162842,21.200000762939453,0.0,0.0,0.0,0.0,C,1587461973664951
Raw,1727335157991,5433536685,18,0.0,-1411370370558257920,0.0,2000046.0,-19.893701553344727,0.0,0,23,0.0,19,14140952,25,26.0,413.5396728515625,0.22675736248493195,16,0.0,0.16034013032913208,1575420030,,,,0,,1,1.2999999523162842,21.0,0.0,0.0,0.0,0.0,C,1587461973664951
Raw,1727335157991,5433536685,18,0.0,-1411370370558257920,0.0,2000046.0,-19.893701553344727,0.0,0,21,0.0,17,488879,29,24.100000381469727,-189.1195068359375,0.27411526441574097,16,0.0,0.19382689893245697,1575420030,,,,0,,1,1.2999999523162842,19.100000381469727,0.0,0.0,0.0,0.0,C,1587461973664951
Raw,1727335157991,5433536685,18,0.0,-1411370370558257920,0.0,2000046.0,-19.893701553344727,0.0,0,28,0.0,51,13387213,10,40.70000076293945,366.3582763671875,0.07846274971961975,19,-39899.025202037854,0.15150076150894165,1561097980,,,,0,,5,1.2999999523162842,35.70000076293945,0.0,0.0,0.0,0.0,C,1587461973664951
Raw,1727335157991,5433536685,18,0.0,-1411370370558257920,0.0,2000046.0,-19.893701553344727,0.0,0,9,0.0,1040,3295444,16,32.70000076293945,26.914649963378906,0.13032881915569305,16,0.0,0.09215550869703293,1575420030,,,,0,,6,1.2999999523162842,27.700000762939453,0.0,0.0,0.0,0.0,C,1587461973664951
Raw,1727335157991,5433536685,18,0.0,-1411370370558257920,0.0,2000046.0,-19.893701553344727,0.0,0,18,0.0,51,3604882,18,30.399999618530273,366.9432067871094,0.15500031411647797,16,0.0,0.1096007227897644,1600312450,,,,0,,3,1.2999999523162842,25.399999618530273,0.0,0.0,0.0,0.0,C,1587461973664951
Raw,1727335157991,5433536685,18,0.0,-1411370370558257920,0.0,2000046.0,-19.893701553344727,0.0,0,41,0.0,51,13964739,16,32.20000076293945,-194.9706268310547,0.13516435027122498,16,0.0,0.09557471424341202,1561097980,,,,0,,5,1.2999999523162842,27.200000762939453,0.0,0.0,0.0,0.0,C,1587461973664951
Raw,1727335157991,5433536685,18,0.0,-1411370370558257920,0.0,2000046.0,-19.893701553344727,0.0,0,39,0.0,51,6994286,16,32.099998474121094,166.34658813476562,0.13616371154785156,16,0.0,0.09628135710954666,1561097980,,,,0,,5,1.2999999523162842,27.100000381469727,0.0,0.0,0.0,0.0,C,1587461973664951
Raw,1727335157991,5433536685,18,0.0,-1411370370558257920,0.0,2000046.0,-19.893701553344727,0.0,0,9,0.0,51,10714171,25,26.0,114.15776824951172,0.22675736248493195,16,0.0,0.16034013032913208,1561097980,,,,0,,5,1.2999999523162842,21.0,0.0,0.0,0.0,0.0,C,1587461973664951
Raw,1727335157991,5433536685,18,0.0,-1411370370558257920,0.0,2000046.0,-19.893701553344727,0.0,0,14,0.0,51,6846862,20,28.899999618530273,-402.2414855957031,0.1750669777393341,16,0.0,0.12378986179828644,1598062460,,,,0,,3,1.2999999523162842,23.899999618530273,0.0,0.0,0.0,0.0,C,1587461973664951
Raw,1727335157991,5433536685,18,0.0,-1411370370558257920,0.0,2000046.0,-19.893701553344727,0.0,0,13,0.0,51,13089640,19,29.600000381469727,-108.67963409423828,0.16524554789066315,16,0.0,0.11684512346982956,1561097980,,,,0,,5,1.2999999523162842,24.600000381469727,0.0,0.0,0.0,0.0,C,1587461973664951
Raw,1727335157991,5433536685,18,0.0,-1411370370558257920,0.0,2000046.0,-19.893701553344727,0.0,0,27,0.0,51,12152053,24,26.600000381469727,103.35006713867188,0.21433469653129578,16,0.0,0.15155605971813202,1561097980,,,,0,,5,1.2999999523162842,21.600000381469727,0.0,0.0,0.0,0.0,C,1587461973664951
Raw,1727335157991,5433536685,18,0.0,-1411370370558257920,0.0,2000046.0,-19.893701553344727,0.0,0,6,0.0,51,10806706,22,27.899999618530273,136.72091674804688,0.19069050252437592,16,0.0,0.13483725488185883,1561097980,,,,0,,5,1.2999999523162842,22.899999618530273,0.0,0.0,0.0,0.0,C,1587461973664951
Raw,1727335157991,5433536685,18,0.0,-1411370370558257920,0.0,2000046.0,-19.893701553344727,0.0,0,23,0.0,51,17884284,19,29.600000381469727,-397.33843994140625,0.16524554789066315,16,0.0,0.11684512346982956,1561097980,,,,0,,5,1.2999999523162842,24.600000381469727,0.0,0.0,0.0,0.0,C,1587461973664951
Raw,1727335157991,5433536685,18,0.0,-1411370370558257920,0.0,2000046.0,-19.893701553344727,0.0,0,16,0.0,51,7417162,21,28.100000381469727,157.14952087402344,0.18740276992321014,16,0.0,0.13251249492168427,1561097980,,,,0,,5,1.2999999523162842,23.100000381469727,0.0,0.0,0.0,0.0,C,1587461973664951
Raw,1727335157991,5433536685,18,0.0,-1411370370558257920,0.0,2000046.0,-19.893701553344727,0.0,0,10,0.0,51,1537366,25,26.200000762939453,-83.25501251220703,0.2224990874528885,16,0.0,0.15732909739017487,1561097980,,,,0,,5,1.2999999523162842,21.200000762939453,0.0,0.0,0.0,0.0,C,1587461973664951
Raw,1727335157991,5433536685,18,0.0,-1411370370558257920,0.0,2000046.0,-19.893701553344727,0.0,0,7,0.0,51,196845,22,27.5,-140.36007690429688,0.1975308656692505,16,0.0,0.1396740823984146,1561097980,,,,0,,5,1.2999999523162842,22.5,0.0,0.0,0.0,0.0,C,1587461973664951
Raw,1727335157991,5433536685,18,0.0,-1411370370558257920,0.0,2000046.0,-19.893701553344727,0.0,0,17,0.0,51,17991931,27,25.100000381469727,681.1376953125,0.2475186139345169,16,0.0,0.17502041161060333,1604249980,,,,0,,3,1.2999999523162842,20.100000381469727,0.0,0.0,0.0,0.0,C,1587461973664951
Raw,1727335157991,5433536685,18,0.0,-1411370370558257920,0.0,2000046.0,-19.893701553344727,0.0,0,10,0.0,1040,3872950,17,31.5,335.62713623046875,0.14239943027496338,16,0.0,0.10069064050912857,1575420030,,,,0,,6,1.2999999523162842,26.5,0.0,0.0,0.0,0.0,C,1587461973664951
Raw,1727335157991,5433536685,18,0.0,-1411370370558257920,0.0,2000046.0,-19.893701553344727,0.0,0,6,0.0,1040,3064064,26,25.700000762939453,94.06806945800781,0.23337766528129578,16,0.0,0.16502134501934052,1575420030,,,,0,,6,1.2999999523162842,20.700000762939453,0.0,0.0,0.0,0.0,C,1587461973664951
Raw,1727335157991,5433536685,18,0.0,-1411370370558257920,0.0,2000046.0,-19.893701553344727,0.0,0,4,0.0,16,371975923180270,39,21.0,162.25599670410156,0.390625,16,0.0,0.2762109339237213,1575420030,,,,0,,6,1.2999999523162842,16.0,0.0,0.0,0.0,0.0,C,1587461973664951
Raw,1727335159003,6441802493,18,0.0,-1411370370562004480,0.0,2000046.0,-20.4282169342041,0.0,0,31,0.0,19,14490917,15,34.29999923706055,-129.85203552246094,0.11648360639810562,16,0.0,0.08236555755138397,1575420030,,,,0,,1,1.2999999523162842,29.299999237060547,0.0,0.0,0.0,0.0,C,1587462981928350
Raw,1727335159003,6441802493,18,0.0,-1411370370562004480,0.0,2000046.0,-20.4282169342041,0.0,0,2,0.0,19,2379737,17,31.399999618530273,-377.68255615234375,0.14348027110099792,16,0.0,0.10145489871501923,1575420030,,,,0,,1,1.2999999523162842,26.399999618530273,0.0,0.0,0.0,0.0,C,1587462981928350
Raw,1727335159003,6441802493,18,0.0,-1411370370562004480,0.0,2000046.0,-20.4282169342041,0.0,0,26,0.0,19,8171220,16,32.5,-480.3764953613281,0.13223139941692352,16,0.0,0.09350082278251648,1575420030,,,,0,,1,1.2999999523162842,27.5,0.0,0.0,0.0,0.0,C,1587462981928350
Raw,1727335159003,6441802493,18,0.0,-1411370370562004480,0.0,2000046.0,-20.4282169342041,0.0,0,28,0.0,19,11899417,15,33.599998474121094,349.83587646484375,0.1222553625702858,16,0.0,0.08644676953554153,1575420030,,,,0,,1,1.2999999523162842,28.600000381469727,0.0,0.0,0.0,0.0,C,1587462981928350
Raw,1727335159003,6441802493,18,0.0,-1411370370562004480,0.0,2000046.0,-20.4282169342041,0.0,0,21,0.0,19,5755335,27,25.0,-189.1175079345703,0.25,16,0.0,0.1767749935388565,1575420030,,,,0,,1,1.2999999523162842,20.0,0.0,0.0,0.0,0.0,C,1587462981928350
Raw,1727335159003,6441802493,18,0.0,-1411370370562004480,0.0,2000046.0,-20.4282169342041,0.0,0,10,0.0,19,10302687,21,28.200000762939453,61.80738067626953,0.18579070270061493,16,0.0,0.1313726007938385,1575420030,,,,0,,1,1.2999999523162842,23.200000762939453,0.0,0.0,0.0,0.0,C,1587462981928350
Raw,1727335159003,6441802493,18,0.0,-1411370370562004480,0.0,2000046.0,-20.4282169342041,0.0,0,32,0.0,19,3971618,23,27.0,187.9604034423828,0.20661157369613647,16,0.0,0.14609503746032715,1575420030,,,,0,,1,1.2999999523162842,22.0,0.0,0.0,0.0,0.0,C,1587462981928350
Raw,1727335159003,6441802493,18,0.0,-1411370370562004480,0.0,2000046.0,-20.4282169342041,0.0,0,23,0.0,19,2405371,23,26.899999618530273,412.3429260253906,0.20850275456905365,16,0.0,0.14743229746818542,1575420030,,,,0,,1,1.2999999523162842,21.899999618530273,0.0,0.0,0.0,0.0,C,1587462981928350
Raw,1727335159003,6441802493,18,0.0,-1411370370562004480,0.0,2000046.0,-20.4282169342041,0.0,0,28,0.0,51,1651777,11,40.5,366.9387512207031,0.0793493390083313,19,-39529.298111511,0.15212765336036682,1561097980,,,,0,,5,1.2999999523162842,35.5,0.0,0.0,0.0,0.0,C,1587462981928350
Raw,1727335159003,6441802493,18,0.0,-1411370370562004480,0.0,2000046.0,-20.4282169342041,0.0,0,9,0.0,1040,3561170,16,32.599998474121094,27.871103286743164,0.13127493858337402,16,0.0,0.09282451122999191,1575420030,,,,0,,6,1.2999999523162842,27.600000381469727,0.0,0.0,0.0,0.0,C,1587462981928350
Raw,1727335159003,6441802493,18,0.0,-1411370370562004480,0.0,2000046.0,-20.4282169342041,0.0,0,41,0.0,51,2231160,17,32.0,-194.8107147216797,0.13717420399188995,16,0.0,0.09699588268995285,1561097980,,,,0,,5,1.2999999523162842,27.0,0.0,0.0,0.0,0.0,C,1587462981928350
Raw,1727335159003,6441802493,18,0.0,-1411370370562004480,0.0,2000046.0,-20.4282169342041,0.0,0,18,0.0,51,11869350,18,30.5,367.0063171386719,0.15378700196743011,16,0.0,0.10874278843402863,1600312450,,,,0,,3,1.2999999523162842,25.5,0.0,0.0,0.0,0.0,C,1587462981928350
Raw,1727335159003,6441802493,18,0.0,-1411370370562004480,0.0,2000046.0,-20.4282169342041,0.0,0,14,0.0,51,15114002,20,29.0,-401.5330505371094,0.1736111044883728,16,0.0,0.12276041507720947,1598062460,,,,0,,3,1.2999999523162842,24.0,0.0,0.0,0.0,0.0,C,1587462981928350
Raw,1727335159003,6441802493,18,0.0,-1411370370562004480,0.0,2000046.0,-20.4282169342041,0.0,0,39,0.0,51,15259568,17,31.899999618530273,165.88186645507812,0.13819599151611328,16,0.0,0.09771838784217834,1561097980,,,,0,,5,1.2999999523162842,26.899999618530273,0.0,0.0,0.0,0.0,C,1587462981928350
Raw,1727335159003,6441802493,18,0.0,-1411370370562004480,0.0,2000046.0,-20.4282169342041,0.0,0,13,0.0,51,1355831,20,29.399999618530273,-108.42211151123047,0.1679656058549881,16,0.0,0.11876848340034485,1561097980,,,,0,,5,1.2999999523162842,24.399999618530273,0.0,0.0,0.0,0.0,C,1587462981928350
Raw,1727335159003,6441802493,18,0.0,-1411370370562004480,0.0,2000046.0,-20.4282169342041,0.0,0,23,0.0,51,6151482,20,29.399999618530273,-398.3068542480469,0.1679656058549881,16,0.0,0.11876848340034485,1561097980,,,,0,,5,1.2999999523162842,24.399999618530273,0.0,0.0,0.0,0.0,C,1587462981928350
Raw,1727335159003,6441802493,18,0.0,-1411370370562004480,0.0,2000046.0,-20.4282169342041,0.0,0,9,0.0,51,18979569,20,29.100000381469727,115.01221466064453,0.17217335104942322,16,0.0,0.12174377590417862,1561097980,,,,0,,5,1.2999999523162842,24.100000381469727,0.0,0.0,0.0,0.0,C,1587462981928350
Raw,1727335159003,6441802493,18,0.0,-1411370370562004480,0.0,2000046.0,-20.4282169342041,0.0,0,16,0.0,51,15682421,21,28.100000381469727,157.8018798828125,0.18740276992321014,16,0.0,0.13251249492168427,1561097980,,,,0,,5,1.2999999523162842,23.100000381469727,0.0,0.0,0.0,0.0,C,1587462981928350
Raw,1727335159003,6441802493,18,0.0,-1411370370562004480,0.0,2000046.0,-20.4282169342041,0.0,0,10,0.0,51,9803487,25,26.200000762939453,-83.75286102294922,0.2224990874528885,16,0.0,0.15732909739017487,1561097980,,,,0,,5,1.2999999523162842,21.200000762939453,0.0,0.0,0.0,0.0,C,1587462981928350
Raw,1727335159003,6441802493,18,0.0,-1411370370562004480,0.0,2000046.0,-20.4282169342041,0.0,0,27,0.0,51,417547,24,26.600000381469727,105.41162109375,0.21433469653129578,16,0.0,0.15155605971813202,1561097980,,,,0,,5,1.2999999523162842,21.600000381469727,0.0,0.0,0.0,0.0,C,1587462981928350
Raw,1727335159003,6441802493,18,0.0,-1411370370562004480,0.0,2000046.0,-20.4282169342041,0.0,0,7,0.0,51,8463161,22,27.5,-142.06768798828125,0.1975308656692505,16,0.0,0.1396740823984146,1561097980,,,,0,,5,1.2999999523162842,22.5,0.0,0.0,0.0,0.0,C,1587462981928350
Raw,1727335159003,6441802493,18,0.0,-1411370370562004480,0.0,2000046.0,-20.4282169342041,0.0,0,6,0.0,51,19072092,21,28.5,137.57289123535156,0.18107740581035614,16,0.0,0.12803983688354492,1561097980,,,,0,,5,1.2999999523162842,23.5,0.0,0.0,0.0,0.0,C,1587462981928350
Raw,1727335159003,6441802493,18,0.0,-1411370370562004480,0.0,2000046.0,-20.4282169342041,0.0,0,3,0.0,51,8159342,25,26.0,-85.58646392822266,0.22675736248493195,16,0.0,0.16034013032913208,1604812540,,,,0,,3,1.2999999523162842,21.0,0.0,0.0,0.0,0.0,C,1587462981928350
Raw,1727335159003,6441802493,18,0.0,-1411370370562004480,0.0,2000046.0,-20.4282169342041,0.0,0,17,0.0,51,6255415,25,26.100000381469727,682.5828857421875,0.22461310029029846,16,0.0,0.1588239222764969,1604249980,,,,0,,3,1.2999999523162842,21.100000381469727,0.0,0.0,0.0,0.0,C,1587462981928350
Raw,1727335159003,6441802493,18,0.0,-1411370370562004480,0.0,2000046.0,-20.4282169342041,0.0,0,4,0.0,51,5149735,28,24.600000381469727,-186.5366668701172,0.2603082060813904,16,0.0,0.18406392633914948,1605374980,,,,0,,3,1.2999999523162842,19.600000381469727,0.0,0.0,0.0,0.0,C,1587462981928350
Raw,1727335159003,6441802493,18,0.0,-1411370370562004480,0.0,2000046.0,-20.4282169342041,0.0,0,10,0.0,1040,3137644,18,31.0,332.8271179199219,0.14792899787425995,16,0.0,0.10460059344768524,1575420030,,,,0,,6,1.2999999523162842,26.0,0.0,0.0,0.0,0.0,C,1587462981928350
Raw,1727335159003,6441802493,18,0.0,-1411370370562004480,0.0,2000046.0,-20.4282169342041,0.0,0,6,0.0,1040,3329538,26,25.600000381469727,95.83512115478516,0.235648974776268,16,0.0,0.16662739217281342,1575420030,,,,0,,6,1.2999999523162842,20.600000381469727,0.0,0.0,0.0,0.0,C,1587462981928350
Raw,1727335159003,6441802493,18,0.0,-1411370370562004480,0.0,2000046.0,-20.4282169342041,0.0,0,4,0.0,1040,3445545,39,21.0,163.328125,0.390625,16,0.0,0.2762109339237213,1575420030,,,,0,,6,1.2999999523162842,16.0,0.0,0.0,0.0,0.0,C,1587462981928350
Raw,1727335159003,6441802493,18,0.0,-1411370370562004480,0.0,2000046.0,-20.4282169342041,0.0,0,38,0.0,17,426925,53,18.299999237060547,7.343774318695068,0.5653230547904968,16,0.0,0.39973992109298706,1561097980,,,,0,,5,1.2999999523162842,13.300000190734863,0.0,0.0,0.0,0.0,C,1587462981928350
Raw,1727335159503,6943494166,18,0.0,-1411370370559981824,0.0,50.034610748291016,-19.497194290161133,0.0,0,31,0.0,15,371977436182814,15,34.29999923706055,-129.58099365234375,0.11648360639810562,19,-50850.84550377329,0.17751239240169525,1575420030,,,,0,,1,1.2999999523162842,29.299999237060547,0.0,0.0,0.0,0.0,C,1587463470754619
Raw,1727335159503,6943494166,18,0.0,-1411370370559981824,0.0,50.034610748291016,-19.497194290161133,0.0,0,2,0.0,15,371977424072024,17,31.700000762939453,-377.2507019042969,0.14027409255504608,16,0.0,0.09918781369924545,1575420030,,,,0,,1,1.2999999523162842,26.700000762939453,0.0,0.0,0.0,0.0,C,1587463470754619
Raw,1727335159503,6943494166,18,0.0,-1411370370559981824,0.0,50.034610748291016,-19.497194290161133,0.0,0,26,0.0,19,9863686,16,32.400001525878906,-480.5492858886719,0.13319836556911469,16,0.0,0.09418456256389618,1575420030,,,,0,,1,1.2999999523162842,27.399999618530273,0.0,0.0,0.0,0.0,C,1587463470754619
Raw,1727335159503,6943494166,18,0.0,-1411370370559981824,0.0,50.034610748291016,-19.497194290161133,0.0,0,28,0.0,15,371977433590497,15,33.400001525878906,350.0947570800781,0.12398333847522736,16,0.0,0.08766862004995346,1575420030,,,,0,,1,1.2999999523162842,28.399999618530273,0.0,0.0,0.0,0.0,C,1587463470754619
Raw,1727335159503,6943494166,18,0.0,-1411370370559981824,0.0,50.034610748291016,-19.497194290161133,0.0,0,10,0.0,15,371977431994246,21,28.399999618530273,62.09347152709961,0.18262839317321777,16,0.0,0.12913653254508972,1575420030,,,,0,,1,1.2999999523162842,23.399999618530273,0.0,0.0,0.0,0.0,C,1587463470754619
Raw,1727335159503,6943494166,18,0.0,-1411370370559981824,0.0,50.034610748291016,-19.497194290161133,0.0,0,21,0.0,19,7447271,21,28.299999237060547,-189.00636291503906,0.18419939279556274,16,0.0,0.13024738430976868,1575420030,,,,0,,1,1.2999999523162842,23.299999237060547,0.0,0.0,0.0,0.0,C,1587463470754619
Raw,1727335159503,6943494166,18,0.0,-1411370370559981824,0.0,50.034610748291016,-19.497194290161133,0.0,0,32,0.0,19,5663004,22,27.600000381469727,188.81069946289062,0.19578666985034943,16,0.0,0.13844075798988342,1575420030,,,,0,,1,1.2999999523162842,22.600000381469727,0.0,0.0,0.0,0.0,C,1587463470754619
Raw,1727335159503,6943494166,18,0.0,-1411370370559981824,0.0,50.034610748291016,-19.497194290161133,0.0,0,23,0.0,19,4096353,23,26.899999618530273,412.2460021972656,0.20850275456905365,16,0.0,0.14743229746818542,1575420030,,,,0,,1,1.2999999523162842,21.899999618530273,0.0,0.0,0.0,0.0,C,1587463470754619
Raw,1727335159503,6943494166,18,0.0,-1411370370559981824,0.0,50.034610748291016,-19.497194290161133,0.0,0,28,0.0,51,3342837,11,40.400001525878906,366.77691650390625,0.07979825884103775,19,-39345.24391264378,0.15244509279727936,1561097980,,,,0,,5,1.2999999523162842,35.400001525878906,0.0,0.0,0.0,0.0,C,1587463470754619
Raw,1727335159503,6943494166,18,0.0,-1411370370559981824,0.0,50.034610748291016,-19.497194290161133,0.0,0,36,0.0,1040,1624372,19,29.600000381469727,-358.4064636230469,0.16524554789066315,16,0.0,0.11684512346982956,1575420030,,,,0,,6,1.2999999523162842,24.600000381469727,0.0,0.0,0.0,0.0,C,1587463470754619
Raw,1727335159503,6943494166,18,0.0,-1411370370559981824,0.0,50.034610748291016,-19.497194290161133,0.0,0,9,0.0,1040,1252854,16,32.400001525878906,28.05358123779297,0.13319836556911469,16,0.0,0.09418456256389618,1575420030,,,,0,,6,1.2999999523162842,27.399999618530273,0.0,0.0,0.0,0.0,C,1587463470754619
Raw,1727335159503,6943494166,18,0.0,-1411370370559981824,0.0,50.034610748291016,-19.497194290161133,0.0,0,18,0.0,51,13560488,18,30.5,367.5191955566406,0.15378700196743011,16,0.0,0.10874278843402863,1600312450,,,,0,,3,1.2999999523162842,25.5,0.0,0.0,0.0,0.0,C,1587463470754619
Raw,1727335159503,6943494166,18,0.0,-1411370370559981824,0.0,50.034610748291016,-19.497194290161133,0.0,0,41,0.0,51,3923141,17,31.799999237060547,-194.5074462890625,0.13922923803329468,16,0.0,0.0984489917755127,1561097980,,,,0,,5,1.2999999523162842,26.799999237060547,0.0,0.0,0.0,0.0,C,1587463470754619
Raw,1727335159503,6943494166,18,0.0,-1411370370559981824,0.0,50.034610748291016,-19.497194290161133,0.0,0,14,0.0,51,16806357,19,29.799999237060547,-401.3451843261719,0.16259105503559113,16,0.0,0.11496813595294952,1598062460,,,,0,,3,1.2999999523162842,24.799999237060547,0.0,0.0,0.0,0.0,C,1587463470754619
Raw,1727335159503,6943494166,18,0.0,-1411370370559981824,0.0,50.034610748291016,-19.497194290161133,0.0,0,39,0.0,51,16950975,17,31.700000762939453,166.0035400390625,0.14027409255504608,16,0.0,0.09918781369924545,1561097980,,,,0,,5,1.2999999523162842,26.700000762939453,0.0,0.0,0.0,0.0,C,1587463470754619
Raw,1727335159503,6943494166,18,0.0,-1411370370559981824,0.0,50.034610748291016,-19.497194290161133,0.0,0,13,0.0,51,3047692,20,29.399999618530273,-109.13603973388672,0.1679656058549881,16,0.0,0.11876848340034485,1561097980,,,,0,,5,1.2999999523162842,24.399999618530273,0.0,0.0,0.0,0.0,C,1587463470754619
Raw,1727335159503,6943494166,18,0.0,-1411370370559981824,0.0,50.034610748291016,-19.497194290161133,0.0,0,3,0.0,51,9851181,25,26.0,-85.90933990478516,0.22675736248493195,16,0.0,0.16034013032913208,1604812540,,,,0,,3,1.2999999523162842,21.0,0.0,0.0,0.0,0.0,C,1587463470754619
Raw,1727335159503,6943494166,18,0.0,-1411370370559981824,0.0,50.034610748291016,-19.497194290161133,0.0,0,23,0.0,51,7843800,20,29.299999237060547,-398.3365173339844,0.16935087740421295,16,0.0,0.11974800378084183,1561097980,,,,0,,5,1.2999999523162842,24.299999237060547,0.0,0.0,0.0,0.0,C,1587463470754619
Raw,1727335159503,6943494166,18,0.0,-1411370370559981824,0.0,50.034610748291016,-19.497194290161133,0.0,0,27,0.0,51,2109063,23,26.899999618530273,106.30000305175781,0.20850275456905365,16,0.0,0.14743229746818542,1561097980,,,,0,,5,1.2999999523162842,21.899999618530273,0.0,0.0,0.0,0.0,C,1587463470754619
Raw,1727335159503,6943494166,18,0.0,-1411370370559981824,0.0,50.034610748291016,-19.497194290161133,0.0,0,9,0.0,51,671077,20,29.100000381469727,114.23534393310547,0.17217335104942322,16,0.0,0.12174377590417862,1561097980,,,,0,,5,1.2999999523162842,24.100000381469727,0.0,0.0,0.0,0.0,C,1587463470754619
Raw,1727335159503,6943494166,18,0.0,-1411370370559981824,0.0,50.034610748291016,-19.497194290161133,0.0,0,16,0.0,51,17373860,21,28.100000381469727,157.83042907714844,0.18740276992321014,16,0.0,0.13251249492168427,1561097980,,,,0,,5,1.2999999523162842,23.100000381469727,0.0,0.0,0.0,0.0,C,1587463470754619
Raw,1727335159503,6943494166,18,0.0,-1411370370559981824,0.0,50.034610748291016,-19.497194290161133,0.0,0,10,0.0,51,11495284,22,27.5,-84.21502685546875,0.1975308656692505,16,0.0,0.1396740823984146,1561097980,,,,0,,5,1.2999999523162842,22.5,0.0,0.0,0.0,0.0,C,1587463470754619
Raw,1727335159503,6943494166,18,0.0,-1411370370559981824,0.0,50.034610748291016,-19.497194290161133,0.0,0,7,0.0,51,10155093,23,27.399999618530273,-142.43179321289062,0.19929847121238708,16,0.0,0.14092394709587097,1561097980,,,,0,,5,1.2999999523162842,22.399999618530273,0.0,0.0,0.0,0.0,C,1587463470754619
Raw,1727335159503,6943494166,18,0.0,-1411370370559981824,0.0,50.034610748291016,-19.497194290161133,0.0,0,17,0.0,51,7946005,25,26.100000381469727,682.314697265625,0.22461310029029846,16,0.0,0.1588239222764969,1604249980,,,,0,,3,1.2999999523162842,21.100000381469727,0.0,0.0,0.0,0.0,C,1587463470754619
Raw,1727335159503,6943494166,18,0.0,-1411370370559981824,0.0,50.034610748291016,-19.497194290161133,0.0,0,10,0.0,1040,1828786,18,30.5,331.2630310058594,0.15378700196743011,16,0.0,0.10874278843402863,1575420030,,,,0,,6,1.2999999523162842,25.5,0.0,0.0,0.0,0.0,C,1587463470754619
Raw,1727335159503,6943494166,18,0.0,-1411370370559981824,0.0,50.034610748291016,-19.497194290161133,0.0,0,4,0.0,51,6841743,28,24.600000381469727,-187.0017852783203,0.2603082060813904,16,0.0,0.18406392633914948,1605374980,,,,0,,3,1.2999999523162842,19.600000381469727,0.0,0.0,0.0,0.0,C,1587463470754619
Raw,1727335159503,6943494166,18,0.0,-1411370370559981824,0.0,50.034610748291016,-19.497194290161133,0.0,0,6,0.0,1040,1021030,26,25.5,96.51191711425781,0.23795360326766968,16,0.0,0.1682569980621338,1575420030,,,,0,,6,1.2999999523162842,20.5,0.0,0.0,0.0,0.0,C,1587463470754619
Raw,1727335160000,7440048934,18,0.0,-1411370370559981824,0.0,50.034610748291016,-18.965370178222656,0.0,0,31,0.0,15,371977932737809,15,34.29999923706055,-129.95655822753906,0.11648360639810562,16,0.0,0.08236555755138397,1575420030,,,,0,,1,1.2999999523162842,29.299999237060547,0.0,0.0,0.0,0.0,C,1587464964145444
Raw,1727335160000,7440048934,18,0.0,-1411370370559981824,0.0,50.034610748291016,-18.965370178222656,0.0,0,2,0.0,15,371977920627412,17,32.0,-377.6778564453125,0.13717420399188995,19,-52084.264284063494,0.19214272499084473,1575420030,,,,0,,1,1.2999999523162842,27.0,0.0,0.0,0.0,0.0,C,1587464964145444
Raw,1727335160000,7440048934,18,0.0,-1411370370559981824,0.0,50.034610748291016,-18.965370178222656,0.0,0,26,0.0,15,371977926419280,16,32.29999923706055,-481.3780212402344,0.13417595624923706,16,0.0,0.09487581998109818,1575420030,,,,0,,1,1.2999999523162842,27.299999237060547,0.0,0.0,0.0,0.0,C,1587464964145444
Raw,1727335160000,7440048934,18,0.0,-1411370370559981824,0.0,50.034610748291016,-18.965370178222656,0.0,0,28,0.0,15,371977930144675,16,33.099998474121094,349.9832763671875,0.1266447901725769,16,0.0,0.08955053240060806,1575420030,,,,0,,1,1.2999999523162842,28.100000381469727,0.0,0.0,0.0,0.0,C,1587464964145444
Raw,1727335160000,7440048934,18,0.0,-1411370370559981824,0.0,50.034610748291016,-18.965370178222656,0.0,0,10,0.0,15,371977928548934,20,29.0,61.64148712158203,0.1736111044883728,16,0.0,0.12276041507720947,1575420030,,,,0,,1,1.2999999523162842,24.0,0.0,0.0,0.0,0.0,C,1587464964145444
Raw,1727335160000,7440048934,18,0.0,-1411370370559981824,0.0,50.034610748291016,-18.965370178222656,0.0,0,21,0.0,15,371977924002349,21,28.299999237060547,-189.14996337890625,0.18419939279556274,16,0.0,0.13024738430976868,1575420030,,,,0,,1,1.2999999523162842,23.299999237060547,0.0,0.0,0.0,0.0,C,1587464964145444
Raw,1727335160000,7440048934,18,0.0,-1411370370559981824,0.0,50.034610748291016,-18.965370178222656,0.0,0,32,0.0,15,371977922217431,22,27.600000381469727,188.29833984375,0.19578666985034943,16,0.0,0.13844075798988342,1575420030,,,,0,,1,1.2999999523162842,22.600000381469727,0.0,0.0,0.0,0.0,C,1587464964145444
Raw,1727335160000,7440048934,18,0.0,-1411370370559981824,0.0,50.034610748291016,-18.965370178222656,0.0,0,23,0.0,15,371977920650403,23,26.899999618530273,412.7031555175781,0.20850275456905365,16,0.0,0.14743229746818542,1575420030,,,,0,,1,1.2999999523162842,21.899999618530273,0.0,0.0,0.0,0.0,C,1587464964145444
Raw,1727335160000,7440048934,18,0.0,-1411370370559981824,0.0,50.034610748291016,-18.965370178222656,0.0,0,28,0.0,51,19897002,11,40.29999923706055,367.17010498046875,0.08025103062391281,19,-39163.062431337894,0.15276524424552917,1561097980,,,,0,,5,1.2999999523162842,35.29999923706055,0.0,0.0,0.0,0.0,C,1587464964145444
Raw,1727335160000,7440048934,18,0.0,-1411370370559981824,0.0,50.034610748291016,-18.965370178222656,0.0,0,18,0.0,239,37159930114591,18,30.399999618530273,367.736083984375,0.15500031411647797,16,0.0,0.1096007227897644,1600312450,,,,0,,3,1.2999999523162842,25.399999618530273,0.0,0.0,0.0,0.0,C,1587464964145444
Raw,1727335160000,7440048934,18,0.0,-1411370370559981824,0.0,50.034610748291016,-18.965370178222656,0.0,0,14,0.0,239,37159933361785,19,29.899999618530273,-401.233642578125,0.16128772497177124,16,0.0,0.11404655128717422,1598062460,,,,0,,3,1.2999999523162842,24.899999618530273,0.0,0.0,0.0,0.0,C,1587464964145444
Raw,1727335160000,7440048934,18,0.0,-1411370370559981824,0.0,50.034610748291016,-18.965370178222656,0.0,0,9,0.0,3072,14807579,16,32.20000076293945,27.788700103759766,0.13516435027122498,16,0.0,0.09557471424341202,1575420030,,,,0,,6,1.2999999523162842,27.200000762939453,0.0,0.0,0.0,0.0,C,1587464964145444
Raw,1727335160000,7440048934,18,0.0,-1411370370559981824,0.0,50.034610748291016,-18.965370178222656,0.0,0,36,0.0,3072,12179798,19,29.600000381469727,-359.7620544433594,0.16524554789066315,16,0.0,0.11684512346982956,1575420030,,,,0,,6,1.2999999523162842,24.600000381469727,0.0,0.0,0.0,0.0,C,1587464964145444
Raw,1727335160000,7440048934,18,0.0,-1411370370559981824,0.0,50.034610748291016,-18.965370178222656,0.0,0,41,0.0,51,478247,17,31.700000762939453,-194.5565643310547,0.14027409255504608,16,0.0,0.09918781369924545,1561097980,,,,0,,5,1.2999999523162842,26.700000762939453,0.0,0.0,0.0,0.0,C,1587464964145444
Raw,1727335160000,7440048934,18,0.0,-1411370370559981824,0.0,50.034610748291016,-18.965370178222656,0.0,0,39,0.0,51,13505423,17,31.5,166.82183837890625,0.14239943027496338,16,0.0,0.10069064050912857,1561097980,,,,0,,5,1.2999999523162842,26.5,0.0,0.0,0.0,0.0,C,1587464964145444
Raw,1727335160000,7440048934,18,0.0,-1411370370559981824,0.0,50.034610748291016,-18.965370178222656,0.0,0,23,0.0,51,4399237,20,29.200000762939453,-397.9681091308594,0.1707533597946167,16,0.0,0.12073969841003418,1561097980,,,,0,,5,1.2999999523162842,24.200000762939453,0.0,0.0,0.0,0.0,C,1587464964145444
Raw,1727335160000,7440048934,18,0.0,-1411370370559981824,0.0,50.034610748291016,-18.965370178222656,0.0,0,27,0.0,51,18663649,23,27.299999237060547,106.18875885009766,0.20108991861343384,16,0.0,0.14219067990779877,1561097980,,,,0,,5,1.2999999523162842,22.299999237060547,0.0,0.0,0.0,0.0,C,1587464964145444
Raw,1727335160000,7440048934,18,0.0,-1411370370559981824,0.0,50.034610748291016,-18.965370178222656,0.0,0,13,0.0,51,19602649,20,29.299999237060547,-108.82280731201172,0.16935087740421295,16,0.0,0.11974800378084183,1561097980,,,,0,,5,1.2999999523162842,24.299999237060547,0.0,0.0,0.0,0.0,C,1587464964145444
Raw,1727335160000,7440048934,18,0.0,-1411370370559981824,0.0,50.034610748291016,-18.965370178222656,0.0,0,3,0.0,239,37159926406166,23,26.899999618530273,-85.86626434326172,0.20850275456905365,16,0.0,0.14743229746818542,1604812540,,,,0,,3,1.2999999523162842,21.899999618530273,0.0,0.0,0.0,0.0,C,1587464964145444
Raw,1727335160000,7440048934,18,0.0,-1411370370559981824,0.0,50.034610748291016,-18.965370178222656,0.0,0,9,0.0,51,17225626,20,29.0,114.56340026855469,0.1736111044883728,16,0.0,0.12276041507720947,1561097980,,,,0,,5,1.2999999523162842,24.0,0.0,0.0,0.0,0.0,C,1587464964145444
Raw,1727335160000,7440048934,18,0.0,-1411370370559981824,0.0,50.034610748291016,-18.965370178222656,0.0,0,16,0.0,51,13928337,22,28.0,157.34657287597656,0.18903592228889465,16,0.0,0.13366730511188507,1561097980,,,,0,,5,1.2999999523162842,23.0,0.0,0.0,0.0,0.0,C,1587464964145444
Raw,1727335160000,7440048934,18,0.0,-1411370370559981824,0.0,50.034610748291016,-18.965370178222656,0.0,0,10,0.0,51,8050218,22,27.5,-85.04769897460938,0.1975308656692505,16,0.0,0.1396740823984146,1561097980,,,,0,,5,1.2999999523162842,22.5,0.0,0.0,0.0,0.0,C,1587464964145444
Raw,1727335160000,7440048934,18,0.0,-1411370370559981824,0.0,50.034610748291016,-18.965370178222656,0.0,0,7,0.0,51,6710111,23,27.399999618530273,-142.57907104492188,0.19929847121238708,16,0.0,0.14092394709587097,1561097980,,,,0,,5,1.2999999523162842,22.399999618530273,0.0,0.0,0.0,0.0,C,1587464964145444
Raw,1727335160000,7440048934,18,0.0,-1411370370559981824,0.0,50.034610748291016,-18.965370178222656,0.0,0,10,0.0,3072,19382988,19,30.100000381469727,331.2281494140625,0.15872763097286224,16,0.0,0.11223630607128143,1575420030,,,,0,,6,1.2999999523162842,25.100000381469727,0.0,0.0,0.0,0.0,C,1587464964145444
Raw,1727335160000,7440048934,18,0.0,-1411370370559981824,0.0,50.034610748291016,-18.965370178222656,0.0,0,17,0.0,239,37159924499615,25,26.100000381469727,681.608642578125,0.22461310029029846,16,0.0,0.1588239222764969,1604249980,,,,0,,3,1.2999999523162842,21.100000381469727,0.0,0.0,0.0,0.0,C,1587464964145444
Raw,1727335160000,7440048934,18,0.0,-1411370370559981824,0.0,50.034610748291016,-18.965370178222656,0.0,0,4,0.0,239,37159923396736,27,25.0,-185.88589477539062,0.25,16,0.0,0.1767749935388565,1605374980,,,,0,,3,1.2999999523162842,20.0,0.0,0.0,0.0,0.0,C,1587464964145444
Raw,1727335160000,7440048934,18,0.0,-1411370370559981824,0.0,50.034610748291016,-18.965370178222656,0.0,0,6,0.0,3072,16575680,26,25.399999618530273,98.09739685058594,0.24029220640659332,16,0.0,0.16991062462329865,1575420030,,,,0,,6,1.2999999523162842,20.399999618530273,0.0,0.0,0.0,0.0,C,1587464964145444
Raw,1727335160999,8440018144,18,0.0,-1411370370559981824,0.0,10.02004623413086,-19.660106658935547,0.0,0,31,0.0,15,371978932707446,15,34.29999923706055,-129.80154418945312,0.11648360639810562,19,-51045.43221683538,0.17751239240169525,1575420030,,,,0,,1,1.2999999523162842,29.299999237060547,0.0,0.0,0.0,0.0,C,1587466581540438
Raw,1727335160999,8440018144,18,0.0,-1411370370559981824,0.0,10.02004623413086,-19.660106658935547,0.0,0,2,0.0,15,371978920597899,16,32.29999923706055,-378.1803283691406,0.13417595624923706,16,0.0,0.09487581998109818,1575420030,,,,0,,1,1.2999999523162842,27.299999237060547,0.0,0.0,0.0,0.0,C,1587466581540438
Raw,1727335160999,8440018144,18,0.0,-1411370370559981824,0.0,10.02004623413086,-19.660106658935547,0.0,0,26,0.0,15,371978926390117,16,32.20000076293945,-482.03021240234375,0.13516435027122498,16,0.0,0.09557471424341202,1575420030,,,,0,,1,1.2999999523162842,27.200000762939453,0.0,0.0,0.0,0.0,C,1587466581540438
Raw,1727335160999,8440018144,18,0.0,-1411370370559981824,0.0,10.02004623413086,-19.660106658935547,0.0,0,28,0.0,15,371978930112696,16,33.0,349.86431884765625,0.12755101919174194,16,0.0,0.0901913270354271,1575420030,,,,0,,1,1.2999999523162842,28.0,0.0,0.0,0.0,0.0,C,1587466581540438
Raw,1727335160999,8440018144,18,0.0,-1411370370559981824,0.0,10.02004623413086,-19.660106658935547,0.0,0,10,0.0,15,371978928517951,19,29.5,61.59344482421875,0.16659724712371826,16,0.0,0.11780091375112534,1575420030,,,,0,,1,1.2999999523162842,24.5,0.0,0.0,0.0,0.0,C,1587466581540438
Raw,1727335160999,8440018144,18,0.0,-1411370370559981824,0.0,10.02004623413086,-19.660106658935547,0.0,0,21,0.0,15,371978923972214,21,28.299999237060547,-189.4689483642578,0.18419939279556274,16,0.0,0.13024738430976868,1575420030,,,,0,,1,1.2999999523162842,23.299999237060547,0.0,0.0,0.0,0.0,C,1587466581540438
Raw,1727335160999,8440018144,18,0.0,-1411370370559981824,0.0,10.02004623413086,-19.660106658935547,0.0,0,32,0.0,15,371978922186018,22,27.600000381469727,188.78594970703125,0.19578666985034943,16,0.0,0.13844075798988342,1575420030,,,,0,,1,1.2999999523162842,22.600000381469727,0.0,0.0,0.0,0.0,C,1587466581540438
Raw,1727335160999,8440018144,18,0.0,-1411370370559981824,0.0,10.02004623413086,-19.660106658935547,0.0,0,23,0.0,15,371978920618275,24,26.799999237060547,413.09356689453125,0.21042001247406006,16,0.0,0.1487879902124405,1575420030,,,,0,,1,1.2999999523162842,21.799999237060547,0.0,0.0,0.0,0.0,C,1587466581540438
Raw,1727335160999,8440018144,18,0.0,-1411370370559981824,0.0,10.02004623413086,-19.660106658935547,0.0,0,28,0.0,51,19864986,11,40.29999923706055,366.3216857910156,0.08025103062391281,19,-38796.34133851416,0.15276524424552917,1561097980,,,,0,,5,1.2999999523162842,35.29999923706055,0.0,0.0,0.0,0.0,C,1587466581540438
Raw,1727335160999,8440018144,18,0.0,-1411370370559981824,0.0,10.02004623413086,-19.660106658935547,0.0,0,10,0.0,3072,19351138,19,29.700000762939453,331.5582275390625,0.16391023993492126,16,0.0,0.1159009337425232,1575420030,,,,0,,6,1.2999999523162842,24.700000762939453,0.0,0.0,0.0,0.0,C,1587466581540438
Raw,1727335160999,8440018144,18,0.0,-1411370370559981824,0.0,10.02004623413086,-19.660106658935547,0.0,0,15,0.0,239,37160923674904,20,29.100000381469727,-782.296875,0.17217335104942322,16,0.0,0.12174377590417862,1602000000,,,,0,,3,1.2999999523162842,24.100000381469727,0.0,0.0,0.0,0.0,C,1587466581540438
Raw,1727335160999,8440018144,18,0.0,-1411370370559981824,0.0,10.02004623413086,-19.660106658935547,0.0,0,18,0.0,239,37160930082605,18,30.399999618530273,367.8287658691406,0.15500031411647797,16,0.0,0.1096007227897644,1600312450,,,,0,,3,1.2999999523162842,25.399999618530273,0.0,0.0,0.0,0.0,C,1587466581540438
Raw,1727335160999,8440018144,18,0.0,-1411370370559981824,0.0,10.02004623413086,-19.660106658935547,0.0,0,41,0.0,51,448112,17,31.5,-194.66488647460938,0.14239943027496338,16,0.0,0.10069064050912857,1561097980,,,,0,,5,1.2999999523162842,26.5,0.0,0.0,0.0,0.0,C,1587466581540438
Raw,1727335160999,8440018144,18,0.0,-1411370370559981824,0.0,10.02004623413086,-19.660106658935547,0.0,0,9,0.0,3072,14776643,17,31.899999618530273,27.771629333496094,0.13819599151611328,16,0.0,0.09771838784217834,1575420030,,,,0,,6,1.2999999523162842,26.899999618530273,0.0,0.0,0.0,0.0,C,1587466581540438
Raw,1727335160999,8440018144,18,0.0,-1411370370559981824,0.0,10.02004623413086,-19.660106658935547,0.0,0,27,0.0,51,18632534,22,27.899999618530273,105.40384674072266,0.19069050252437592,16,0.0,0.13483725488185883,1561097980,,,,0,,5,1.2999999523162842,22.899999618530273,0.0,0.0,0.0,0.0,C,1587466581540438
Raw,1727335160999,8440018144,18,0.0,-1411370370559981824,0.0,10.02004623413086,-19.660106658935547,0.0,0,14,0.0,239,37160933332318,19,29.899999618530273,-399.86962890625,0.16128772497177124,16,0.0,0.11404655128717422,1598062460,,,,0,,3,1.2999999523162842,24.899999618530273,0.0,0.0,0.0,0.0,C,1587466581540438
Raw,1727335160999,8440018144,18,0.0,-1411370370559981824,0.0,10.02004623413086,-19.660106658935547,0.0,0,23,0.0,51,4369773,20,29.200000762939453,-398.3079528808594,0.1707533597946167,16,0.0,0.12073969841003418,1561097980,,,,0,,5,1.2999999523162842,24.200000762939453,0.0,0.0,0.0,0.0,C,1587466581540438
Raw,1727335160999,8440018144,18,0.0,-1411370370559981824,0.0,10.02004623413086,-19.660106658935547,0.0,0,39,0.0,51,13474031,17,31.299999237060547,167.2756805419922,0.14457345008850098,16,0.0,0.10222788900136948,1561097980,,,,0,,5,1.2999999523162842,26.299999237060547,0.0,0.0,0.0,0.0,C,1587466581540438
Raw,1727335160999,8440018144,18,0.0,-1411370370559981824,0.0,10.02004623413086,-19.660106658935547,0.0,0,36,0.0,3072,12150160,20,29.399999618530273,-362.8692321777344,0.1679656058549881,16,0.0,0.11876848340034485,1575420030,,,,0,,6,1.2999999523162842,24.399999618530273,0.0,0.0,0.0,0.0,C,1587466581540438
Raw,1727335160999,8440018144,18,0.0,-1411370370559981824,0.0,10.02004623413086,-19.660106658935547,0.0,0,13,0.0,51,19572173,20,29.200000762939453,-108.62090301513672,0.1707533597946167,16,0.0,0.12073969841003418,1561097980,,,,0,,5,1.2999999523162842,24.200000762939453,0.0,0.0,0.0,0.0,C,1587466581540438
Raw,1727335160999,8440018144,18,0.0,-1411370370559981824,0.0,10.02004623413086,-19.660106658935547,0.0,0,9,0.0,51,17194467,20,28.899999618530273,115.14989471435547,0.1750669777393341,16,0.0,0.12378986179828644,1561097980,,,,0,,5,1.2999999523162842,23.899999618530273,0.0,0.0,0.0,0.0,C,1587466581540438
Raw,1727335160999,8440018144,18,0.0,-1411370370559981824,0.0,10.02004623413086,-19.660106658935547,0.0,0,17,0.0,239,37160924466583,25,26.0,681.510986328125,0.22675736248493195,16,0.0,0.16034013032913208,1604249980,,,,0,,3,1.2999999523162842,21.0,0.0,0.0,0.0,0.0,C,1587466581540438
Raw,1727335160999,8440018144,18,0.0,-1411370370559981824,0.0,10.02004623413086,-19.660106658935547,0.0,0,16,0.0,51,13897089,22,28.0,158.80325317382812,0.18903592228889465,16,0.0,0.13366730511188507,1561097980,,,,0,,5,1.2999999523162842,23.0,0.0,0.0,0.0,0.0,C,1587466581540438
Raw,1727335160999,8440018144,18,0.0,-1411370370559981824,0.0,10.02004623413086,-19.660106658935547,0.0,0,10,0.0,51,8019719,23,27.399999618530273,-85.71688842773438,0.19929847121238708,16,0.0,0.14092394709587097,1561097980,,,,0,,5,1.2999999523162842,22.399999618530273,0.0,0.0,0.0,0.0,C,1587466581540438
Raw,1727335160999,8440018144,18,0.0,-1411370370559981824,0.0,10.02004623413086,-19.660106658935547,0.0,0,7,0.0,51,6679812,23,27.299999237060547,-143.02276611328125,0.20108991861343384,16,0.0,0.14219067990779877,1561097980,,,,0,,5,1.2999999523162842,22.299999237060547,0.0,0.0,0.0,0.0,C,1587466581540438
Raw,1727335160999,8440018144,18,0.0,-1411370370559981824,0.0,10.02004623413086,-19.660106658935547,0.0,0,6,0.0,3072,16544538,27,25.200000762939453,98.94097900390625,0.24507398903369904,16,0.0,0.17329181730747223,1575420030,,,,0,,6,1.2999999523162842,20.200000762939453,0.0,0.0,0.0,0.0,C,1587466581540438
Raw,1727335160999,8440018144,18,0.0,-1411370370559981824,0.0,10.02004623413086,-19.660106658935547,0.0,0,3,0.0,239,37160926375561,22,27.5,-87.0940933227539,0.1975308656692505,16,0.0,0.1396740823984146,1604812540,,,,0,,3,1.2999999523162842,22.5,0.0,0.0,0.0,0.0,C,1587466581540438
Raw,1727335160999,8440018144,18,0.0,-1411370370559981824,0.0,10.02004623413086,-19.660106658935547,0.0,0,194,0.0,15,371978864801450,29,24.100000381469727,56.99764633178711,0.27411526441574097,16,0.0,0.19382689893245697,1575420030,,,,0,,4,1.2999999523162842,19.100000381469727,0.0,0.0,0.0,0.0,C,1587466581540438
Raw,1727335160999,8440018144,18,0.0,-1411370370559981824,0.0,10.02004623413086,-19.660106658935547,0.0,0,4,0.0,239,37160923366626,27,24.899999618530273,-185.05491638183594,0.252518892288208,16,0.0,0.17855611443519592,1605374980,,,,0,,3,1.2999999523162842,19.899999618530273,0.0,0.0,0.0,0.0,C,1587466581540438
Raw,1727335160999,8440018144,18,0.0,-1411370370559981824,0.0,10.02004623413086,-19.660106658935547,0.0,0,25,0.0,47,371964925817674,31,23.5,160.8499755859375,0.29218408465385437,16,0.0,0.20660336315631866,1561097980,,,,0,,5,1.2999999523162842,18.5,0.0,0.0,0.0,0.0,C,1587466581540438
Raw,1727335160999,8440018144,18,0.0,-1411370370559981824,0.0,10.02004623413086,-19.660106658935547,0.0,0,31,0.0,3072,14963613,46,19.400001525878906,-336.3837585449219,0.4822530448436737,16,0.0,0.34100112318992615,1575420030,,,,0,,6,1.2999999523162842,14.40000057220459,0.0,0.0,0.0,0.0,C,1587466581540438
Raw,1727335161999,9440018083,18,0.0,-1411370370559981824,0.0,10.02004623413086,-20.808692932128906,0.0,0,31,0.0,15,371979932707808,15,34.20000076293945,-130.1374969482422,0.11728279292583466,17,-51175.52812610606,0.17807748913764954,1575420030,,,,0,,1,1.2999999523162842,29.200000762939453,0.0,0.0,0.0,0.0,C,1587467866953336
Raw,1727335161999,9440018083,18,0.0,-1411370370559981824,0.0,10.02004623413086,-20.808692932128906,0.0,0,2,0.0,15,371979920599101,16,32.29999923706055,-378.6745910644531,0.13417595624923706,16,0.0,0.09487581998109818,1575420030,,,,0,,1,1.2999999523162842,27.299999237060547,0.0,0.0,0.0,0.0,C,1587467866953336
Raw,1727335161999,9440018083,18,0.0,-1411370370559981824,0.0,10.02004623413086,-20.808692932128906,0.0,0,26,0.0,15,371979926391671,16,32.099998474121094,-481.7179260253906,0.13616371154785156,16,0.0,0.09628135710954666,1575420030,,,,0,,1,1.2999999523162842,27.100000381469727,0.0,0.0,0.0,0.0,C,1587467866953336
Raw,1727335161999,9440018083,18,0.0,-1411370370559981824,0.0,10.02004623413086,-20.808692932128906,0.0,0,28,0.0,15,371979930111548,16,32.70000076293945,349.2843017578125,0.13032881915569305,16,0.0,0.09215550869703293,1575420030,,,,0,,1,1.2999999523162842,27.700000762939453,0.0,0.0,0.0,0.0,C,1587467866953336
Raw,1727335161999,9440018083,18,0.0,-1411370370559981824,0.0,10.02004623413086,-20.808692932128906,0.0,0,10,0.0,15,371979928517659,19,29.799999237060547,62.205230712890625,0.16259105503559113,16,0.0,0.11496813595294952,1575420030,,,,0,,1,1.2999999523162842,24.799999237060547,0.0,0.0,0.0,0.0,C,1587467866953336
Raw,1727335161999,9440018083,18,0.0,-1411370370559981824,0.0,10.02004623413086,-20.808692932128906,0.0,0,21,0.0,15,371979923972751,21,28.200000762939453,-188.77825927734375,0.18579070270061493,16,0.0,0.1313726007938385,1575420030,,,,0,,1,1.2999999523162842,23.200000762939453,0.0,0.0,0.0,0.0,C,1587467866953336
Raw,1727335161999,9440018083,18,0.0,-1411370370559981824,0.0,10.02004623413086,-20.808692932128906,0.0,0,32,0.0,15,371979922185340,22,27.5,187.9876251220703,0.1975308656692505,16,0.0,0.1396740823984146,1575420030,,,,0,,1,1.2999999523162842,22.5,0.0,0.0,0.0,0.0,C,1587467866953336
Raw,1727335161999,9440018083,18,0.0,-1411370370559981824,0.0,10.02004623413086,-20.808692932128906,0.0,0,23,0.0,15,371979920616840,24,26.799999237060547,415.62481689453125,0.21042001247406006,16,0.0,0.1487879902124405,1575420030,,,,0,,1,1.2999999523162842,21.799999237060547,0.0,0.0,0.0,0.0,C,1587467866953336
Raw,1727335161999,9440018083,18,0.0,-1411370370559981824,0.0,10.02004623413086,-20.808692932128906,0.0,0,27,0.0,15,371979916791774,43,20.100000381469727,161.67311096191406,0.43857723474502563,16,0.0,0.3101179599761963,1575420030,,,,0,,1,1.2999999523162842,15.100000381469727,0.0,0.0,0.0,0.0,C,1587467866953336
Raw,1727335161999,9440018083,18,0.0,-1411370370559981824,0.0,10.02004623413086,-20.808692932128906,0.0,0,28,0.0,51,19863708,11,40.20000076293945,366.879638671875,0.08070763945579529,19,-38429.69921767447,0.15308812260627747,1561097980,,,,0,,5,1.2999999523162842,35.20000076293945,0.0,0.0,0.0,0.0,C,1587467866953336
Raw,1727335161999,9440018083,18,0.0,-1411370370559981824,0.0,10.02004623413086,-20.808692932128906,0.0,0,10,0.0,3072,19349959,18,30.5,331.2207336425781,0.15378700196743011,16,0.0,0.10874278843402863,1575420030,,,,0,,6,1.2999999523162842,25.5,0.0,0.0,0.0,0.0,C,1587467866953336
Raw,1727335161999,9440018083,18,0.0,-1411370370559981824,0.0,10.02004623413086,-20.808692932128906,0.0,0,18,0.0,239,37161930081354,18,30.299999237060547,367.8057556152344,0.15622803568840027,16,0.0,0.11046884208917618,1600312450,,,,0,,3,1.2999999523162842,25.299999237060547,0.0,0.0,0.0,0.0,C,1587467866953336
Raw,1727335161999,9440018083,18,0.0,-1411370370559981824,0.0,10.02004623413086,-20.808692932128906,0.0,0,41,0.0,51,448692,17,31.399999618530273,-194.9978790283203,0.14348027110099792,16,0.0,0.10145489871501923,1561097980,,,,0,,5,1.2999999523162842,26.399999618530273,0.0,0.0,0.0,0.0,C,1587467866953336
Raw,1727335161999,9440018083,18,0.0,-1411370370559981824,0.0,10.02004623413086,-20.808692932128906,0.0,0,9,0.0,3072,14776485,17,31.700000762939453,26.757349014282227,0.14027409255504608,16,0.0,0.09918781369924545,1575420030,,,,0,,6,1.2999999523162842,26.700000762939453,0.0,0.0,0.0,0.0,C,1587467866953336
Raw,1727335161999,9440018083,18,0.0,-1411370370559981824,0.0,10.02004623413086,-20.808692932128906,0.0,0,36,0.0,3072,12151322,20,29.200000762939453,-366.2748107910156,0.1707533597946167,16,0.0,0.12073969841003418,1575420030,,,,0,,6,1.2999999523162842,24.200000762939453,0.0,0.0,0.0,0.0,C,1587467866953336
Raw,1727335161999,9440018083,18,0.0,-1411370370559981824,0.0,10.02004623413086,-20.808692932128906,0.0,0,23,0.0,51,4371057,20,29.100000381469727,-398.8671875,0.17217335104942322,16,0.0,0.12174377590417862,1561097980,,,,0,,5,1.2999999523162842,24.100000381469727,0.0,0.0,0.0,0.0,C,1587467866953336
Raw,1727335161999,9440018083,18,0.0,-1411370370559981824,0.0,10.02004623413086,-20.808692932128906,0.0,0,27,0.0,51,18632115,21,28.200000762939453,105.25180053710938,0.18579070270061493,16,0.0,0.1313726007938385,1561097980,,,,0,,5,1.2999999523162842,23.200000762939453,0.0,0.0,0.0,0.0,C,1587467866953336
Raw,1727335161999,9440018083,18,0.0,-1411370370559981824,0.0,10.02004623413086,-20.808692932128906,0.0,0,9,0.0,51,17194054,20,28.799999237060547,114.05009460449219,0.17654122412204742,16,0.0,0.12483230233192444,1561097980,,,,0,,5,1.2999999523162842,23.799999237060547,0.0,0.0,0.0,0.0,C,1587467866953336
Raw,1727335161999,9440018083,18,0.0,-1411370370559981824,0.0,10.02004623413086,-20.808692932128906,0.0,0,13,0.0,51,19572511,20,29.100000381469727,-108.33511352539062,0.17217335104942322,16,0.0,0.12174377590417862,1561097980,,,,0,,5,1.2999999523162842,24.100000381469727,0.0,0.0,0.0,0.0,C,1587467866953336
Raw,1727335161999,9440018083,18,0.0,-1411370370559981824,0.0,10.02004623413086,-20.808692932128906,0.0,0,14,0.0,239,37161933333578,19,29.799999237060547,-400.7140197753906,0.16259105503559113,16,0.0,0.11496813595294952,1598062460,,,,0,,3,1.2999999523162842,24.799999237060547,0.0,0.0,0.0,0.0,C,1587467866953336
Raw,1727335161999,9440018083,18,0.0,-1411370370559981824,0.0,10.02004623413086,-20.808692932128906,0.0,0,39,0.0,51,13473421,18,31.0,167.53054809570312,0.14792899787425995,16,0.0,0.10460059344768524,1561097980,,,,0,,5,1.2999999523162842,26.0,0.0,0.0,0.0,0.0,C,1587467866953336
Raw,1727335161999,9440018083,18,0.0,-1411370370559981824,0.0,10.02004623413086,-20.808692932128906,0.0,0,15,0.0,239,37161923677446,20,29.100000381469727,-782.8158569335938,0.17217335104942322,16,0.0,0.12174377590417862,1602000000,,,,0,,3,1.2999999523162842,24.100000381469727,0.0,0.0,0.0,0.0,C,1587467866953336
Raw,1727335161999,9440018083,18,0.0,-1411370370559981824,0.0,10.02004623413086,-20.808692932128906,0.0,0,17,0.0,239,37161924464154,23,27.0,680.9100952148438,0.20661157369613647,16,0.0,0.14609503746032715,1604249980,,,,0,,3,1.2999999523162842,22.0,0.0,0.0,0.0,0.0,C,1587467866953336
Raw,1727335161999,9440018083,18,0.0,-1411370370559981824,0.0,10.02004623413086,-20.808692932128906,0.0,0,25,0.0,47,371965925817069,31,23.5,159.82521057128906,0.29218408465385437,16,0.0,0.20660336315631866,1561097980,,,,0,,5,1.2999999523162842,18.5,0.0,0.0,0.0,0.0,C,1587467866953336
Raw,1727335161999,9440018083,18,0.0,-1411370370559981824,0.0,10.02004623413086,-20.808692932128906,0.0,0,16,0.0,51,13896404,22,27.899999618530273,158.01211547851562,0.19069050252437592,16,0.0,0.13483725488185883,1561097980,,,,0,,5,1.2999999523162842,22.899999618530273,0.0,0.0,0.0,0.0,C,1587467866953336
Raw,1727335161999,9440018083,18,0.0,-1411370370559981824,0.0,10.02004623413086,-20.808692932128906,0.0,0,10,0.0,51,8019970,23,27.399999618530273,-86.79134368896484,0.19929847121238708,16,0.0,0.14092394709587097,1561097980,,,,0,,5,1.2999999523162842,22.399999618530273,0.0,0.0,0.0,0.0,C,1587467866953336
Raw,1727335161999,9440018083,18,0.0,-1411370370559981824,0.0,10.02004623413086,-20.808692932128906,0.0,0,7,0.0,51,6680243,23,27.299999237060547,-142.9639434814453,0.20108991861343384,16,0.0,0.14219067990779877,1561097980,,,,0,,5,1.2999999523162842,22.299999237060547,0.0,0.0,0.0,0.0,C,1587467866953336
Raw,1727335161999,9440018083,18,0.0,-1411370370559981824,0.0,10.02004623413086,-20.808692932128906,0.0,0,194,0.0,15,371979864801143,29,24.100000381469727,56.494407653808594,0.27411526441574097,16,0.0,0.19382689893245697,1575420030,,,,0,,4,1.2999999523162842,19.100000381469727,0.0,0.0,0.0,0.0,C,1587467866953336
Raw,1727335161999,9440018083,18,0.0,-1411370370559981824,0.0,10.02004623413086,-20.808692932128906,0.0,0,6,0.0,3072,16544107,27,25.200000762939453,99.73738861083984,0.24507398903369904,16,0.0,0.17329181730747223,1575420030,,,,0,,6,1.2999999523162842,20.200000762939453,0.0,0.0,0.0,0.0,C,1587467866953336
Raw,1727335161999,9440018083,18,0.0,-1411370370559981824,0.0,10.02004623413086,-20.808692932128906,0.0,0,3,0.0,239,37161926375634,23,27.399999618530273,-89.2873764038086,0.19929847121238708,16,0.0,0.14092394709587097,1604812540,,,,0,,3,1.2999999523162842,22.399999618530273,0.0,0.0,0.0,0.0,C,1587467866953336
Raw,1727335161999,9440018083,18,0.0,-1411370370559981824,0.0,10.02004623413086,-20.808692932128906,0.0,0,4,0.0,239,37161923367239,27,24.899999618530273,-185.2939453125,0.252518892288208,16,0.0,0.17855611443519592,1605374980,,,,0,,3,1.2999999523162842,19.899999618530273,0.0,0.0,0.0,0.0,C,1587467866953336
Raw,1727335161999,9440018083,18,0.0,-1411370370559981824,0.0,10.02004623413086,-20.808692932128906,0.0,0,38,0.0,47,371965874642445,102,13.800000190734863,4.7883124351501465,1.2913222312927246,16,0.0,0.9130939245223999,1561097980,,,,0,,5,1.2999999523162842,8.800000190734863,0.0,0.0,0.0,0.0,C,1587467866953336
