# 
# Header Description:
# 
# Version: v3.1.0.3 Platform: 13 Manufacturer: OPPO Model: CPH2371 GNSS Hardware Model Name: MTK_MNLD_6_0_0_20040301,MNL_VER_22051902ALPS05_6.7o_00
# 
# Raw,utcTimeMillis,TimeNanos,LeapSecond,TimeUncertaintyNanos,FullBiasNanos,BiasNanos,BiasUncertaintyNanos,DriftNanosPerSecond,DriftUncertaintyNanosPerSecond,HardwareClockDiscontinuityCount,Svid,TimeOffsetNanos,State,ReceivedSvTimeNanos,ReceivedSvTimeUncertaintyNanos,Cn0DbHz,PseudorangeRateMetersPerSecond,PseudorangeRateUncertaintyMetersPerSecond,AccumulatedDeltaRangeState,AccumulatedDeltaRangeMeters,AccumulatedDeltaRangeUncertaintyMeters,CarrierFrequencyHz,CarrierCycles,CarrierPhase,CarrierPhaseUncertainty,MultipathIndicator,SnrInDb,ConstellationType,AgcDb,BasebandCn0DbHz,FullInterSignalBiasNanos,FullInterSignalBiasUncertaintyNanos,SatelliteInterSignalBiasNanos,SatelliteInterSignalBiasUncertaintyNanos,CodeType,ChipsetElapsedRealtimeNanos,IsFullTracking
# 
# UncalAccel,utcTimeMillis,elapsedRealtimeNanos,UncalAccelXMps2,UncalAccelYMps2,UncalAccelZMps2,BiasXMps2,BiasYMps2,BiasZMps2
# 
# Accel,utcTimeMillis,elapsedRealtimeNanos,AccelXMps2,AccelYMps2,AccelZMps2
# 
# UncalGyro,utcTimeMillis,elapsedRealtimeNanos,UncalGyroXRadPerSec,UncalGyroYRadPerSec,UncalGyroZRadPerSec,DriftXRadPerSec,DriftYRadPerSec,DriftZRadPerSec
# 
# Gyro,utcTimeMillis,elapsedRealtimeNanos,GyroXRadPerSec,GyroYRadPerSec,GyroZRadPerSec
# 
# UncalMag,utcTimeMillis,elapsedRealtimeNanos,UncalMagXMicroT,UncalMagYMicroT,UncalMagZMicroT,BiasXMicroT,BiasYMicroT,BiasZMicroT
# 
# Mag,utcTimeMillis,elapsedRealtimeNanos,MagXMicroT,MagYMicroT,MagZMicroT
# 
# Pressure,utcTimeMillis,elapsedRealtimeNanos,PressureHpa
# 
# OrientationDeg,utcTimeMillis,elapsedRealtimeNanos,yawDeg,rollDeg,pitchDeg
# 
# Fix,Provider,LatitudeDegrees,LongitudeDegrees,AltitudeMeters,SpeedMps,AccuracyMeters,BearingDegrees,UnixTimeMillis,SpeedAccuracyMps,BearingAccuracyDegrees,elapsedRealtimeNanos,VerticalAccuracyMeters,MockLocation,NumberOfUsedSignals,VerticalSpeedAccuracyMps,SolutionType
# 
# Nav,Svid,Type,Status,MessageId,Sub-messageId,Data(Bytes)
# 
# Status,UnixTimeMillis,SignalCount,SignalIndex,ConstellationType,Svid,CarrierFrequencyHz,Cn0DbHz,AzimuthDegrees,ElevationDegrees,UsedInFix,HasAlmanacData,HasEphemerisData,BasebandCn0DbHz
# 
# Agc,utcTimeMillis,TimeNanos,LeapSecond,TimeUncertaintyNanos,FullBiasNanos,BiasNanos,BiasUncertaintyNanos,DriftNanosPerSecond,DriftUncertaintyNanosPerSecond,HardwareClockDiscontinuityCount,AgcDb,CarrierFrequencyHz,ConstellationType
# 
Raw,1730975393999,2450835000000,18,46.47853477544893,-1415008161164999936,0.0,46.47853477544893,-3877.0347342500927,0.0,0,8,0.0,47,383411930677034,487,21.027000427246094,-874.7717442559979,0.14999,16,-166237.2462354171,0.009999999776482582,1575420030,,,,0,0.0,1,6.0,21.027000427246094,0.0,0.0,0.0,66.7128,C,,
Raw,1730975393999,2450835000000,18,46.47853477544893,-1415008161164999936,0.0,46.47853477544893,-3877.0347342500927,0.0,0,27,0.0,47,383411922396229,487,21.305999755859375,-600.3082438070116,0.14999,16,-166975.24659750942,0.009999999776482582,1575420030,,,,0,0.0,1,6.0,21.305999755859375,0.0,0.0,0.0,66.7128,C,,
Raw,1730975393999,2450835000000,18,46.47853477544893,-1415008161164999936,0.0,46.47853477544893,-3877.0347342500927,0.0,0,21,0.0,16431,383411922981944,1797,11.399999618530273,-1398.3717537231303,0.14999,16,-180172.38357443665,0.02250000089406967,1575420030,,,,0,0.0,1,6.0,11.399999618530273,0.0,0.0,0.0,66.7128,C,,
Raw,1730975393999,2450835000000,18,46.47853477544893,-1415008161164999936,0.0,46.47853477544893,-3877.0347342500927,0.0,0,4,0.0,16431,383411932507171,487,20.93899917602539,-908.5450615875783,0.14999,16,-166803.871590296,0.009999999776482582,1575420030,,,,0,0.2895564673724561,1,6.0,20.93899917602539,0.0,0.0,0.0,66.7128,C,,
Raw,1730975393999,2450835000000,18,46.47853477544893,-1415008161164999936,0.0,46.47853477544893,-3877.0347342500927,0.0,0,13,0.0,16905,383397866467540,487,20.799999237060547,-960.4854125976562,0.14999,16,-177659.39517185232,0.009999999776482582,1561097980,,,,0,0.41567211846584196,5,6.0,20.799999237060547,0.0,0.0,39.30518499778767,66.7128,I,,
Raw,1730975393999,2450835000000,18,46.47853477544893,-1415008161164999936,0.0,46.47853477544893,-3877.0347342500927,0.0,0,27,0.0,47,383411919766799,396,22.600000381469727,-938.563795554688,0.14999,28,-172516.1011049691,0.004900000058114529,1575420030,,,,0,2.9120387381556183,6,6.0,22.600000381469727,0.0,0.0,17.604559786658733,66.7128,C,,
Raw,1730975393999,2450835000000,18,46.47853477544893,-1415008161164999936,0.0,46.47853477544893,-3877.0347342500927,0.0,0,20,0.0,16905,383397925495791,235,29.961999893188477,-1052.643310546875,0.14999,21,-175714.27856871102,0.0008999999845400453,1561097980,,,,0,10.09234856612043,5,6.0,29.961999893188477,0.0,0.0,39.30518499778767,66.7128,I,,
Raw,1730975393999,2450835000000,18,46.47853477544893,-1415008161164999936,0.0,46.47853477544893,-3877.0347342500927,0.0,0,7,0.0,47,383411922663065,487,19.434999465942383,-1108.7726587737454,0.14999,24,-174624.3203787658,0.009999999776482582,1575420030,,,,0,0.0,6,6.0,19.434999465942383,0.0,0.0,17.604559786658733,66.7128,C,,
Raw,1730975393999,2450835000000,18,46.47853477544893,-1415008161164999936,0.0,46.47853477544893,-3877.0347342500927,0.0,0,16,0.0,16905,383397874196715,797,18.128000259399414,-1321.9937744140625,0.14999,16,-180463.9290790551,0.02250000089406967,1561097980,,,,0,0.0,5,6.0,18.128000259399414,0.0,0.0,39.30518499778767,66.7128,I,,
Raw,1730975393999,2450835000000,18,46.47853477544893,-1415008161164999936,0.0,46.47853477544893,-3877.0347342500927,0.0,0,32,0.0,16905,383397919999113,487,20.100000381469727,-600.6973266601562,0.14999,16,-171455.01368028915,0.009999999776482582,1561097980,,,,0,0.0,5,6.0,20.100000381469727,0.0,0.0,39.30518499778767,66.7128,I,,
Raw,1730975393999,2450835000000,18,46.47853477544893,-1415008161164999936,0.0,46.47853477544893,-3877.0347342500927,0.0,0,40,0.0,47,383397877482388,487,19.881000518798828,-1139.3946533203125,0.14999,16,-173392.37319905648,0.009999999776482582,1561097980,,,,0,0.08474105886509258,5,6.0,19.881000518798828,0.0,0.0,39.30518499778767,66.7128,I,,
Raw,1730975393999,2450835000000,18,46.47853477544893,-1415008161164999936,0.0,46.47853477544893,-3877.0347342500927,0.0,0,39,0.0,16905,383397874014936,797,16.69300079345703,-1293.3841552734375,0.14999,16,-180337.5625704343,0.02250000089406967,1561097980,,,,0,0.0,5,6.0,16.69300079345703,0.0,0.0,39.30518499778767,66.7128,I,,
Raw,1730975393999,2450835000000,18,46.47853477544893,-1415008161164999936,0.0,46.47853477544893,-3877.0347342500927,0.0,0,30,0.0,16905,383397916984732,316,26.128000259399414,-1670.5010986328125,0.14999,16,-188458.57340193063,0.002025000052526593,1561097980,,,,0,4.787461891997782,5,6.0,26.128000259399414,0.0,0.0,39.30518499778767,66.7128,I,,
Raw,1730975393999,2450835000000,18,46.47853477544893,-1415008161164999936,0.0,46.47853477544893,-3877.0347342500927,0.0,0,29,0.0,47,383411917459013,316,24.0,-1570.053813320224,0.14999,25,-203141.4411926544,0.002025000052526593,1575420030,,,,0,4.83970426126056,6,6.0,24.0,0.0,0.0,17.604559786658733,66.7128,C,,
Raw,1730975393999,2450835000000,18,46.47853477544893,-1415008161164999936,0.0,46.47853477544893,-3877.0347342500927,0.0,0,7,0.0,17,852205,487,0.0,-483.11530489443464,0.14999,16,-143832.7252196276,0.009999999776482582,1604812540,,,,0,0.0,3,6.0,20.0,0.0,0.0,-10.897989066065906,66.7128,C,,
Raw,1730975393999,2450835000000,18,46.47853477544893,-1415008161164999936,0.0,46.47853477544893,-3877.0347342500927,0.0,0,8,0.0,32995,48593935975448,487,0.0,-1126.6826576306164,0.14999,16,-173804.7108067256,0.009999999776482582,1605374980,,,,0,0.0,3,6.0,20.0,0.0,0.0,-10.897989066065906,66.7128,C,,
Raw,1730975393999,2450835000000,18,46.47853477544893,-1415008161164999936,0.0,46.47853477544893,-3877.0347342500927,0.0,0,21,0.0,32995,48593926031576,797,0.0,-1651.3802217187574,0.14999,16,-183821.24083873464,0.02250000089406967,1604249980,,,,0,0.0,3,6.0,15.0,0.0,0.0,-10.897989066065906,66.7128,C,,
Raw,1730975393999,2450835000000,18,46.47853477544893,-1415008161164999936,0.0,46.47853477544893,-3877.0347342500927,0.0,0,1,0.0,32995,48593925788689,797,0.0,-1796.0593956313985,0.14999,16,-186130.50380246877,0.02250000089406967,1602562560,,,,0,3.4398822182927233,3,6.0,17.0,0.0,0.0,-10.897989066065906,66.7128,C,,
Raw,1730975393999,2450835000000,18,46.47853477544893,-1415008161164999936,0.0,46.47853477544893,-3877.0347342500927,0.0,0,11,0.0,32995,48593928202259,396,19.799999237060547,-1025.5196201934318,0.14999,20,-171191.0339569669,0.004900000058114529,1602000000,,,,0,4.159608069383259,3,6.0,19.799999237060547,0.0,0.0,-10.897989066065906,66.7128,C,,
Raw,1730975393999,2450835000000,18,46.47853477544893,-1415008161164999936,0.0,46.47853477544893,-3877.0347342500927,0.0,0,14,0.0,47,383411923926854,235,27.525999069213867,-1423.1654954527055,0.14999,21,-184581.76154065496,0.0008999999845400453,1575420030,,,,0,8.44545173424635,1,6.0,27.525999069213867,0.0,0.0,0.0,66.7128,C,,
Raw,1730975393999,2450835000000,18,46.47853477544893,-1415008161164999936,0.0,46.47853477544893,-3877.0347342500927,0.0,0,3,0.0,47,383411920054757,316,24.777000427246094,-664.6865538598626,0.14999,20,-165156.8147552741,0.002025000052526593,1575420030,,,,0,4.712280612141751,1,6.0,24.777000427246094,0.0,0.0,0.0,66.7128,C,,
Raw,1730975393999,2450835000000,18,46.47853477544893,-1415008161164999936,0.0,46.47853477544893,-3877.0347342500927,0.0,0,30,0.0,47,383411919503843,487,22.233999252319336,-1491.679858925532,0.14999,16,-184989.98809563543,0.009999999776482582,1575420030,,,,0,0.9077857669927769,1,6.0,22.233999252319336,0.0,0.0,0.0,66.7128,C,,
Raw,1730975393999,2450835000000,18,46.47853477544893,-1415008161164999936,0.0,46.47853477544893,-3877.0347342500927,0.0,0,9,0.0,16431,383411933754346,396,25.490999221801758,-1269.9254758377149,0.14999,17,-193355.22493083586,0.004900000058114529,1575420030,,,,0,5.721056793886568,1,6.0,25.490999221801758,0.0,0.0,0.0,66.7128,C,,
Raw,1730975393999,2450835000000,18,46.47853477544893,-1415008161164999936,0.0,46.47853477544893,-3877.0347342500927,0.0,0,7,0.0,16431,383411924436309,235,27.486000061035156,-1436.217894570224,0.14999,16,-183911.4607978867,0.0008999999845400453,1575420030,,,,0,8.389593730562947,1,6.0,27.486000061035156,0.0,0.0,0.0,66.7128,C,,
Raw,1730975393999,2450835000000,18,46.47853477544893,-1415008161164999936,0.0,46.47853477544893,-3877.0347342500927,0.0,0,2,0.0,47,383411921712651,1797,18.257999420166016,-1427.1950197243104,0.14999,16,-182126.35695454534,0.02250000089406967,1575420030,,,,0,0.0,1,6.0,18.257999420166016,0.0,0.0,0.0,66.7128,C,,
Raw,1730975393999,2450835000000,18,46.47853477544893,-1415008161164999936,0.0,46.47853477544893,-3877.0347342500927,0.0,0,30,0.0,16431,383411910542017,1797,16.802000045776367,-752.4432964508509,0.14999,24,-170479.43086129572,0.02250000089406967,1575420030,,,,0,0.0,6,6.0,16.802000045776367,0.0,0.0,17.604559786658733,66.7128,C,,
Raw,1730975393999,2450835000000,18,46.47853477544893,-1415008161164999936,0.0,46.47853477544893,-3877.0347342500927,0.0,0,27,0.0,47,383397922918979,797,20.020000457763672,-1481.5802001953125,0.14999,16,-186599.81773912953,0.02250000089406967,1561097980,,,,0,0.0,5,6.0,20.020000457763672,0.0,0.0,39.30518499778767,66.7128,I,,
Raw,1730975393999,2450835000000,18,46.47853477544893,-1415008161164999936,0.0,46.47853477544893,-3877.0347342500927,0.0,0,21,0.0,47,383411915352959,235,26.899999618530273,-1295.6794201135297,0.14999,24,-180902.74765086235,0.0008999999845400453,1575420030,,,,0,8.417567634414242,6,6.0,26.899999618530273,0.0,0.0,17.604559786658733,66.7128,C,,
Raw,1730975393999,2450835000000,18,46.47853477544893,-1415008161164999936,0.0,46.47853477544893,-3877.0347342500927,0.0,0,19,0.0,16905,383397917655554,316,25.209999084472656,-1522.6763916015625,0.14999,16,-183184.34114795353,0.002025000052526593,1561097980,,,,0,8.83297873114887,5,6.0,25.209999084472656,0.0,0.0,39.30518499778767,66.7128,I,,
Raw,1730975393999,2450835000000,18,46.47853477544893,-1415008161164999936,0.0,46.47853477544893,-3877.0347342500927,0.0,0,37,0.0,16905,383397919375748,487,21.299999237060547,-995.1856079101562,0.14999,16,-175162.53114027123,0.009999999776482582,1561097980,,,,0,1.117156349300018,5,6.0,21.299999237060547,0.0,0.0,39.30518499778767,66.7128,I,,
Raw,1730975393999,2450835000000,18,46.47853477544893,-1415008161164999936,0.0,46.47853477544893,-3877.0347342500927,0.0,0,9,0.0,16905,383397874878147,797,15.300000190734863,-1330.25390625,0.14999,16,-181710.95330584538,0.02250000089406967,1561097980,,,,0,0.0,5,6.0,15.300000190734863,0.0,0.0,39.30518499778767,66.7128,I,,
Raw,1730975393999,2450835000000,18,46.47853477544893,-1415008161164999936,0.0,46.47853477544893,-3877.0347342500927,0.0,0,8,0.0,16431,383411912481751,1797,11.699999809265137,-718.143372971524,0.14999,24,-169308.11807777954,0.02250000089406967,1575420030,,,,0,0.0,6,6.0,11.699999809265137,0.0,0.0,17.604559786658733,66.7128,C,,
Raw,1730975393999,2450835000000,18,46.47853477544893,-1415008161164999936,0.0,46.47853477544893,-3877.0347342500927,0.0,0,7,0.0,16905,383397878828462,396,21.277000427246094,-1139.054443359375,0.14999,16,-178078.05715339212,0.004900000058114529,1561097980,,,,0,0.41567211846584196,5,6.0,21.277000427246094,0.0,0.0,39.30518499778767,66.7128,I,,
Raw,1730975393999,2450835000000,18,46.47853477544893,-1415008161164999936,0.0,46.47853477544893,-3877.0347342500927,0.0,0,10,0.0,16905,383397879230884,797,17.600000381469727,-1162.941650390625,0.14999,16,-178591.40904970677,0.02250000089406967,1561097980,,,,0,0.0,5,6.0,17.600000381469727,0.0,0.0,39.30518499778767,66.7128,I,,
Raw,1730975393999,2450835000000,18,46.47853477544893,-1415008161164999936,0.0,46.47853477544893,-3877.0347342500927,0.0,0,28,0.0,16905,383397919429209,797,14.5,-1127.1981201171875,0.14999,16,-178570.74830995628,0.02250000089406967,1561097980,,,,0,0.0,5,6.0,14.5,0.0,0.0,39.30518499778767,66.7128,I,,
Raw,1730975394999,2451835000000,18,46.6315750420189,-1415008161164999936,0.0,46.6315750420189,-3879.0283672073574,0.0,0,8,0.0,47,383412930679967,316,24.60700035095215,-881.5148117016278,0.14999,16,-167116.5688431308,0.002025000052526593,1575420030,,,,0,4.45168437710935,1,6.0,24.60700035095215,0.0,0.0,0.0,66.7128,C,,
Raw,1730975394999,2451835000000,18,46.6315750420189,-1415008161164999936,0.0,46.6315750420189,-3879.0283672073574,0.0,0,27,0.0,47,383412922398232,487,21.295000076293945,-599.4996815312835,0.14999,16,-167575.88268119903,0.009999999776482582,1575420030,,,,0,0.0,1,6.0,21.295000076293945,0.0,0.0,0.0,66.7128,C,,
Raw,1730975394999,2451835000000,18,46.6315750420189,-1415008161164999936,0.0,46.6315750420189,-3879.0283672073574,0.0,0,21,0.0,16431,383412922986608,1797,11.399999618530273,-1398.9880710725793,0.14999,16,-181570.80651978846,0.02250000089406967,1575420030,,,,0,0.0,1,6.0,11.399999618530273,0.0,0.0,0.0,66.7128,C,,
Raw,1730975394999,2451835000000,18,46.6315750420189,-1415008161164999936,0.0,46.6315750420189,-3879.0283672073574,0.0,0,4,0.0,16431,383412932510199,487,20.924999237060547,-907.9743664028481,0.14999,16,-167712.89046410992,0.009999999776482582,1575420030,,,,0,0.0,1,6.0,20.924999237060547,0.0,0.0,0.0,66.7128,C,,
Raw,1730975394999,2451835000000,18,46.6315750420189,-1415008161164999936,0.0,46.6315750420189,-3879.0283672073574,0.0,0,13,0.0,16905,383398866470750,797,16.299999237060547,-963.736083984375,0.14999,16,-178622.08637974056,0.02250000089406967,1561097980,,,,0,0.0,5,6.0,16.299999237060547,0.0,0.0,37.33999853977931,66.7128,I,,
Raw,1730975394999,2451835000000,18,46.6315750420189,-1415008161164999936,0.0,46.6315750420189,-3879.0283672073574,0.0,0,27,0.0,47,383412919769932,396,21.0,-939.0507726734069,0.14999,25,-173455.46691242416,0.004900000058114529,1575420030,,,,0,0.7065592468348596,6,6.0,21.0,0.0,0.0,6.818156904668337,66.7128,C,,
Raw,1730975394999,2451835000000,18,46.6315750420189,-1415008161164999936,0.0,46.6315750420189,-3879.0283672073574,0.0,0,20,0.0,16905,383398925499306,235,29.89299964904785,-1053.7330322265625,0.14999,21,-176767.18520584045,0.0008999999845400453,1561097980,,,,0,10.406330570314744,5,6.0,29.89299964904785,0.0,0.0,37.33999853977931,66.7128,I,,
Raw,1730975394999,2451835000000,18,46.6315750420189,-1415008161164999936,0.0,46.6315750420189,-3879.0283672073574,0.0,0,7,0.0,47,383412922666762,396,19.47800064086914,-1106.3950099489225,0.14999,24,-175732.77113324226,0.004900000058114529,1575420030,,,,0,0.0,6,6.0,19.47800064086914,0.0,0.0,6.818156904668337,66.7128,C,,
Raw,1730975394999,2451835000000,18,46.6315750420189,-1415008161164999936,0.0,46.6315750420189,-3879.0283672073574,0.0,0,16,0.0,16905,383398874201125,797,15.600000381469727,-1325.6492919921875,0.14999,16,-181788.11023465585,0.02250000089406967,1561097980,,,,0,0.0,5,6.0,15.600000381469727,0.0,0.0,37.33999853977931,66.7128,I,,
Raw,1730975394999,2451835000000,18,46.6315750420189,-1415008161164999936,0.0,46.6315750420189,-3879.0283672073574,0.0,0,32,0.0,16905,383398920001113,316,24.899999618530273,-598.7717895507812,0.14999,16,-172054.7677932736,0.002025000052526593,1561097980,,,,0,5.977917323025908,5,6.0,24.899999618530273,0.0,0.0,37.33999853977931,66.7128,I,,
Raw,1730975394999,2451835000000,18,46.6315750420189,-1415008161164999936,0.0,46.6315750420189,-3879.0283672073574,0.0,0,40,0.0,47,383398877486186,487,19.84600067138672,-1137.342529296875,0.14999,16,-174531.42044801608,0.009999999776482582,1561097980,,,,0,0.0,5,6.0,19.84600067138672,0.0,0.0,37.33999853977931,66.7128,I,,
Raw,1730975394999,2451835000000,18,46.6315750420189,-1415008161164999936,0.0,46.6315750420189,-3879.0283672073574,0.0,0,39,0.0,16905,383398874019259,797,16.743000030517578,-1300.7838134765625,0.14999,16,-181633.7744033172,0.02250000089406967,1561097980,,,,0,0.0,5,6.0,16.743000030517578,0.0,0.0,37.33999853977931,66.7128,I,,
Raw,1730975394999,2451835000000,18,46.6315750420189,-1415008161164999936,0.0,46.6315750420189,-3879.0283672073574,0.0,0,30,0.0,16905,383398916990306,487,20.0,-1671.4423828125,0.14999,16,-190130.03200357634,0.009999999776482582,1561097980,,,,0,0.0,5,6.0,20.0,0.0,0.0,37.33999853977931,66.7128,I,,
Raw,1730975394999,2451835000000,18,46.6315750420189,-1415008161164999936,0.0,46.6315750420189,-3879.0283672073574,0.0,0,29,0.0,47,383412917464246,74,30.700000762939453,-1569.6618901210718,0.14999,29,-204711.43202894914,0.0006249999860301614,1575420030,,,,0,12.730777856571747,6,6.0,30.700000762939453,0.0,0.0,6.818156904668337,66.7128,C,,
Raw,1730975394999,2451835000000,18,46.6315750420189,-1415008161164999936,0.0,46.6315750420189,-3879.0283672073574,0.0,0,7,0.0,17,853821,487,0.0,-484.02056855738596,0.14999,16,-144316.0737502336,0.009999999776482582,1604812540,,,,0,0.0,3,6.0,20.0,0.0,0.0,-12.715517860200565,66.7128,C,,
Raw,1730975394999,2451835000000,18,46.6315750420189,-1415008161164999936,0.0,46.6315750420189,-3879.0283672073574,0.0,0,8,0.0,32995,48594935979210,396,0.0,-1127.65512517269,0.14999,16,-174931.65489789925,0.004900000058114529,1605374980,,,,0,3.2545459499539953,3,6.0,23.0,0.0,0.0,-12.715517860200565,66.7128,C,,
Raw,1730975394999,2451835000000,18,46.6315750420189,-1415008161164999936,0.0,46.6315750420189,-3879.0283672073574,0.0,0,21,0.0,32995,48594926037091,797,17.200000762939453,-1654.194644886269,0.14999,16,-185474.68256192136,0.02250000089406967,1604249980,,,,0,0.0,3,6.0,17.200000762939453,0.0,0.0,-12.715517860200565,66.7128,C,,
Raw,1730975394999,2451835000000,18,46.6315750420189,-1415008161164999936,0.0,46.6315750420189,-3879.0283672073574,0.0,0,1,0.0,32995,48594925794685,797,0.0,-1800.2339582567822,0.14999,16,-187928.21045423843,0.02250000089406967,1602562560,,,,0,0.0,3,6.0,16.0,0.0,0.0,-12.715517860200565,66.7128,C,,
Raw,1730975394999,2451835000000,18,46.6315750420189,-1415008161164999936,0.0,46.6315750420189,-3879.0283672073574,0.0,0,11,0.0,32995,48594928205679,487,22.799999237060547,-1025.5466672463003,0.14999,16,-172216.24988344478,0.009999999776482582,1602000000,,,,0,0.0,3,6.0,22.799999237060547,0.0,0.0,-12.715517860200565,66.7128,C,,
Raw,1730975394999,2451835000000,18,46.6315750420189,-1415008161164999936,0.0,46.6315750420189,-3879.0283672073574,0.0,0,12,0.0,32995,48594921187450,797,19.954999923706055,-1315.6245270436254,0.14999,16,-176124.52226105213,0.02250000089406967,1601437440,,,,0,0.0,3,6.0,19.954999923706055,0.0,0.0,-12.715517860200565,66.7128,C,,
Raw,1730975394999,2451835000000,18,46.6315750420189,-1415008161164999936,0.0,46.6315750420189,-3879.0283672073574,0.0,0,14,0.0,47,383412923931603,74,32.529998779296875,-1422.9352475419662,0.14999,17,-186004.92359554255,0.0006249999860301614,1575420030,,,,0,14.549170842949126,1,6.0,32.529998779296875,0.0,0.0,0.0,66.7128,C,,
Raw,1730975394999,2451835000000,18,46.6315750420189,-1415008161164999936,0.0,46.6315750420189,-3879.0283672073574,0.0,0,3,0.0,47,383412920056970,487,21.993999481201172,-663.5788923005709,0.14999,16,-165821.01591767,0.009999999776482582,1575420030,,,,0,0.5005601140386211,1,6.0,21.993999481201172,0.0,0.0,0.0,66.7128,C,,
Raw,1730975394999,2451835000000,18,46.6315750420189,-1415008161164999936,0.0,46.6315750420189,-3879.0283672073574,0.0,0,30,0.0,47,383412919508823,487,18.88800048828125,-1493.2236720962082,0.14999,16,-186483.28356657157,0.009999999776482582,1575420030,,,,0,0.0,1,6.0,18.88800048828125,0.0,0.0,0.0,66.7128,C,,
Raw,1730975394999,2451835000000,18,46.6315750420189,-1415008161164999936,0.0,46.6315750420189,-3879.0283672073574,0.0,0,9,0.0,16431,383412933758583,316,25.34000015258789,-1269.3217022606427,0.14999,20,-194624.9966324809,0.002025000052526593,1575420030,,,,0,5.489419342890265,1,6.0,25.34000015258789,0.0,0.0,0.0,66.7128,C,,
Raw,1730975394999,2451835000000,18,46.6315750420189,-1415008161164999936,0.0,46.6315750420189,-3879.0283672073574,0.0,0,7,0.0,16431,383412924441105,235,27.875999450683594,-1437.4403084175556,0.14999,16,-185348.64394761727,0.0008999999845400453,1575420030,,,,0,8.879836728111075,1,6.0,27.875999450683594,0.0,0.0,0.0,66.7128,C,,
Raw,1730975394999,2451835000000,18,46.6315750420189,-1415008161164999936,0.0,46.6315750420189,-3879.0283672073574,0.0,0,2,0.0,47,383412921717406,1797,12.600000381469727,-1422.6826066746132,0.14999,16,-183550.96798645786,0.02250000089406967,1575420030,,,,0,0.0,1,6.0,12.600000381469727,0.0,0.0,0.0,66.7128,C,,
Raw,1730975394999,2451835000000,18,46.6315750420189,-1415008161164999936,0.0,46.6315750420189,-3879.0283672073574,0.0,0,30,0.0,16431,383412910544622,396,19.799999237060547,-755.9100699268974,0.14999,24,-171234.1396387941,0.004900000058114529,1575420030,,,,0,0.0,6,6.0,19.799999237060547,0.0,0.0,6.818156904668337,66.7128,C,,
Raw,1730975394999,2451835000000,18,46.6315750420189,-1415008161164999936,0.0,46.6315750420189,-3879.0283672073574,0.0,0,27,0.0,47,383398922923906,487,19.983999252319336,-1480.41064453125,0.14999,16,-188082.23272391682,0.009999999776482582,1561097980,,,,0,0.0,5,6.0,19.983999252319336,0.0,0.0,37.33999853977931,66.7128,I,,
Raw,1730975394999,2451835000000,18,46.6315750420189,-1415008161164999936,0.0,46.6315750420189,-3879.0283672073574,0.0,0,21,0.0,47,383412915357284,316,26.899999618530273,-1295.4834585139536,0.14999,25,-182198.32688366264,0.002025000052526593,1575420030,,,,0,8.361529442374186,6,6.0,26.899999618530273,0.0,0.0,6.818156904668337,66.7128,C,,
Raw,1730975394999,2451835000000,18,46.6315750420189,-1415008161164999936,0.0,46.6315750420189,-3879.0283672073574,0.0,0,19,0.0,16905,383398917660634,487,25.099000930786133,-1522.9593505859375,0.14999,16,-184707.60450518952,0.009999999776482582,1561097980,,,,0,3.5218251811136247,5,6.0,25.099000930786133,0.0,0.0,37.33999853977931,66.7128,I,,
Raw,1730975394999,2451835000000,18,46.6315750420189,-1415008161164999936,0.0,46.6315750420189,-3879.0283672073574,0.0,0,37,0.0,16905,383398919379081,487,18.600000381469727,-995.43798828125,0.14999,16,-176158.78658212052,0.009999999776482582,1561097980,,,,0,0.0,5,6.0,18.600000381469727,0.0,0.0,37.33999853977931,66.7128,I,,
Raw,1730975394999,2451835000000,18,46.6315750420189,-1415008161164999936,0.0,46.6315750420189,-3879.0283672073574,0.0,0,9,0.0,16905,383398874882587,797,15.300000190734863,-1332.55029296875,0.14999,16,-183042.12203113682,0.02250000089406967,1561097980,,,,0,0.0,5,6.0,15.300000190734863,0.0,0.0,37.33999853977931,66.7128,I,,
Raw,1730975394999,2451835000000,18,46.6315750420189,-1415008161164999936,0.0,46.6315750420189,-3879.0283672073574,0.0,0,8,0.0,16431,383412912484148,1837,11.699999809265137,-718.893862226989,0.14999,24,-170026.69406597683,0.02250000089406967,1575420030,,,,0,0.0,6,6.0,11.699999809265137,0.0,0.0,6.818156904668337,66.7128,C,,
Raw,1730975394999,2451835000000,18,46.6315750420189,-1415008161164999936,0.0,46.6315750420189,-3879.0283672073574,0.0,0,7,0.0,16905,383398878832270,487,21.292999267578125,-1139.8001708984375,0.14999,16,-179218.0189810447,0.009999999776482582,1561097980,,,,0,1.555193178256613,5,6.0,21.292999267578125,0.0,0.0,37.33999853977931,66.7128,I,,
Raw,1730975394999,2451835000000,18,46.6315750420189,-1415008161164999936,0.0,46.6315750420189,-3879.0283672073574,0.0,0,10,0.0,16905,383398879234764,797,17.600000381469727,-1163.30810546875,0.14999,16,-179754.5021212219,0.02250000089406967,1561097980,,,,0,0.0,5,6.0,17.600000381469727,0.0,0.0,37.33999853977931,66.7128,I,,
Raw,1730975394999,2451835000000,18,46.6315750420189,-1415008161164999936,0.0,46.6315750420189,-3879.0283672073574,0.0,0,28,0.0,16905,383398919432976,797,13.5,-1128.2681884765625,0.14999,16,-179699.27384842507,0.02250000089406967,1561097980,,,,0,0.0,5,6.0,13.5,0.0,0.0,37.33999853977931,66.7128,I,,
Raw,1730975395999,2452835000000,18,47.07031761836839,-1415008161164999936,0.0,47.07031761836839,-3875.7825857249713,0.0,0,8,0.0,47,383413930682909,316,24.993999481201172,-878.1501073659957,0.14999,16,-167996.46680145295,0.002025000052526593,1575420030,,,,0,5.006745748555877,1,6.0,24.993999481201172,0.0,0.0,0.0,66.7128,C,,
Raw,1730975395999,2452835000000,18,47.07031761836839,-1415008161164999936,0.0,47.07031761836839,-3875.7825857249713,0.0,0,27,0.0,47,383413922400234,487,21.235000610351562,-599.185343887203,0.14999,16,-168175.16343148,0.009999999776482582,1575420030,,,,0,0.0,1,6.0,21.235000610351562,0.0,0.0,0.0,66.7128,C,,
Raw,1730975395999,2452835000000,18,47.07031761836839,-1415008161164999936,0.0,47.07031761836839,-3875.7825857249713,0.0,0,21,0.0,16431,383413922991275,797,14.399999618530273,-1399.5972338259319,0.14999,16,-182969.96051822696,0.02250000089406967,1575420030,,,,0,0.0,1,6.0,14.399999618530273,0.0,0.0,0.0,66.7128,C,,
Raw,1730975395999,2452835000000,18,47.07031761836839,-1415008161164999936,0.0,47.07031761836839,-3875.7825857249713,0.0,0,4,0.0,16431,383413932513218,396,21.016000747680664,-906.7733234269732,0.14999,16,-168620.3380338565,0.004900000058114529,1575420030,,,,0,1.729609695782486,1,6.0,21.016000747680664,0.0,0.0,0.0,66.7128,C,,
Raw,1730975395999,2452835000000,18,47.07031761836839,-1415008161164999936,0.0,47.07031761836839,-3875.7825857249713,0.0,0,13,0.0,16905,383399866473962,797,16.299999237060547,-963.1124267578125,0.14999,16,-179585.11537769518,0.02250000089406967,1561097980,,,,0,0.0,5,6.0,16.299999237060547,0.0,0.0,36.02673226627328,66.7128,I,,
Raw,1730975395999,2452835000000,18,47.07031761836839,-1415008161164999936,0.0,47.07031761836839,-3875.7825857249713,0.0,0,27,0.0,47,383413919773062,396,24.0,-937.6124201075286,0.14999,28,-174394.05146150506,0.004900000058114529,1575420030,,,,0,4.797437074992578,6,6.0,24.0,0.0,0.0,5.215028829934164,66.7128,C,,
Raw,1730975395999,2452835000000,18,47.07031761836839,-1415008161164999936,0.0,47.07031761836839,-3875.7825857249713,0.0,0,20,0.0,16905,383399925502817,316,25.200000762939453,-1052.0546875,0.14999,20,-177819.97775300522,0.002025000052526593,1561097980,,,,0,6.395588633536404,5,6.0,25.200000762939453,0.0,0.0,36.02673226627328,66.7128,I,,
Raw,1730975395999,2452835000000,18,47.07031761836839,-1415008161164999936,0.0,47.07031761836839,-3875.7825857249713,0.0,0,7,0.0,47,383413922670459,316,25.0,-1106.9146937926535,0.14999,25,-176839.9328185298,0.002025000052526593,1575420030,,,,0,6.093898995007732,6,6.0,25.0,0.0,0.0,5.215028829934164,66.7128,C,,
Raw,1730975395999,2452835000000,18,47.07031761836839,-1415008161164999936,0.0,47.07031761836839,-3875.7825857249713,0.0,0,16,0.0,16905,383399874205544,797,15.600000381469727,-1323.3382568359375,0.14999,16,-183112.80023893586,0.02250000089406967,1561097980,,,,0,0.0,5,6.0,15.600000381469727,0.0,0.0,36.02673226627328,66.7128,I,,
Raw,1730975395999,2452835000000,18,47.07031761836839,-1415008161164999936,0.0,47.07031761836839,-3875.7825857249713,0.0,0,32,0.0,16905,383399920003111,396,22.299999237060547,-598.8366088867188,0.14999,16,-172654.18718010292,0.004900000058114529,1561097980,,,,0,2.5624079078897832,5,6.0,22.299999237060547,0.0,0.0,36.02673226627328,66.7128,I,,
Raw,1730975395999,2452835000000,18,47.07031761836839,-1415008161164999936,0.0,47.07031761836839,-3875.7825857249713,0.0,0,40,0.0,47,383399877489979,487,19.80299949645996,-1137.057861328125,0.14999,16,-175668.67174944608,0.009999999776482582,1561097980,,,,0,0.0,5,6.0,19.80299949645996,0.0,0.0,36.02673226627328,66.7128,I,,
Raw,1730975395999,2452835000000,18,47.07031761836839,-1415008161164999936,0.0,47.07031761836839,-3875.7825857249713,0.0,0,39,0.0,16905,383399874023598,797,16.719999313354492,-1297.888671875,0.14999,16,-182934.68835633597,0.02250000089406967,1561097980,,,,0,0.0,5,6.0,16.719999313354492,0.0,0.0,36.02673226627328,66.7128,I,,
Raw,1730975395999,2452835000000,18,47.07031761836839,-1415008161164999936,0.0,47.07031761836839,-3875.7825857249713,0.0,0,30,0.0,16905,383399916995879,396,20.075000762939453,-1669.64404296875,0.14999,16,-191800.76067377604,0.004900000058114529,1561097980,,,,0,1.4116214857141456,5,6.0,20.075000762939453,0.0,0.0,36.02673226627328,66.7128,I,,
Raw,1730975395999,2452835000000,18,47.07031761836839,-1415008161164999936,0.0,47.07031761836839,-3875.7825857249713,0.0,0,29,0.0,47,383413917469483,396,23.399999618530273,-1569.5314348883526,0.14999,25,-206281.41865872458,0.004900000058114529,1575420030,,,,0,3.9991919846074717,6,6.0,23.399999618530273,0.0,0.0,5.215028829934164,66.7128,C,,
Raw,1730975395999,2452835000000,18,47.07031761836839,-1415008161164999936,0.0,47.07031761836839,-3875.7825857249713,0.0,0,7,0.0,17,855440,487,0.0,-485.73372382825306,0.14999,16,-144800.52563306905,0.009999999776482582,1604812540,,,,0,0.0,3,6.0,19.0,0.0,0.0,-13.575201129217207,66.7128,C,,
Raw,1730975395999,2452835000000,18,47.07031761836839,-1415008161164999936,0.0,47.07031761836839,-3875.7825857249713,0.0,0,8,0.0,32995,48595935982972,235,0.0,-1125.6222895999765,0.14999,16,-176058.3613554249,0.0008999999845400453,1605374980,,,,0,6.735763812421993,3,6.0,27.0,0.0,0.0,-13.575201129217207,66.7128,C,,
Raw,1730975395999,2452835000000,18,47.07031761836839,-1415008161164999936,0.0,47.07031761836839,-3875.7825857249713,0.0,0,21,0.0,32995,48595926042629,797,17.200000762939453,-1655.1045601964242,0.14999,16,-187130.46246525645,0.02250000089406967,1604249980,,,,0,0.0,3,6.0,17.200000762939453,0.0,0.0,-13.575201129217207,66.7128,C,,
Raw,1730975395999,2452835000000,18,47.07031761836839,-1415008161164999936,0.0,47.07031761836839,-3875.7825857249713,0.0,0,1,0.0,32995,48595925800686,797,0.0,-1797.1306675772762,0.14999,16,-189727.16810493456,0.02250000089406967,1602562560,,,,0,0.0,3,6.0,16.0,0.0,0.0,-13.575201129217207,66.7128,C,,
Raw,1730975395999,2452835000000,18,47.07031761836839,-1415008161164999936,0.0,47.07031761836839,-3875.7825857249713,0.0,0,11,0.0,32995,48595928209106,487,25.5,-1026.2577488862414,0.14999,16,-173243.13561792605,0.009999999776482582,1602000000,,,,0,0.0,3,6.0,25.5,0.0,0.0,-13.575201129217207,66.7128,C,,
Raw,1730975395999,2452835000000,18,47.07031761836839,-1415008161164999936,0.0,47.07031761836839,-3875.7825857249713,0.0,0,12,0.0,32995,48595921191836,797,19.95199966430664,-1313.718685383636,0.14999,16,-177439.18182261498,0.02250000089406967,1601437440,,,,0,0.0,3,6.0,19.95199966430664,0.0,0.0,-13.575201129217207,66.7128,C,,
Raw,1730975395999,2452835000000,18,47.07031761836839,-1415008161164999936,0.0,47.07031761836839,-3875.7825857249713,0.0,0,14,0.0,47,383413923936349,235,27.85700035095215,-1422.4756808888114,0.14999,20,-187427.9639389617,0.0008999999845400453,1575420030,,,,0,8.853314907083213,1,6.0,27.85700035095215,0.0,0.0,0.0,66.7128,C,,
Raw,1730975395999,2452835000000,18,47.07031761836839,-1415008161164999936,0.0,47.07031761836839,-3875.7825857249713,0.0,0,3,0.0,47,383413920059184,487,21.993999481201172,-663.8537867492887,0.14999,16,-166484.9726719203,0.009999999776482582,1575420030,,,,0,0.5005601140386211,1,6.0,21.993999481201172,0.0,0.0,0.0,66.7128,C,,
Raw,1730975395999,2452835000000,18,47.07031761836839,-1415008161164999936,0.0,47.07031761836839,-3875.7825857249713,0.0,0,30,0.0,47,383413919513803,487,18.85700035095215,-1492.8712385508352,0.14999,16,-187976.50464683984,0.009999999776482582,1575420030,,,,0,0.0,1,6.0,18.85700035095215,0.0,0.0,0.0,66.7128,C,,
Raw,1730975395999,2452835000000,18,47.07031761836839,-1415008161164999936,0.0,47.07031761836839,-3875.7825857249713,0.0,0,9,0.0,16431,383413933762820,316,24.60700035095215,-1268.9761445608688,0.14999,16,-195894.46239761534,0.002025000052526593,1575420030,,,,0,4.45168437710935,1,6.0,24.60700035095215,0.0,0.0,0.0,66.7128,C,,
Raw,1730975395999,2452835000000,18,47.07031761836839,-1415008161164999936,0.0,47.07031761836839,-3875.7825857249713,0.0,0,7,0.0,16431,383413924445889,396,24.016000747680664,-1434.8856530269704,0.14999,16,-186784.5644542868,0.004900000058114529,1575420030,,,,0,3.6194204734753557,1,6.0,24.016000747680664,0.0,0.0,0.0,66.7128,C,,
Raw,1730975395999,2452835000000,18,47.07031761836839,-1415008161164999936,0.0,47.07031761836839,-3875.7825857249713,0.0,0,2,0.0,47,383413921722138,1797,12.600000381469727,-1414.7982417763553,0.14999,16,-184969.6410442086,0.02250000089406967,1575420030,,,,0,0.0,1,6.0,12.600000381469727,0.0,0.0,0.0,66.7128,C,,
Raw,1730975395999,2452835000000,18,47.07031761836839,-1415008161164999936,0.0,47.07031761836839,-3875.7825857249713,0.0,0,30,0.0,16431,383413910547157,316,23.200000762939453,-755.3342643163841,0.14999,24,-171989.78297176037,0.002025000052526593,1575420030,,,,0,3.715931351261182,6,6.0,23.200000762939453,0.0,0.0,5.215028829934164,66.7128,C,,
Raw,1730975395999,2452835000000,18,47.07031761836839,-1415008161164999936,0.0,47.07031761836839,-3875.7825857249713,0.0,0,27,0.0,47,383399922928843,396,20.018999099731445,-1478.7684326171875,0.14999,16,-189561.816779793,0.004900000058114529,1561097980,,,,0,0.25178254616040935,5,6.0,20.018999099731445,0.0,0.0,36.02673226627328,66.7128,I,,
Raw,1730975395999,2452835000000,18,47.07031761836839,-1415008161164999936,0.0,47.07031761836839,-3875.7825857249713,0.0,0,21,0.0,47,383413915361601,316,23.799999237060547,-1294.8383369464539,0.14999,25,-183493.7501970819,0.002025000052526593,1575420030,,,,0,4.582959767157116,6,6.0,23.799999237060547,0.0,0.0,5.215028829934164,66.7128,C,,
Raw,1730975395999,2452835000000,18,47.07031761836839,-1415008161164999936,0.0,47.07031761836839,-3875.7825857249713,0.0,0,19,0.0,16905,383399917665713,396,25.018999099731445,-1523.0284423828125,0.14999,16,-186231.754372749,0.004900000058114529,1561097980,,,,0,4.177675449039774,5,6.0,25.018999099731445,0.0,0.0,36.02673226627328,66.7128,I,,
Raw,1730975395999,2452835000000,18,47.07031761836839,-1415008161164999936,0.0,47.07031761836839,-3875.7825857249713,0.0,0,37,0.0,16905,383399919382397,487,18.600000381469727,-995.093505859375,0.14999,16,-177153.10914984602,0.009999999776482582,1561097980,,,,0,0.0,5,6.0,18.600000381469727,0.0,0.0,36.02673226627328,66.7128,I,,
Raw,1730975395999,2452835000000,18,47.07031761836839,-1415008161164999936,0.0,47.07031761836839,-3875.7825857249713,0.0,0,9,0.0,16905,383399874887038,797,15.350000381469727,-1332.77099609375,0.14999,16,-184376.3096886475,0.02250000089406967,1561097980,,,,0,0.0,5,6.0,15.350000381469727,0.0,0.0,36.02673226627328,66.7128,I,,
Raw,1730975395999,2452835000000,18,47.07031761836839,-1415008161164999936,0.0,47.07031761836839,-3875.7825857249713,0.0,0,8,0.0,16431,383413912486545,1837,11.699999809265137,-718.2030720363545,0.14999,24,-170745.3323470704,0.02250000089406967,1575420030,,,,0,0.0,6,6.0,11.699999809265137,0.0,0.0,5.215028829934164,66.7128,C,,
Raw,1730975395999,2452835000000,18,47.07031761836839,-1415008161164999936,0.0,47.07031761836839,-3875.7825857249713,0.0,0,7,0.0,16905,383399878836069,797,21.17799949645996,-1138.1041259765625,0.14999,16,-180356.58166639693,0.02250000089406967,1561097980,,,,0,0.0,5,6.0,21.17799949645996,0.0,0.0,36.02673226627328,66.7128,I,,
Raw,1730975395999,2452835000000,18,47.07031761836839,-1415008161164999936,0.0,47.07031761836839,-3875.7825857249713,0.0,0,10,0.0,16905,383399879238645,797,17.600000381469727,-1166.84228515625,0.14999,16,-180919.4016353935,0.02250000089406967,1561097980,,,,0,0.0,5,6.0,17.600000381469727,0.0,0.0,36.02673226627328,66.7128,I,,
Raw,1730975395999,2452835000000,18,47.07031761836839,-1415008161164999936,0.0,47.07031761836839,-3875.7825857249713,0.0,0,28,0.0,16905,383399919436751,487,18.799999237060547,-1124.581787109375,0.14999,16,-180825.54915649537,0.009999999776482582,1561097980,,,,0,0.0,5,6.0,18.799999237060547,0.0,0.0,36.02673226627328,66.7128,I,,
Raw,1730975396999,2453835000000,18,47.39172476408259,-1415008161164999936,0.0,47.39172476408259,-3867.4664790719316,0.0,0,8,0.0,47,383414930685842,396,24.17099952697754,-875.9516021940807,0.14999,16,-168875.12072682317,0.004900000058114529,1575420030,,,,0,3.8113816484860825,1,6.0,24.17099952697754,0.0,0.0,0.0,66.7128,C,,
Raw,1730975396999,2453835000000,18,47.39172476408259,-1415008161164999936,0.0,47.39172476408259,-3867.4664790719316,0.0,0,27,0.0,47,383414922402239,396,21.256000518798828,-598.2750841383898,0.14999,16,-168774.58795752176,0.004900000058114529,1575420030,,,,0,0.0,1,6.0,21.256000518798828,0.0,0.0,0.0,66.7128,C,,
Raw,1730975396999,2453835000000,18,47.39172476408259,-1415008161164999936,0.0,47.39172476408259,-3867.4664790719316,0.0,0,21,0.0,16431,383414922995944,797,14.399999618530273,-1397.5106934370842,0.14999,16,-184369.55008612384,0.02250000089406967,1575420030,,,,0,0.0,1,6.0,14.399999618530273,0.0,0.0,0.0,66.7128,C,,
Raw,1730975396999,2453835000000,18,47.39172476408259,-1415008161164999936,0.0,47.39172476408259,-3867.4664790719316,0.0,0,4,0.0,16431,383414932516241,316,25.288000106811523,-904.6057595602543,0.14999,16,-169527.26935625932,0.002025000052526593,1575420030,,,,0,5.410813470321617,1,6.0,25.288000106811523,0.0,0.0,0.0,66.7128,C,,
Raw,1730975396999,2453835000000,18,47.39172476408259,-1415008161164999936,0.0,47.39172476408259,-3867.4664790719316,0.0,0,13,0.0,16905,383400866477173,797,16.299999237060547,-958.0032348632812,0.14999,16,-180547.57261894667,0.02250000089406967,1561097980,,,,0,0.0,5,6.0,16.299999237060547,0.0,0.0,36.18113693587887,66.7128,I,,
Raw,1730975396999,2453835000000,18,47.39172476408259,-1415008161164999936,0.0,47.39172476408259,-3867.4664790719316,0.0,0,27,0.0,47,383414919776195,316,24.0,-934.9633612152037,0.14999,25,-175332.49785925527,0.002025000052526593,1575420030,,,,0,4.7549632023954675,6,6.0,24.0,0.0,0.0,4.1024636788162585,66.7128,C,,
Raw,1730975396999,2453835000000,18,47.39172476408259,-1415008161164999936,0.0,47.39172476408259,-3867.4664790719316,0.0,0,20,0.0,16905,383400925506321,235,25.209999084472656,-1048.8157958984375,0.14999,17,-178871.27591233677,0.0008999999845400453,1561097980,,,,0,6.5971264368537454,5,6.0,25.209999084472656,0.0,0.0,36.18113693587887,66.7128,I,,
Raw,1730975396999,2453835000000,18,47.39172476408259,-1415008161164999936,0.0,47.39172476408259,-3867.4664790719316,0.0,0,7,0.0,47,383414922674147,487,22.100000381469727,-1104.0824029067942,0.14999,29,-177945.95694484448,0.009999999776482582,1575420030,,,,0,2.256188470229469,6,6.0,22.100000381469727,0.0,0.0,4.1024636788162585,66.7128,C,,
Raw,1730975396999,2453835000000,18,47.39172476408259,-1415008161164999936,0.0,47.39172476408259,-3867.4664790719316,0.0,0,16,0.0,16905,383400874209947,797,15.630000114440918,-1315.8779296875,0.14999,16,-184433.00071799778,0.02250000089406967,1561097980,,,,0,0.0,5,6.0,15.630000114440918,0.0,0.0,36.18113693587887,66.7128,I,,
Raw,1730975396999,2453835000000,18,47.39172476408259,-1415008161164999936,0.0,47.39172476408259,-3867.4664790719316,0.0,0,32,0.0,16905,383400920005107,487,22.25,-595.7960815429688,0.14999,16,-173252.72071536724,0.009999999776482582,1561097980,,,,0,1.117156349300018,5,6.0,22.25,0.0,0.0,36.18113693587887,66.7128,I,,
Raw,1730975396999,2453835000000,18,47.39172476408259,-1415008161164999936,0.0,47.39172476408259,-3867.4664790719316,0.0,0,40,0.0,47,383400877493772,487,19.711999893188477,-1136.4776611328125,0.14999,16,-176805.83526381047,0.009999999776482582,1561097980,,,,0,0.0,5,6.0,19.711999893188477,0.0,0.0,36.18113693587887,66.7128,I,,
Raw,1730975396999,2453835000000,18,47.39172476408259,-1415008161164999936,0.0,47.39172476408259,-3867.4664790719316,0.0,0,39,0.0,16905,383400874027922,487,16.698999404907227,-1294.5118408203125,0.14999,16,-184230.9534027297,0.009999999776482582,1561097980,,,,0,0.0,5,6.0,16.698999404907227,0.0,0.0,36.18113693587887,66.7128,I,,
Raw,1730975396999,2453835000000,18,47.39172476408259,-1415008161164999936,0.0,47.39172476408259,-3867.4664790719316,0.0,0,30,0.0,16905,383400917001449,487,23.299999237060547,-1667.6802978515625,0.14999,16,-193470.47251430538,0.009999999776482582,1561097980,,,,0,3.8559390511706786,5,6.0,23.299999237060547,0.0,0.0,36.18113693587887,66.7128,I,,
Raw,1730975396999,2453835000000,18,47.39172476408259,-1415008161164999936,0.0,47.39172476408259,-3867.4664790719316,0.0,0,29,0.0,47,383414917474712,396,19.799999237060547,-1564.5813835579522,0.14999,28,-207849.54623613076,0.004900000058114529,1575420030,,,,0,0.0,6,6.0,19.799999237060547,0.0,0.0,4.1024636788162585,66.7128,C,,
Raw,1730975396999,2453835000000,18,47.39172476408259,-1415008161164999936,0.0,47.39172476408259,-3867.4664790719316,0.0,0,7,0.0,17,857055,487,0.0,-481.2338122675318,0.14999,16,-145284.76655692435,0.009999999776482582,1604812540,,,,0,0.0,3,6.0,20.0,0.0,0.0,-16.251300027252867,66.7128,C,,
Raw,1730975396999,2453835000000,18,47.39172476408259,-1415008161164999936,0.0,47.39172476408259,-3867.4664790719316,0.0,0,8,0.0,32995,48596935986728,316,0.0,-1123.4467525079622,0.14999,16,-177184.24699857013,0.002025000052526593,1605374980,,,,0,3.169050212859323,3,6.0,24.0,0.0,0.0,-16.251300027252867,66.7128,C,,
Raw,1730975396999,2453835000000,18,47.39172476408259,-1415008161164999936,0.0,47.39172476408259,-3867.4664790719316,0.0,0,21,0.0,32995,48596926048142,797,17.200000762939453,-1649.1256902824043,0.14999,16,-188783.1952840793,0.02250000089406967,1604249980,,,,0,0.0,3,6.0,17.200000762939453,0.0,0.0,-16.251300027252867,66.7128,C,,
Raw,1730975396999,2453835000000,18,47.39172476408259,-1415008161164999936,0.0,47.39172476408259,-3867.4664790719316,0.0,0,1,0.0,32995,48596925806682,797,0.0,-1795.6589474551768,0.14999,16,-191524.77538913506,0.02250000089406967,1602562560,,,,0,0.0,3,6.0,17.0,0.0,0.0,-16.251300027252867,66.7128,C,,
Raw,1730975396999,2453835000000,18,47.39172476408259,-1415008161164999936,0.0,47.39172476408259,-3867.4664790719316,0.0,0,11,0.0,32995,48596928212522,396,22.700000762939453,-1023.030651703281,0.14999,16,-174267.923465427,0.004900000058114529,1602000000,,,,0,1.408562535290536,3,6.0,22.700000762939453,0.0,0.0,-16.251300027252867,66.7128,C,,
Raw,1730975396999,2453835000000,18,47.39172476408259,-1415008161164999936,0.0,47.39172476408259,-3867.4664790719316,0.0,0,12,0.0,32995,48596921196211,797,19.893999099731445,-1307.3938504761397,0.14999,16,-178750.9792667838,0.02250000089406967,1601437440,,,,0,0.0,3,6.0,19.893999099731445,0.0,0.0,-16.251300027252867,66.7128,C,,
Raw,1730975396999,2453835000000,18,47.39172476408259,-1415008161164999936,0.0,47.39172476408259,-3867.4664790719316,0.0,0,14,0.0,47,383414923941095,487,23.895000457763672,-1419.1537182960933,0.14999,16,-188850.6216116947,0.009999999776482582,1575420030,,,,0,3.4231208276033813,1,6.0,23.895000457763672,0.0,0.0,0.0,66.7128,C,,
Raw,1730975396999,2453835000000,18,47.39172476408259,-1415008161164999936,0.0,47.39172476408259,-3867.4664790719316,0.0,0,3,0.0,47,383414920061403,797,18.759000778198242,-664.3812291485269,0.14999,16,-167150.09039443606,0.02250000089406967,1575420030,,,,0,0.0,1,6.0,18.759000778198242,0.0,0.0,0.0,66.7128,C,,
Raw,1730975396999,2453835000000,18,47.39172476408259,-1415008161164999936,0.0,47.39172476408259,-3867.4664790719316,0.0,0,30,0.0,47,383414919518786,797,18.827999114990234,-1492.456364894075,0.14999,16,-189470.39198292856,0.02250000089406967,1575420030,,,,0,0.0,1,6.0,18.827999114990234,0.0,0.0,0.0,66.7128,C,,
Raw,1730975396999,2453835000000,18,47.39172476408259,-1415008161164999936,0.0,47.39172476408259,-3867.4664790719316,0.0,0,9,0.0,16431,383414933767059,235,27.586000442504883,-1266.003828008551,0.14999,16,-197163.16262244832,0.0008999999845400453,1575420030,,,,0,8.50095281534179,1,6.0,27.586000442504883,0.0,0.0,0.0,66.7128,C,,
Raw,1730975396999,2453835000000,18,47.39172476408259,-1415008161164999936,0.0,47.39172476408259,-3867.4664790719316,0.0,0,7,0.0,16431,383414924450679,51,35.92100143432617,-1433.1288744763851,0.14999,17,-188219.27275492318,0.00022499999613501132,1575420030,,,,0,18.37801368994025,1,6.0,35.92100143432617,0.0,0.0,0.0,66.7128,C,,
Raw,1730975396999,2453835000000,18,47.39172476408259,-1415008161164999936,0.0,47.39172476408259,-3867.4664790719316,0.0,0,2,0.0,17,726835,1797,0.0,-1400.1820523691902,0.14999,16,-186377.49015775116,0.02250000089406967,1575420030,,,,0,0.0,1,6.0,12.0,0.0,0.0,0.0,66.7128,C,,
Raw,1730975396999,2453835000000,18,47.39172476408259,-1415008161164999936,0.0,47.39172476408259,-3867.4664790719316,0.0,0,30,0.0,16431,383414910549691,396,23.15999984741211,-753.0782900836166,0.14999,25,-172745.01587513683,0.004900000058114529,1575420030,,,,0,2.698877374514486,6,6.0,23.15999984741211,0.0,0.0,4.1024636788162585,66.7128,C,,
Raw,1730975396999,2453835000000,18,47.39172476408259,-1415008161164999936,0.0,47.39172476408259,-3867.4664790719316,0.0,0,27,0.0,47,383400922933774,396,20.107999801635742,-1475.2823486328125,0.14999,16,-191040.51829533197,0.004900000058114529,1561097980,,,,0,1.8354074671129073,5,6.0,20.107999801635742,0.0,0.0,36.18113693587887,66.7128,I,,
Raw,1730975396999,2453835000000,18,47.39172476408259,-1415008161164999936,0.0,47.39172476408259,-3867.4664790719316,0.0,0,21,0.0,47,383414915365917,316,24.5,-1290.97271796724,0.14999,28,-184787.74005787546,0.002025000052526593,1575420030,,,,0,5.489419342890265,6,6.0,24.5,0.0,0.0,4.1024636788162585,66.7128,C,,
Raw,1730975396999,2453835000000,18,47.39172476408259,-1415008161164999936,0.0,47.39172476408259,-3867.4664790719316,0.0,0,19,0.0,16905,383400917670789,396,22.0,-1519.2265625,0.14999,16,-187753.79733687313,0.004900000058114529,1561097980,,,,0,2.1734224778769344,5,6.0,22.0,0.0,0.0,36.18113693587887,66.7128,I,,
Raw,1730975396999,2453835000000,18,47.39172476408259,-1415008161164999936,0.0,47.39172476408259,-3867.4664790719316,0.0,0,37,0.0,16905,383400919385730,396,21.200000762939453,-992.2455444335938,0.14999,16,-178148.19943455118,0.004900000058114529,1561097980,,,,0,0.9660935914911009,5,6.0,21.200000762939453,0.0,0.0,36.18113693587887,66.7128,I,,
Raw,1730975396999,2453835000000,18,47.39172476408259,-1415008161164999936,0.0,47.39172476408259,-3867.4664790719316,0.0,0,9,0.0,16905,383400874891480,487,15.467000007629395,-1328.218994140625,0.14999,16,-185706.68401760596,0.009999999776482582,1561097980,,,,0,0.0,5,6.0,15.467000007629395,0.0,0.0,36.18113693587887,66.7128,I,,
Raw,1730975396999,2453835000000,18,47.39172476408259,-1415008161164999936,0.0,47.39172476408259,-3867.4664790719316,0.0,0,8,0.0,16431,383414912488822,1934,10.399999618530273,-716.0908866017586,0.14999,24,-171463.4629436871,0.02250000089406967,1575420030,,,,0,0.0,6,6.0,10.399999618530273,0.0,0.0,4.1024636788162585,66.7128,C,,
Raw,1730975396999,2453835000000,18,47.39172476408259,-1415008161164999936,0.0,47.39172476408259,-3867.4664790719316,0.0,0,7,0.0,16905,383400878839867,487,17.200000762939453,-1135.882568359375,0.14999,16,-181495.3429038379,0.009999999776482582,1561097980,,,,0,0.0,5,6.0,17.200000762939453,0.0,0.0,36.18113693587887,66.7128,I,,
Raw,1730975396999,2453835000000,18,47.39172476408259,-1415008161164999936,0.0,47.39172476408259,-3867.4664790719316,0.0,0,10,0.0,16905,383400879242535,797,17.600000381469727,-1164.729248046875,0.14999,16,-182085.46532599977,0.02250000089406967,1561097980,,,,0,0.0,5,6.0,17.600000381469727,0.0,0.0,36.18113693587887,66.7128,I,,
Raw,1730975396999,2453835000000,18,47.39172476408259,-1415008161164999936,0.0,47.39172476408259,-3867.4664790719316,0.0,0,28,0.0,16905,383400919440511,487,18.809999465942383,-1124.1640625,0.14999,16,-181950.45117976028,0.009999999776482582,1561097980,,,,0,0.0,5,6.0,18.809999465942383,0.0,0.0,36.18113693587887,66.7128,I,,
Raw,1730975397999,2454835000000,18,47.9033594119402,-1415008161164999936,0.0,47.9033594119402,-3863.3507655992576,0.0,0,8,0.0,47,383415930688765,487,21.18899917602539,-872.3917725103644,0.14999,16,-169750.75863209282,0.009999999776482582,1575420030,,,,0,0.0,1,6.0,21.18899917602539,0.0,0.0,0.0,66.7128,C,,
Raw,1730975397999,2454835000000,18,47.9033594119402,-1415008161164999936,0.0,47.9033594119402,-3863.3507655992576,0.0,0,27,0.0,47,383415922404256,487,21.325000762939453,-597.1518590096678,0.14999,16,-169374.2041122189,0.009999999776482582,1575420030,,,,0,1.5467421069850897,1,6.0,21.325000762939453,0.0,0.0,0.0,66.7128,C,,
Raw,1730975397999,2454835000000,18,47.9033594119402,-1415008161164999936,0.0,47.9033594119402,-3863.3507655992576,0.0,0,21,0.0,16431,383415923000606,797,14.399999618530273,-1396.4517202979812,0.14999,16,-185767.18594625793,0.02250000089406967,1575420030,,,,0,0.0,1,6.0,14.399999618530273,0.0,0.0,0.0,66.7128,C,,
Raw,1730975397999,2454835000000,18,47.9033594119402,-1415008161164999936,0.0,47.9033594119402,-3863.3507655992576,0.0,0,4,0.0,16431,383415932519253,316,25.1560001373291,-903.7043733689375,0.14999,17,-170432.19130500578,0.002025000052526593,1575420030,,,,0,5.251434876896111,1,6.0,25.1560001373291,0.0,0.0,0.0,66.7128,C,,
Raw,1730975397999,2454835000000,18,47.9033594119402,-1415008161164999936,0.0,47.9033594119402,-3863.3507655992576,0.0,0,13,0.0,16905,383401866480359,1797,13.5,-952.9120483398438,0.14999,16,-181503.81393773865,0.02250000089406967,1561097980,,,,0,0.0,5,6.0,13.5,0.0,0.0,36.155913031316594,66.7128,I,,
Raw,1730975397999,2454835000000,18,47.9033594119402,-1415008161164999936,0.0,47.9033594119402,-3863.3507655992576,0.0,0,27,0.0,47,383415919779317,316,25.299999237060547,-933.9818807143398,0.14999,25,-176268.26303077035,0.002025000052526593,1575420030,,,,0,6.416298919070807,6,6.0,25.299999237060547,0.0,0.0,-0.9131411415413081,66.7128,C,,
Raw,1730975397999,2454835000000,18,47.9033594119402,-1415008161164999936,0.0,47.9033594119402,-3863.3507655992576,0.0,0,20,0.0,16905,383401925509821,396,22.399999618530273,-1046.982177734375,0.14999,20,-179920.8647829548,0.004900000058114529,1561097980,,,,0,2.6967819907185304,5,6.0,22.399999618530273,0.0,0.0,36.155913031316594,66.7128,I,,
Raw,1730975397999,2454835000000,18,47.9033594119402,-1415008161164999936,0.0,47.9033594119402,-3863.3507655992576,0.0,0,7,0.0,47,383415922677832,396,22.0,-1102.296727221326,0.14999,28,-179049.3973146812,0.004900000058114529,1575420030,,,,0,2.1992316127729423,6,6.0,22.0,0.0,0.0,-0.9131411415413081,66.7128,C,,
Raw,1730975397999,2454835000000,18,47.9033594119402,-1415008161164999936,0.0,47.9033594119402,-3863.3507655992576,0.0,0,16,0.0,16905,383401874214335,797,15.657999992370605,-1315.2659912109375,0.14999,16,-185748.5141212088,0.02250000089406967,1561097980,,,,0,0.0,5,6.0,15.657999992370605,0.0,0.0,36.155913031316594,66.7128,I,,
Raw,1730975397999,2454835000000,18,47.9033594119402,-1415008161164999936,0.0,47.9033594119402,-3863.3507655992576,0.0,0,32,0.0,16905,383401920007098,797,22.20199966430664,-594.664794921875,0.14999,16,-173849.55430954334,0.02250000089406967,1561097980,,,,0,1.117156349300018,5,6.0,22.20199966430664,0.0,0.0,36.155913031316594,66.7128,I,,
Raw,1730975397999,2454835000000,18,47.9033594119402,-1415008161164999936,0.0,47.9033594119402,-3863.3507655992576,0.0,0,40,0.0,47,383401877497570,396,19.76099967956543,-1136.5311279296875,0.14999,16,-177943.64394529595,0.004900000058114529,1561097980,,,,0,0.2083046985707852,5,6.0,19.76099967956543,0.0,0.0,36.155913031316594,66.7128,I,,
Raw,1730975397999,2454835000000,18,47.9033594119402,-1415008161164999936,0.0,47.9033594119402,-3863.3507655992576,0.0,0,39,0.0,16905,383401874032237,797,16.694000244140625,-1292.060546875,0.14999,16,-185524.2226370686,0.02250000089406967,1561097980,,,,0,0.0,5,6.0,16.694000244140625,0.0,0.0,36.155913031316594,66.7128,I,,
Raw,1730975397999,2454835000000,18,47.9033594119402,-1415008161164999936,0.0,47.9033594119402,-3863.3507655992576,0.0,0,30,0.0,16905,383401917007017,797,23.299999237060547,-1669.3818359375,0.14999,16,-195139.887457142,0.02250000089406967,1561097980,,,,0,3.8559390511706786,5,6.0,23.299999237060547,0.0,0.0,36.155913031316594,66.7128,I,,
Raw,1730975397999,2454835000000,18,47.9033594119402,-1415008161164999936,0.0,47.9033594119402,-3863.3507655992576,0.0,0,29,0.0,47,383415917479936,74,29.399999618530273,-1565.1409287227918,0.14999,25,-209416.1017819888,0.0006249999860301614,1575420030,,,,0,11.312154444127707,6,6.0,29.399999618530273,0.0,0.0,-0.9131411415413081,66.7128,C,,
Raw,1730975397999,2454835000000,18,47.9033594119402,-1415008161164999936,0.0,47.9033594119402,-3863.3507655992576,0.0,0,7,0.0,17,858654,487,0.0,-475.5704528735751,0.14999,16,-145763.79812645962,0.009999999776482582,1604812540,,,,0,0.0,3,6.0,18.0,0.0,0.0,-23.5094629867976,66.7128,C,,
Raw,1730975397999,2454835000000,18,47.9033594119402,-1415008161164999936,0.0,47.9033594119402,-3863.3507655992576,0.0,0,8,0.0,32995,48597935990475,487,0.0,-1120.802078472303,0.14999,16,-178307.56905724818,0.009999999776482582,1605374980,,,,0,0.0,3,6.0,18.0,0.0,0.0,-23.5094629867976,66.7128,C,,
Raw,1730975397999,2454835000000,18,47.9033594119402,-1415008161164999936,0.0,47.9033594119402,-3863.3507655992576,0.0,0,21,0.0,32995,48597926053645,797,16.100000381469727,-1648.2882251082563,0.14999,16,-190432.71265979146,0.02250000089406967,1604249980,,,,0,0.0,3,6.0,16.100000381469727,0.0,0.0,-23.5094629867976,66.7128,C,,
Raw,1730975397999,2454835000000,18,47.9033594119402,-1415008161164999936,0.0,47.9033594119402,-3863.3507655992576,0.0,0,1,0.0,32995,48597925812677,797,0.0,-1795.1276959513207,0.14999,16,-193321.30778694295,0.02250000089406967,1602562560,,,,0,0.0,3,6.0,16.0,0.0,0.0,-23.5094629867976,66.7128,C,,
Raw,1730975397999,2454835000000,18,47.9033594119402,-1415008161164999936,0.0,47.9033594119402,-3863.3507655992576,0.0,0,11,0.0,32995,48597928215945,235,19.200000762939453,-1022.1798574152457,0.14999,16,-175292.17335515594,0.0008999999845400453,1602000000,,,,0,8.00692156875832,3,6.0,19.200000762939453,0.0,0.0,-23.5094629867976,66.7128,C,,
Raw,1730975397999,2454835000000,18,47.9033594119402,-1415008161164999936,0.0,47.9033594119402,-3863.3507655992576,0.0,0,12,0.0,32995,48597921200594,797,19.868999481201172,-1305.5499829478276,0.14999,16,-180059.0351791733,0.02250000089406967,1601437440,,,,0,0.0,3,6.0,19.868999481201172,0.0,0.0,-23.5094629867976,66.7128,C,,
Raw,1730975397999,2454835000000,18,47.9033594119402,-1415008161164999936,0.0,47.9033594119402,-3863.3507655992576,0.0,0,14,0.0,47,383415923945831,797,20.11400032043457,-1418.2182316272779,0.14999,16,-190271.01331513128,0.02250000089406967,1575420030,,,,0,0.0,1,6.0,20.11400032043457,0.0,0.0,0.0,66.7128,C,,
Raw,1730975397999,2454835000000,18,47.9033594119402,-1415008161164999936,0.0,47.9033594119402,-3863.3507655992576,0.0,0,3,0.0,47,383415920063630,1797,18.759000778198242,-668.3016226004532,0.14999,16,-167817.80759820985,0.02250000089406967,1575420030,,,,0,0.0,1,6.0,18.759000778198242,0.0,0.0,0.0,66.7128,C,,
Raw,1730975397999,2454835000000,18,47.9033594119402,-1415008161164999936,0.0,47.9033594119402,-3863.3507655992576,0.0,0,30,0.0,47,383415919523765,487,18.833999633789062,-1491.5000648547973,0.14999,16,-190962.7204032608,0.009999999776482582,1575420030,,,,0,0.0,1,6.0,18.833999633789062,0.0,0.0,0.0,66.7128,C,,
Raw,1730975397999,2454835000000,18,47.9033594119402,-1415008161164999936,0.0,47.9033594119402,-3863.3507655992576,0.0,0,9,0.0,16431,383415933771286,487,23.315000534057617,-1263.9868823271865,0.14999,16,-198429.4329959217,0.009999999776482582,1575420030,,,,0,2.5903023402865215,1,6.0,23.315000534057617,0.0,0.0,0.0,66.7128,C,,
Raw,1730975397999,2454835000000,18,47.9033594119402,-1415008161164999936,0.0,47.9033594119402,-3863.3507655992576,0.0,0,7,0.0,16431,383415924455462,235,27.525999069213867,-1432.770680087402,0.14999,21,-189653.22587040352,0.0008999999845400453,1575420030,,,,0,8.44545173424635,1,6.0,27.525999069213867,0.0,0.0,0.0,66.7128,C,,
Raw,1730975397999,2454835000000,18,47.9033594119402,-1415008161164999936,0.0,47.9033594119402,-3863.3507655992576,0.0,0,30,0.0,16431,383415910552203,797,19.100000381469727,-752.6478993158421,0.14999,28,-173499.3728014751,0.02250000089406967,1575420030,,,,0,0.0,6,6.0,19.100000381469727,0.0,0.0,-0.9131411415413081,66.7128,C,,
Raw,1730975397999,2454835000000,18,47.9033594119402,-1415008161164999936,0.0,47.9033594119402,-3863.3507655992576,0.0,0,27,0.0,47,383401922938693,487,20.16200065612793,-1474.2554931640625,0.14999,16,-192516.61672801187,0.009999999776482582,1561097980,,,,0,1.0419533718338823,5,6.0,20.16200065612793,0.0,0.0,36.155913031316594,66.7128,I,,
Raw,1730975397999,2454835000000,18,47.9033594119402,-1415008161164999936,0.0,47.9033594119402,-3863.3507655992576,0.0,0,21,0.0,47,383415915370222,487,20.799999237060547,-1289.2698311794588,0.14999,24,-186078.99714391743,0.009999999776482582,1575420030,,,,0,0.4307935571221944,6,6.0,20.799999237060547,0.0,0.0,-0.9131411415413081,66.7128,C,,
Raw,1730975397999,2454835000000,18,47.9033594119402,-1415008161164999936,0.0,47.9033594119402,-3863.3507655992576,0.0,0,19,0.0,16905,383401917675858,316,22.1200008392334,-1517.8358154296875,0.14999,16,-189273.09107578173,0.002025000052526593,1561097980,,,,0,5.295439791978379,5,6.0,22.1200008392334,0.0,0.0,36.155913031316594,66.7128,I,,
Raw,1730975397999,2454835000000,18,47.9033594119402,-1415008161164999936,0.0,47.9033594119402,-3863.3507655992576,0.0,0,37,0.0,16905,383401919389056,487,21.125,-990.5759887695312,0.14999,16,-179141.97508786945,0.009999999776482582,1561097980,,,,0,0.0,5,6.0,21.125,0.0,0.0,36.155913031316594,66.7128,I,,
Raw,1730975397999,2454835000000,18,47.9033594119402,-1415008161164999936,0.0,47.9033594119402,-3863.3507655992576,0.0,0,9,0.0,16905,383401874895914,797,15.57800006866455,-1327.8961181640625,0.14999,16,-187035.9198168196,0.02250000089406967,1561097980,,,,0,0.0,5,6.0,15.57800006866455,0.0,0.0,36.155913031316594,66.7128,I,,
Raw,1730975397999,2454835000000,18,47.9033594119402,-1415008161164999936,0.0,47.9033594119402,-3863.3507655992576,0.0,0,8,0.0,16431,383415912491211,1837,10.399999618530273,-714.7408050266804,0.14999,24,-172179.5586145185,0.02250000089406967,1575420030,,,,0,0.0,6,6.0,10.399999618530273,0.0,0.0,-0.9131411415413081,66.7128,C,,
Raw,1730975397999,2454835000000,18,47.9033594119402,-1415008161164999936,0.0,47.9033594119402,-3863.3507655992576,0.0,0,7,0.0,16905,383401878843654,797,17.190000534057617,-1133.8743896484375,0.14999,16,-182630.391014728,0.02250000089406967,1561097980,,,,0,0.0,5,6.0,17.190000534057617,0.0,0.0,36.155913031316594,66.7128,I,,
Raw,1730975397999,2454835000000,18,47.9033594119402,-1415008161164999936,0.0,47.9033594119402,-3863.3507655992576,0.0,0,10,0.0,16905,383401879246425,797,13.600000381469727,-1160.851318359375,0.14999,16,-183249.96647095843,0.02250000089406967,1561097980,,,,0,0.0,5,6.0,13.600000381469727,0.0,0.0,36.155913031316594,66.7128,I,,
Raw,1730975397999,2454835000000,18,47.9033594119402,-1415008161164999936,0.0,47.9033594119402,-3863.3507655992576,0.0,0,28,0.0,16905,383401919444260,797,18.819000244140625,-1120.963623046875,0.14999,16,-183074.15830915095,0.02250000089406967,1561097980,,,,0,0.0,5,6.0,18.819000244140625,0.0,0.0,36.155913031316594,66.7128,I,,
