# 
# Header Description:
# 
# Version: v3.1.0.3 Platform: 12 Manufacturer: Xiaomi Model: 22120RN86I GNSS Hardware Model Name: MTK_MNLD_default,MNL_VER_default
# 
# Raw,utcTimeMillis,TimeNanos,LeapSecond,TimeUncertaintyNanos,FullBiasNanos,BiasNanos,BiasUncertaintyNanos,DriftNanosPerSecond,DriftUncertaintyNanosPerSecond,HardwareClockDiscontinuityCount,Svid,TimeOffsetNanos,State,ReceivedSvTimeNanos,ReceivedSvTimeUncertaintyNanos,Cn0DbHz,PseudorangeRateMetersPerSecond,PseudorangeRateUncertaintyMetersPerSecond,AccumulatedDeltaRangeState,AccumulatedDeltaRangeMeters,AccumulatedDeltaRangeUncertaintyMeters,CarrierFrequencyHz,CarrierCycles,CarrierPhase,CarrierPhaseUncertainty,MultipathIndicator,SnrInDb,ConstellationType,AgcDb,BasebandCn0DbHz,FullInterSignalBiasNanos,FullInterSignalBiasUncertaintyNanos,SatelliteInterSignalBiasNanos,SatelliteInterSignalBiasUncertaintyNanos,CodeType,ChipsetElapsedRealtimeNanos,IsFullTracking
# 
# UncalAccel,utcTimeMillis,elapsedRealtimeNanos,UncalAccelXMps2,UncalAccelYMps2,UncalAccelZMps2,BiasXMps2,BiasYMps2,BiasZMps2
# 
# Accel,utcTimeMillis,elapsedRealtimeNanos,AccelXMps2,AccelYMps2,AccelZMps2
# 
# UncalGyro,utcTimeMillis,elapsedRealtimeNanos,UncalGyroXRadPerSec,UncalGyroYRadPerSec,UncalGyroZRadPerSec,DriftXRadPerSec,DriftYRadPerSec,DriftZRadPerSec
# 
# Gyro,utcTimeMillis,elapsedRealtimeNanos,GyroXRadPerSec,GyroYRadPerSec,GyroZRadPerSec
# 
# UncalMag,utcTimeMillis,elapsedRealtimeNanos,UncalMagXMicroT,UncalMagYMicroT,UncalMagZMicroT,BiasXMicroT,BiasYMicroT,BiasZMicroT
# 
# Mag,utcTimeMillis,elapsedRealtimeNanos,MagXMicroT,MagYMicroT,MagZMicroT
# 
# Pressure,utcTimeMillis,elapsedRealtimeNanos,PressureHpa
# 
# OrientationDeg,utcTimeMillis,elapsedRealtimeNanos,yawDeg,rollDeg,pitchDeg
# 
# Fix,Provider,LatitudeDegrees,LongitudeDegrees,AltitudeMeters,SpeedMps,AccuracyMeters,BearingDegrees,UnixTimeMillis,SpeedAccuracyMps,BearingAccuracyDegrees,elapsedRealtimeNanos,VerticalAccuracyMeters,MockLocation,NumberOfUsedSignals,VerticalSpeedAccuracyMps,SolutionType
# 
# Nav,Svid,Type,Status,MessageId,Sub-messageId,Data(Bytes)
# 
# Status,UnixTimeMillis,SignalCount,SignalIndex,ConstellationType,Svid,CarrierFrequencyHz,Cn0DbHz,AzimuthDegrees,ElevationDegrees,UsedInFix,HasAlmanacData,HasEphemerisData,BasebandCn0DbHz
# 
# Agc,utcTimeMillis,TimeNanos,LeapSecond,TimeUncertaintyNanos,FullBiasNanos,BiasNanos,BiasUncertaintyNanos,DriftNanosPerSecond,DriftUncertaintyNanosPerSecond,HardwareClockDiscontinuityCount,AgcDb,CarrierFrequencyHz,ConstellationType
# 
# 
# Header Description:
# 
# Version: v3.1.0.3 Platform: 12 Manufacturer: Xiaomi Model: 22120RN86I GNSS Hardware Model Name: MTK_MNLD_default,MNL_VER_default
# 
# Raw,utcTimeMillis,TimeNanos,LeapSecond,TimeUncertaintyNanos,FullBiasNanos,BiasNanos,BiasUncertaintyNanos,DriftNanosPerSecond,DriftUncertaintyNanosPerSecond,HardwareClockDiscontinuityCount,Svid,TimeOffsetNanos,State,ReceivedSvTimeNanos,ReceivedSvTimeUncertaintyNanos,Cn0DbHz,PseudorangeRateMetersPerSecond,PseudorangeRateUncertaintyMetersPerSecond,AccumulatedDeltaRangeState,AccumulatedDeltaRangeMeters,AccumulatedDeltaRangeUncertaintyMeters,CarrierFrequencyHz,CarrierCycles,CarrierPhase,CarrierPhaseUncertainty,MultipathIndicator,SnrInDb,ConstellationType,AgcDb,BasebandCn0DbHz,FullInterSignalBiasNanos,FullInterSignalBiasUncertaintyNanos,SatelliteInterSignalBiasNanos,SatelliteInterSignalBiasUncertaintyNanos,CodeType,ChipsetElapsedRealtimeNanos,IsFullTracking
# 
# UncalAccel,utcTimeMillis,elapsedRealtimeNanos,UncalAccelXMps2,UncalAccelYMps2,UncalAccelZMps2,BiasXMps2,BiasYMps2,BiasZMps2
# 
# Accel,utcTimeMillis,elapsedRealtimeNanos,AccelXMps2,AccelYMps2,AccelZMps2
# 
# UncalGyro,utcTimeMillis,elapsedRealtimeNanos,UncalGyroXRadPerSec,UncalGyroYRadPerSec,UncalGyroZRadPerSec,DriftXRadPerSec,DriftYRadPerSec,DriftZRadPerSec
# 
# Gyro,utcTimeMillis,elapsedRealtimeNanos,GyroXRadPerSec,GyroYRadPerSec,GyroZRadPerSec
# 
# UncalMag,utcTimeMillis,elapsedRealtimeNanos,UncalMagXMicroT,UncalMagYMicroT,UncalMagZMicroT,BiasXMicroT,BiasYMicroT,BiasZMicroT
# 
# Mag,utcTimeMillis,elapsedRealtimeNanos,MagXMicroT,MagYMicroT,MagZMicroT
# 
# Pressure,utcTimeMillis,elapsedRealtimeNanos,PressureHpa
# 
# OrientationDeg,utcTimeMillis,elapsedRealtimeNanos,yawDeg,rollDeg,pitchDeg
# 
# Fix,Provider,LatitudeDegrees,LongitudeDegrees,AltitudeMeters,SpeedMps,AccuracyMeters,BearingDegrees,UnixTimeMillis,SpeedAccuracyMps,BearingAccuracyDegrees,elapsedRealtimeNanos,VerticalAccuracyMeters,MockLocation,NumberOfUsedSignals,VerticalSpeedAccuracyMps,SolutionType
# 
# Nav,Svid,Type,Status,MessageId,Sub-messageId,Data(Bytes)
# 
# Status,UnixTimeMillis,SignalCount,SignalIndex,ConstellationType,Svid,CarrierFrequencyHz,Cn0DbHz,AzimuthDegrees,ElevationDegrees,UsedInFix,HasAlmanacData,HasEphemerisData,BasebandCn0DbHz
# 
# Agc,utcTimeMillis,TimeNanos,LeapSecond,TimeUncertaintyNanos,FullBiasNanos,BiasNanos,BiasUncertaintyNanos,DriftNanosPerSecond,DriftUncertaintyNanosPerSecond,HardwareClockDiscontinuityCount,AgcDb,CarrierFrequencyHz,ConstellationType
# 
Raw,1730969154000,495645000000,18,174.8786090389903,-1415003876355000064,0.0,174.8786090389903,-3122.5935341788913,0.0,0,7,0.0,16431,377171920298904,1837,13.899999618530273,-1036.7478973720506,0.14999,16,0.0,0.0,1575420030,,,,0,0.0,1,6.0,13.899999618530273,0.0,0.0,0.0,66.7128,C,,
Raw,1730969154000,495645000000,18,174.8786090389903,-1415003876355000064,0.0,174.8786090389903,-3122.5935341788913,0.0,0,16,0.0,16431,377171926484247,487,20.538000106811523,-335.31083149458755,0.14999,16,0.0,0.0,1575420030,,,,0,1.5041895693555656,1,6.0,20.538000106811523,0.0,0.0,0.0,66.7128,C,,
Raw,1730969154000,495645000000,18,174.8786090389903,-1415003876355000064,0.0,174.8786090389903,-3122.5935341788913,0.0,0,8,0.0,16431,377171928578420,487,22.375999450683594,-1325.89430151388,0.14999,16,0.0,0.0,1575420030,,,,0,1.1278466763578752,1,6.0,22.375999450683594,0.0,0.0,0.0,66.7128,C,,
Raw,1730969154000,495645000000,18,174.8786090389903,-1415003876355000064,0.0,174.8786090389903,-3122.5935341788913,0.0,0,9,0.0,17,180696,487,18.399999618530273,-976.715087890625,0.14999,16,0.0,0.0,1561097980,,,,0,0.0,5,6.0,18.399999618530273,0.0,0.0,159.97267621611087,66.7128,I,,
Raw,1730969154000,495645000000,18,174.8786090389903,-1415003876355000064,0.0,174.8786090389903,-3122.5935341788913,0.0,0,13,0.0,17,620548,396,25.209999084472656,-629.704345703125,0.14999,16,0.0,0.0,1561097980,,,,0,4.190300290852619,5,6.0,25.209999084472656,0.0,0.0,159.97267621611087,66.7128,I,,
Raw,1730969154000,495645000000,18,174.8786090389903,-1415003876355000064,0.0,174.8786090389903,-3122.5935341788913,0.0,0,10,0.0,17,237622,797,15.600000381469727,-1083.71875,0.14999,16,0.0,0.0,1561097980,,,,0,0.0,5,6.0,15.600000381469727,0.0,0.0,159.97267621611087,66.7128,I,,
Raw,1730969154000,495645000000,18,174.8786090389903,-1415003876355000064,0.0,174.8786090389903,-3122.5935341788913,0.0,0,32,0.0,16905,377157927429199,396,22.836999893188477,-827.8958129882812,0.14999,16,0.0,0.0,1561097980,,,,0,1.3637172349232323,5,6.0,22.836999893188477,0.0,0.0,159.97267621611087,66.7128,I,,
Raw,1730969154000,495645000000,18,174.8786090389903,-1415003876355000064,0.0,174.8786090389903,-3122.5935341788913,0.0,0,7,0.0,16431,377171919166767,487,11.406000137329102,-1227.3860128682004,0.14999,16,0.0,0.0,1575420030,,,,0,0.0,6,6.0,11.406000137329102,0.0,0.0,8.479048345890373,66.7128,C,,
Raw,1730969154000,495645000000,18,174.8786090389903,-1415003876355000064,0.0,174.8786090389903,-3122.5935341788913,0.0,0,11,0.0,32995,42353928161132,487,19.0,-1151.9080311180385,0.14999,16,0.0,0.0,1602000000,,,,0,0.0,3,6.0,19.0,0.0,0.0,91.37261750906404,66.7128,C,,
Raw,1730969154000,495645000000,18,174.8786090389903,-1415003876355000064,0.0,174.8786090389903,-3122.5935341788913,0.0,0,7,0.0,32995,42353936014869,487,19.0,-1147.868578074789,0.14999,16,0.0,0.0,1604812540,,,,0,0.0,3,6.0,19.0,0.0,0.0,91.37261750906404,66.7128,C,,
Raw,1730969154000,495645000000,18,174.8786090389903,-1415003876355000064,0.0,174.8786090389903,-3122.5935341788913,0.0,0,9,0.0,32995,42353925925490,1797,13.0,-363.61546175390623,0.14999,16,0.0,0.0,1600875010,,,,0,0.0,3,6.0,13.0,0.0,0.0,91.37261750906404,66.7128,C,,
Raw,1730969154000,495645000000,18,174.8786090389903,-1415003876355000064,0.0,174.8786090389903,-3122.5935341788913,0.0,0,3,0.0,16431,377171930049606,1837,17.525999069213867,-564.0276586693808,0.14999,16,0.0,0.0,1575420030,,,,0,0.0,1,6.0,17.525999069213867,0.0,0.0,0.0,66.7128,C,,
Raw,1730969154000,495645000000,18,174.8786090389903,-1415003876355000064,0.0,174.8786090389903,-3122.5935341788913,0.0,0,4,0.0,16431,377171930494407,487,18.645000457763672,-1276.4625466658674,0.14999,16,0.0,0.0,1575420030,,,,0,0.0,1,6.0,18.645000457763672,0.0,0.0,0.0,66.7128,C,,
Raw,1730969155000,496645000000,18,171.8114669263023,-1415003876355000064,0.0,171.8114669263023,-3129.9202039356715,0.0,0,7,0.0,16431,377172920302344,1797,13.899999618530273,-1026.8440780379528,0.14999,16,0.0,0.0,1575420030,,,,0,0.0,1,6.0,13.899999618530273,0.0,0.0,0.0,66.7128,C,,
Raw,1730969155000,496645000000,18,171.8114669263023,-1415003876355000064,0.0,171.8114669263023,-3129.9202039356715,0.0,0,27,0.0,16431,377172927234912,396,22.92099952697754,-1036.193462632994,0.14999,16,0.0,0.0,1575420030,,,,0,1.981884625358354,1,6.0,22.92099952697754,0.0,0.0,0.0,66.7128,C,,
Raw,1730969155000,496645000000,18,171.8114669263023,-1415003876355000064,0.0,171.8114669263023,-3129.9202039356715,0.0,0,16,0.0,16431,377172926485364,797,20.450000762939453,-338.7554907645179,0.14999,16,0.0,0.0,1575420030,,,,0,0.0,1,6.0,20.450000762939453,0.0,0.0,0.0,66.7128,C,,
Raw,1730969155000,496645000000,18,171.8114669263023,-1415003876355000064,0.0,171.8114669263023,-3129.9202039356715,0.0,0,8,0.0,16431,377172928582857,487,20.95800018310547,-1329.6347615198229,0.14999,16,0.0,0.0,1575420030,,,,0,0.0,1,6.0,20.95800018310547,0.0,0.0,0.0,66.7128,C,,
Raw,1730969155000,496645000000,18,171.8114669263023,-1415003876355000064,0.0,171.8114669263023,-3129.9202039356715,0.0,0,8,0.0,16431,377172917623037,1797,15.699999809265137,-860.18538115204,0.14999,16,0.0,0.0,1575420030,,,,0,0.0,6,6.0,15.699999809265137,0.0,0.0,7.7621867202744665,66.7128,C,,
Raw,1730969155000,496645000000,18,171.8114669263023,-1415003876355000064,0.0,171.8114669263023,-3129.9202039356715,0.0,0,9,0.0,17,183962,487,18.434999465942383,-980.3536987304688,0.14999,16,0.0,0.0,1561097980,,,,0,0.0,5,6.0,18.434999465942383,0.0,0.0,159.97267621611087,66.7128,I,,
Raw,1730969155000,496645000000,18,171.8114669263023,-1415003876355000064,0.0,171.8114669263023,-3129.9202039356715,0.0,0,13,0.0,17,622651,396,21.5,-632.8268432617188,0.14999,16,0.0,0.0,1561097980,,,,0,1.4376401461225072,5,6.0,21.5,0.0,0.0,159.97267621611087,66.7128,I,,
Raw,1730969155000,496645000000,18,171.8114669263023,-1415003876355000064,0.0,171.8114669263023,-3129.9202039356715,0.0,0,10,0.0,17,241240,1797,15.600000381469727,-1087.1060791015625,0.14999,16,0.0,0.0,1561097980,,,,0,0.0,5,6.0,15.600000381469727,0.0,0.0,159.97267621611087,66.7128,I,,
Raw,1730969155000,496645000000,18,171.8114669263023,-1415003876355000064,0.0,171.8114669263023,-3129.9202039356715,0.0,0,32,0.0,16905,377158927431965,487,19.5,-829.1766357421875,0.14999,16,0.0,0.0,1561097980,,,,0,0.0,5,6.0,19.5,0.0,0.0,159.97267621611087,66.7128,I,,
Raw,1730969155000,496645000000,18,171.8114669263023,-1415003876355000064,0.0,171.8114669263023,-3129.9202039356715,0.0,0,7,0.0,16431,377172919171000,487,16.899999618530273,-1230.9415683776253,0.14999,16,0.0,0.0,1575420030,,,,0,0.0,6,6.0,16.899999618530273,0.0,0.0,7.7621867202744665,66.7128,C,,
Raw,1730969155000,496645000000,18,171.8114669263023,-1415003876355000064,0.0,171.8114669263023,-3129.9202039356715,0.0,0,11,0.0,32995,42354928164969,797,16.0,-1152.4310626404006,0.14999,16,0.0,0.0,1602000000,,,,0,0.0,3,6.0,16.0,0.0,0.0,93.34455789782041,66.7128,C,,
Raw,1730969155000,496645000000,18,171.8114669263023,-1415003876355000064,0.0,171.8114669263023,-3129.9202039356715,0.0,0,7,0.0,32995,42354936018707,487,18.0,-1152.8101528584446,0.14999,16,0.0,0.0,1604812540,,,,0,0.0,3,6.0,18.0,0.0,0.0,93.34455789782041,66.7128,C,,
Raw,1730969155000,496645000000,18,171.8114669263023,-1415003876355000064,0.0,171.8114669263023,-3129.9202039356715,0.0,0,9,0.0,32995,42354925926701,1797,14.0,-365.7472340115043,0.14999,16,0.0,0.0,1600875010,,,,0,0.0,3,6.0,14.0,0.0,0.0,93.34455789782041,66.7128,C,,
Raw,1730969155000,496645000000,18,171.8114669263023,-1415003876355000064,0.0,171.8114669263023,-3129.9202039356715,0.0,0,3,0.0,16431,377172930051498,1797,17.441999435424805,-570.7518175396131,0.14999,16,0.0,0.0,1575420030,,,,0,0.0,1,6.0,17.441999435424805,0.0,0.0,0.0,66.7128,C,,
Raw,1730969155000,496645000000,18,171.8114669263023,-1415003876355000064,0.0,171.8114669263023,-3129.9202039356715,0.0,0,4,0.0,16431,377172930498672,487,18.757999420166016,-1278.7736670386769,0.14999,16,0.0,0.0,1575420030,,,,0,0.0,1,6.0,18.757999420166016,0.0,0.0,0.0,66.7128,C,,
Raw,1730969156000,497645000000,18,187.29105296369573,-1415003876355000064,0.0,187.29105296369573,-3135.188333863643,0.0,0,27,0.0,16431,377173927238433,396,22.851999282836914,-1037.5638929943725,0.14999,16,0.0,0.0,1575420030,,,,0,1.864901178433021,1,6.0,22.851999282836914,0.0,0.0,0.0,66.7128,C,,
Raw,1730969156000,497645000000,18,187.29105296369573,-1415003876355000064,0.0,187.29105296369573,-3135.188333863643,0.0,0,16,0.0,16431,377173926486498,797,20.365999221801758,-342.5636406828795,0.14999,16,0.0,0.0,1575420030,,,,0,0.0,1,6.0,20.365999221801758,0.0,0.0,0.0,66.7128,C,,
Raw,1730969156000,497645000000,18,187.29105296369573,-1415003876355000064,0.0,187.29105296369573,-3135.188333863643,0.0,0,8,0.0,16431,377173928587301,396,23.298999786376953,-1330.3847861911258,0.14999,16,0.0,0.0,1575420030,,,,0,2.5442745200133827,1,6.0,23.298999786376953,0.0,0.0,0.0,66.7128,C,,
Raw,1730969156000,497645000000,18,187.29105296369573,-1415003876355000064,0.0,187.29105296369573,-3135.188333863643,0.0,0,8,0.0,16431,377173917625910,797,15.699999809265137,-861.8080807134417,0.14999,16,0.0,0.0,1575420030,,,,0,0.0,6,6.0,15.699999809265137,0.0,0.0,6.542887281082055,66.7128,C,,
Raw,1730969156000,497645000000,18,187.29105296369573,-1415003876355000064,0.0,187.29105296369573,-3135.188333863643,0.0,0,9,0.0,17,187235,396,18.523000717163086,-981.8548583984375,0.14999,16,0.0,0.0,1561097980,,,,0,0.0,5,6.0,18.523000717163086,0.0,0.0,159.97267621611087,66.7128,I,,
Raw,1730969156000,497645000000,18,187.29105296369573,-1415003876355000064,0.0,187.29105296369573,-3135.188333863643,0.0,0,13,0.0,17,624765,487,21.3799991607666,-633.7594604492188,0.14999,16,0.0,0.0,1561097980,,,,0,0.0,5,6.0,21.3799991607666,0.0,0.0,159.97267621611087,66.7128,I,,
Raw,1730969156000,497645000000,18,187.29105296369573,-1415003876355000064,0.0,187.29105296369573,-3135.188333863643,0.0,0,10,0.0,17,244873,797,12.600000381469727,-1087.90673828125,0.14999,16,0.0,0.0,1561097980,,,,0,0.0,5,6.0,12.600000381469727,0.0,0.0,159.97267621611087,66.7128,I,,
Raw,1730969156000,497645000000,18,187.29105296369573,-1415003876355000064,0.0,187.29105296369573,-3135.188333863643,0.0,0,32,0.0,16905,377159927434734,797,19.424999237060547,-830.4370727539062,0.14999,16,0.0,0.0,1561097980,,,,0,0.0,5,6.0,19.424999237060547,0.0,0.0,159.97267621611087,66.7128,I,,
Raw,1730969156000,497645000000,18,187.29105296369573,-1415003876355000064,0.0,187.29105296369573,-3135.188333863643,0.0,0,7,0.0,16431,377173919175107,487,16.899999618530273,-1231.9853960730436,0.14999,16,0.0,0.0,1575420030,,,,0,0.0,6,6.0,16.899999618530273,0.0,0.0,6.542887281082055,66.7128,C,,
Raw,1730969156000,497645000000,18,187.29105296369573,-1415003876355000064,0.0,187.29105296369573,-3135.188333863643,0.0,0,11,0.0,32995,42355928168818,797,16.0,-1155.5585608786764,0.14999,16,0.0,0.0,1602000000,,,,0,0.0,3,6.0,16.0,0.0,0.0,94.39323404374093,66.7128,C,,
Raw,1730969156000,497645000000,18,187.29105296369573,-1415003876355000064,0.0,187.29105296369573,-3135.188333863643,0.0,0,7,0.0,32995,42355936022577,487,18.0,-1151.9130529415595,0.14999,16,0.0,0.0,1604812540,,,,0,0.0,3,6.0,18.0,0.0,0.0,94.39323404374093,66.7128,C,,
Raw,1730969156000,497645000000,18,187.29105296369573,-1415003876355000064,0.0,187.29105296369573,-3135.188333863643,0.0,0,4,0.0,16431,377173930502941,487,18.864999771118164,-1280.848871573969,0.14999,16,0.0,0.0,1575420030,,,,0,0.0,1,6.0,18.864999771118164,0.0,0.0,0.0,66.7128,C,,
Raw,1730969157000,498645000000,18,187.8273126235785,-1415003876355000064,0.0,187.8273126235785,-3139.218244415993,0.0,0,27,0.0,16431,377174927241908,396,22.523000717163086,-1038.3519206501355,0.14999,16,0.0,0.0,1575420030,,,,0,1.3805449243417123,1,6.0,22.523000717163086,0.0,0.0,0.0,66.7128,C,,
Raw,1730969157000,498645000000,18,187.8273126235785,-1415003876355000064,0.0,187.8273126235785,-3139.218244415993,0.0,0,16,0.0,16431,377174926487642,797,20.285999298095703,-341.4685693543809,0.14999,16,0.0,0.0,1575420030,,,,0,0.0,1,6.0,20.285999298095703,0.0,0.0,0.0,66.7128,C,,
Raw,1730969157000,498645000000,18,187.8273126235785,-1415003876355000064,0.0,187.8273126235785,-3139.218244415993,0.0,0,8,0.0,16431,377174928591776,396,23.231000900268555,-1332.4335094291782,0.14999,16,0.0,0.0,1575420030,,,,0,0.46193528849052395,1,6.0,23.231000900268555,0.0,0.0,0.0,66.7128,C,,
Raw,1730969157000,498645000000,18,187.8273126235785,-1415003876355000064,0.0,187.8273126235785,-3139.218244415993,0.0,0,8,0.0,16431,377174917628788,797,15.699999809265137,-863.4512219779759,0.14999,16,0.0,0.0,1575420030,,,,0,0.0,6,6.0,15.699999809265137,0.0,0.0,6.004738644318119,66.7128,C,,
Raw,1730969157000,498645000000,18,187.8273126235785,-1415003876355000064,0.0,187.8273126235785,-3139.218244415993,0.0,0,9,0.0,17,190512,487,18.555999755859375,-983.3773803710938,0.14999,16,0.0,0.0,1561097980,,,,0,0.0,5,6.0,18.555999755859375,0.0,0.0,159.97267621611087,66.7128,I,,
Raw,1730969157000,498645000000,18,187.8273126235785,-1415003876355000064,0.0,187.8273126235785,-3139.218244415993,0.0,0,13,0.0,17,626879,487,21.270999908447266,-634.39111328125,0.14999,16,0.0,0.0,1561097980,,,,0,0.0,5,6.0,21.270999908447266,0.0,0.0,159.97267621611087,66.7128,I,,
Raw,1730969157000,498645000000,18,187.8273126235785,-1415003876355000064,0.0,187.8273126235785,-3139.218244415993,0.0,0,10,0.0,17,248506,797,12.600000381469727,-1088.677978515625,0.14999,16,0.0,0.0,1561097980,,,,0,0.0,5,6.0,12.600000381469727,0.0,0.0,159.97267621611087,66.7128,I,,
Raw,1730969157000,498645000000,18,187.8273126235785,-1415003876355000064,0.0,187.8273126235785,-3139.218244415993,0.0,0,32,0.0,16905,377160927437509,797,15.199999809265137,-832.3169555664062,0.14999,16,0.0,0.0,1561097980,,,,0,0.0,5,6.0,15.199999809265137,0.0,0.0,159.97267621611087,66.7128,I,,
Raw,1730969157000,498645000000,18,187.8273126235785,-1415003876355000064,0.0,187.8273126235785,-3139.218244415993,0.0,0,27,0.0,17,241676,797,13.199999809265137,-1227.498779296875,0.14999,16,0.0,0.0,1561097980,,,,0,0.0,5,6.0,13.199999809265137,0.0,0.0,159.97267621611087,66.7128,I,,
Raw,1730969157000,498645000000,18,187.8273126235785,-1415003876355000064,0.0,187.8273126235785,-3139.218244415993,0.0,0,7,0.0,16431,377174919179204,487,16.940000534057617,-1234.0836439827765,0.14999,16,0.0,0.0,1575420030,,,,0,0.0,6,6.0,16.940000534057617,0.0,0.0,6.004738644318119,66.7128,C,,
Raw,1730969157000,498645000000,18,187.8273126235785,-1415003876355000064,0.0,187.8273126235785,-3139.218244415993,0.0,0,11,0.0,32995,42356928172648,1797,14.0,-1154.4884661619776,0.14999,16,0.0,0.0,1602000000,,,,0,0.0,3,6.0,14.0,0.0,0.0,95.75628327278267,66.7128,C,,
Raw,1730969157000,498645000000,18,187.8273126235785,-1415003876355000064,0.0,187.8273126235785,-3139.218244415993,0.0,0,7,0.0,32995,42356936026424,487,18.0,-1154.161321243683,0.14999,16,0.0,0.0,1604812540,,,,0,0.0,3,6.0,18.0,0.0,0.0,95.75628327278267,66.7128,C,,
Raw,1730969157000,498645000000,18,187.8273126235785,-1415003876355000064,0.0,187.8273126235785,-3139.218244415993,0.0,0,4,0.0,16431,377174930507220,487,18.937999725341797,-1280.9310100538294,0.14999,16,0.0,0.0,1575420030,,,,0,0.0,1,6.0,18.937999725341797,0.0,0.0,0.0,66.7128,C,,
Raw,1730969158000,499645000000,18,188.99492183605247,-1415003876355000064,0.0,188.99492183605247,-3139.654776645757,0.0,0,27,0.0,16431,377175927245357,396,23.461000442504883,-1039.5812103430665,0.14999,16,0.0,0.0,1575420030,,,,0,2.812378817869247,1,6.0,23.461000442504883,0.0,0.0,0.0,66.7128,C,,
Raw,1730969158000,499645000000,18,188.99492183605247,-1415003876355000064,0.0,188.99492183605247,-3139.654776645757,0.0,0,16,0.0,16431,377175926488760,797,14.199999809265137,-340.80021857877614,0.14999,16,0.0,0.0,1575420030,,,,0,0.0,1,6.0,14.199999809265137,0.0,0.0,0.0,66.7128,C,,
Raw,1730969158000,499645000000,18,188.99492183605247,-1415003876355000064,0.0,188.99492183605247,-3139.654776645757,0.0,0,8,0.0,16431,377175928596202,396,23.198999404907227,-1331.2420368870428,0.14999,16,0.0,0.0,1575420030,,,,0,1.5041895693555656,1,6.0,23.198999404907227,0.0,0.0,0.0,66.7128,C,,
Raw,1730969158000,499645000000,18,188.99492183605247,-1415003876355000064,0.0,188.99492183605247,-3139.654776645757,0.0,0,8,0.0,16431,377175917631669,487,15.699999809265137,-863.8006821847116,0.14999,16,0.0,0.0,1575420030,,,,0,0.0,6,6.0,15.699999809265137,0.0,0.0,5.254802586620211,66.7128,C,,
Raw,1730969158000,499645000000,18,188.99492183605247,-1415003876355000064,0.0,188.99492183605247,-3139.654776645757,0.0,0,9,0.0,17,193787,487,18.558000564575195,-980.9511108398438,0.14999,16,0.0,0.0,1561097980,,,,0,0.0,5,6.0,18.558000564575195,0.0,0.0,159.97267621611087,66.7128,I,,
Raw,1730969158000,499645000000,18,188.99492183605247,-1415003876355000064,0.0,188.99492183605247,-3139.654776645757,0.0,0,13,0.0,17,628995,487,21.152000427246094,-634.2012939453125,0.14999,16,0.0,0.0,1561097980,,,,0,0.0,5,6.0,21.152000427246094,0.0,0.0,159.97267621611087,66.7128,I,,
Raw,1730969158000,499645000000,18,188.99492183605247,-1415003876355000064,0.0,188.99492183605247,-3139.654776645757,0.0,0,10,0.0,17,252142,1797,12.609999656677246,-1091.41455078125,0.14999,16,0.0,0.0,1561097980,,,,0,0.0,5,6.0,12.609999656677246,0.0,0.0,159.97267621611087,66.7128,I,,
Raw,1730969158000,499645000000,18,188.99492183605247,-1415003876355000064,0.0,188.99492183605247,-3139.654776645757,0.0,0,32,0.0,16905,377161927440284,797,15.1850004196167,-833.0782470703125,0.14999,16,0.0,0.0,1561097980,,,,0,0.0,5,6.0,15.1850004196167,0.0,0.0,159.97267621611087,66.7128,I,,
Raw,1730969158000,499645000000,18,188.99492183605247,-1415003876355000064,0.0,188.99492183605247,-3139.654776645757,0.0,0,27,0.0,17,245770,797,13.199999809265137,-1227.314208984375,0.14999,16,0.0,0.0,1561097980,,,,0,0.0,5,6.0,13.199999809265137,0.0,0.0,159.97267621611087,66.7128,I,,
Raw,1730969158000,499645000000,18,188.99492183605247,-1415003876355000064,0.0,188.99492183605247,-3139.654776645757,0.0,0,7,0.0,16431,377175919183312,487,16.947999954223633,-1231.3758616523614,0.14999,16,0.0,0.0,1575420030,,,,0,0.0,6,6.0,16.947999954223633,0.0,0.0,5.254802586620211,66.7128,C,,
Raw,1730969158000,499645000000,18,188.99492183605247,-1415003876355000064,0.0,188.99492183605247,-3139.654776645757,0.0,0,11,0.0,32995,42357928176498,1797,13.0,-1154.8258233214049,0.14999,16,0.0,0.0,1602000000,,,,0,0.0,3,6.0,13.0,0.0,0.0,97.98361314887487,66.7128,C,,
Raw,1730969158000,499645000000,18,188.99492183605247,-1415003876355000064,0.0,188.99492183605247,-3139.654776645757,0.0,0,7,0.0,32995,42357936030244,487,19.0,-1153.7688229272258,0.14999,16,0.0,0.0,1604812540,,,,0,0.0,3,6.0,19.0,0.0,0.0,97.98361314887487,66.7128,C,,
Raw,1730969158000,499645000000,18,188.99492183605247,-1415003876355000064,0.0,188.99492183605247,-3139.654776645757,0.0,0,4,0.0,16431,377175930511496,487,19.006999969482422,-1282.335912560036,0.14999,16,0.0,0.0,1575420030,,,,0,0.0,1,6.0,19.006999969482422,0.0,0.0,0.0,66.7128,C,,
Raw,1730969159000,500645000000,18,188.6350613709532,-1415003876355000064,0.0,188.6350613709532,-3143.455212672659,0.0,0,27,0.0,16431,377176927248818,396,21.94700050354004,-1039.3457590897115,0.14999,16,0.0,0.0,1575420030,,,,0,0.46193528849052395,1,6.0,21.94700050354004,0.0,0.0,0.0,66.7128,C,,
Raw,1730969159000,500645000000,18,188.6350613709532,-1415003876355000064,0.0,188.6350613709532,-3143.455212672659,0.0,0,16,0.0,16431,377176926489895,797,14.199999809265137,-341.01253354085827,0.14999,16,0.0,0.0,1575420030,,,,0,0.0,1,6.0,14.199999809265137,0.0,0.0,0.0,66.7128,C,,
Raw,1730969159000,500645000000,18,188.6350613709532,-1415003876355000064,0.0,188.6350613709532,-3143.455212672659,0.0,0,8,0.0,16431,377176928600646,396,23.167999267578125,-1334.1400199734237,0.14999,16,0.0,0.0,1575420030,,,,0,1.5041895693555656,1,6.0,23.167999267578125,0.0,0.0,0.0,66.7128,C,,
Raw,1730969159000,500645000000,18,188.6350613709532,-1415003876355000064,0.0,188.6350613709532,-3143.455212672659,0.0,0,8,0.0,16431,377176917634649,487,17.100000381469727,-865.5802253592401,0.14999,16,0.0,0.0,1575420030,,,,0,0.0,6,6.0,17.100000381469727,0.0,0.0,3.253342255817482,66.7128,C,,
Raw,1730969159000,500645000000,18,188.6350613709532,-1415003876355000064,0.0,188.6350613709532,-3143.455212672659,0.0,0,9,0.0,17,197066,487,18.540000915527344,-985.0234375,0.14999,16,0.0,0.0,1561097980,,,,0,0.0,5,6.0,18.540000915527344,0.0,0.0,159.97267621611087,66.7128,I,,
Raw,1730969159000,500645000000,18,188.6350613709532,-1415003876355000064,0.0,188.6350613709532,-3143.455212672659,0.0,0,13,0.0,17,631111,487,21.07900047302246,-634.4280395507812,0.14999,16,0.0,0.0,1561097980,,,,0,0.0,5,6.0,21.07900047302246,0.0,0.0,159.97267621611087,66.7128,I,,
Raw,1730969159000,500645000000,18,188.6350613709532,-1415003876355000064,0.0,188.6350613709532,-3143.455212672659,0.0,0,10,0.0,17,255783,797,12.619000434875488,-1089.101318359375,0.14999,16,0.0,0.0,1561097980,,,,0,0.0,5,6.0,12.619000434875488,0.0,0.0,159.97267621611087,66.7128,I,,
Raw,1730969159000,500645000000,18,188.6350613709532,-1415003876355000064,0.0,188.6350613709532,-3143.455212672659,0.0,0,32,0.0,16905,377162927443065,797,15.194999694824219,-834.6947631835938,0.14999,16,0.0,0.0,1561097980,,,,0,0.0,5,6.0,15.194999694824219,0.0,0.0,159.97267621611087,66.7128,I,,
Raw,1730969159000,500645000000,18,188.6350613709532,-1415003876355000064,0.0,188.6350613709532,-3143.455212672659,0.0,0,27,0.0,17,249866,797,13.199999809265137,-1228.6312255859375,0.14999,16,0.0,0.0,1561097980,,,,0,0.0,5,6.0,13.199999809265137,0.0,0.0,159.97267621611087,66.7128,I,,
Raw,1730969159000,500645000000,18,188.6350613709532,-1415003876355000064,0.0,188.6350613709532,-3143.455212672659,0.0,0,7,0.0,16431,377176919187425,487,16.979999542236328,-1234.678683377601,0.14999,16,0.0,0.0,1575420030,,,,0,0.0,6,6.0,16.979999542236328,0.0,0.0,3.253342255817482,66.7128,C,,
Raw,1730969159000,500645000000,18,188.6350613709532,-1415003876355000064,0.0,188.6350613709532,-3143.455212672659,0.0,0,11,0.0,32995,42358928180359,1797,13.0,-1158.2819980771399,0.14999,16,0.0,0.0,1602000000,,,,0,0.0,3,6.0,13.0,0.0,0.0,100.80218718970528,66.7128,C,,
Raw,1730969159000,500645000000,18,188.6350613709532,-1415003876355000064,0.0,188.6350613709532,-3143.455212672659,0.0,0,7,0.0,32995,42358936034087,487,19.0,-1154.5618464836466,0.14999,16,0.0,0.0,1604812540,,,,0,0.0,3,6.0,19.0,0.0,0.0,100.80218718970528,66.7128,C,,
Raw,1730969159000,500645000000,18,188.6350613709532,-1415003876355000064,0.0,188.6350613709532,-3143.455212672659,0.0,0,4,0.0,16431,377176930515775,487,19.007999420166016,-1282.263065763418,0.14999,16,0.0,0.0,1575420030,,,,0,0.0,1,6.0,19.007999420166016,0.0,0.0,0.0,66.7128,C,,
Raw,1730969160000,501645000000,18,188.68476311334837,-1415003876355000064,0.0,188.68476311334837,-3146.6635481309636,0.0,0,27,0.0,16431,377177927252291,396,22.04599952697754,-1039.820749937048,0.14999,16,0.0,0.0,1575420030,,,,0,3.5218251811136247,1,6.0,22.04599952697754,0.0,0.0,0.0,66.7128,C,,
Raw,1730969160000,501645000000,18,188.68476311334837,-1415003876355000064,0.0,188.68476311334837,-3146.6635481309636,0.0,0,16,0.0,16431,377177926491030,797,14.317999839782715,-343.11384770606094,0.14999,16,0.0,0.0,1575420030,,,,0,0.0,1,6.0,14.317999839782715,0.0,0.0,0.0,66.7128,C,,
Raw,1730969160000,501645000000,18,188.68476311334837,-1415003876355000064,0.0,188.68476311334837,-3146.6635481309636,0.0,0,8,0.0,16431,377177928605096,396,23.191999435424805,-1334.2022742511458,0.14999,16,0.0,0.0,1575420030,,,,0,3.123548438719715,1,6.0,23.191999435424805,0.0,0.0,0.0,66.7128,C,,
Raw,1730969160000,501645000000,18,188.68476311334837,-1415003876355000064,0.0,188.68476311334837,-3146.6635481309636,0.0,0,8,0.0,16431,377177917637534,487,17.100000381469727,-865.7126318454401,0.14999,16,0.0,0.0,1575420030,,,,0,0.0,6,6.0,17.100000381469727,0.0,0.0,1.2425387321287176,66.7128,C,,
Raw,1730969160000,501645000000,18,188.68476311334837,-1415003876355000064,0.0,188.68476311334837,-3146.6635481309636,0.0,0,9,0.0,17,200353,797,18.49799919128418,-984.8657836914062,0.14999,16,0.0,0.0,1561097980,,,,0,0.0,5,6.0,18.49799919128418,0.0,0.0,159.97267621611087,66.7128,I,,
Raw,1730969160000,501645000000,18,188.68476311334837,-1415003876355000064,0.0,188.68476311334837,-3146.6635481309636,0.0,0,13,0.0,17,633234,396,21.135000228881836,-636.8432006835938,0.14999,16,0.0,0.0,1561097980,,,,0,2.411478624116998,5,6.0,21.135000228881836,0.0,0.0,159.97267621611087,66.7128,I,,
Raw,1730969160000,501645000000,18,188.68476311334837,-1415003876355000064,0.0,188.68476311334837,-3146.6635481309636,0.0,0,10,0.0,17,259426,797,12.628000259399414,-1092.7425537109375,0.14999,16,0.0,0.0,1561097980,,,,0,0.0,5,6.0,12.628000259399414,0.0,0.0,159.97267621611087,66.7128,I,,
Raw,1730969160000,501645000000,18,188.68476311334837,-1415003876355000064,0.0,188.68476311334837,-3146.6635481309636,0.0,0,32,0.0,16905,377163927445856,1797,15.204999923706055,-837.3961791992188,0.14999,16,0.0,0.0,1561097980,,,,0,0.0,5,6.0,15.204999923706055,0.0,0.0,159.97267621611087,66.7128,I,,
Raw,1730969160000,501645000000,18,188.68476311334837,-1415003876355000064,0.0,188.68476311334837,-3146.6635481309636,0.0,0,27,0.0,17,253983,797,14.899999618530273,-1228.836669921875,0.14999,16,0.0,0.0,1561097980,,,,0,0.0,5,6.0,14.899999618530273,0.0,0.0,159.97267621611087,66.7128,I,,
Raw,1730969160000,501645000000,18,188.68476311334837,-1415003876355000064,0.0,188.68476311334837,-3146.6635481309636,0.0,0,7,0.0,16431,377177919191534,487,17.04599952697754,-1234.0230622080378,0.14999,16,0.0,0.0,1575420030,,,,0,0.0,6,6.0,17.04599952697754,0.0,0.0,1.2425387321287176,66.7128,C,,
Raw,1730969160000,501645000000,18,188.68476311334837,-1415003876355000064,0.0,188.68476311334837,-3146.6635481309636,0.0,0,7,0.0,32995,42359936037954,487,20.0,-1155.2308175858768,0.14999,16,0.0,0.0,1604812540,,,,0,0.0,3,6.0,20.0,0.0,0.0,101.81533120283419,66.7128,C,,
Raw,1730969160000,501645000000,18,188.68476311334837,-1415003876355000064,0.0,188.68476311334837,-3146.6635481309636,0.0,0,4,0.0,16431,377177930520055,487,18.94300079345703,-1283.834661066988,0.14999,16,0.0,0.0,1575420030,,,,0,0.0,1,6.0,18.94300079345703,0.0,0.0,0.0,66.7128,C,,
Raw,1730969161000,502645000000,18,188.76973706002397,-1415003876355000064,0.0,188.76973706002397,-3147.6250513718346,0.0,0,27,0.0,16431,377178927255760,487,21.98200035095215,-1040.695933581622,0.14999,16,0.0,0.0,1575420030,,,,0,0.0,1,6.0,21.98200035095215,0.0,0.0,0.0,66.7128,C,,
Raw,1730969161000,502645000000,18,188.76973706002397,-1415003876355000064,0.0,188.76973706002397,-3147.6250513718346,0.0,0,16,0.0,16431,377178926492176,797,14.430999755859375,-343.8582509090024,0.14999,16,0.0,0.0,1575420030,,,,0,0.0,1,6.0,14.430999755859375,0.0,0.0,0.0,66.7128,C,,
Raw,1730969161000,502645000000,18,188.76973706002397,-1415003876355000064,0.0,188.76973706002397,-3147.6250513718346,0.0,0,8,0.0,16431,377178928609541,396,23.183000564575195,-1334.2120305185501,0.14999,16,0.0,0.0,1575420030,,,,0,2.1544576458054783,1,6.0,23.183000564575195,0.0,0.0,0.0,66.7128,C,,
Raw,1730969161000,502645000000,18,188.76973706002397,-1415003876355000064,0.0,188.76973706002397,-3147.6250513718346,0.0,0,8,0.0,16431,377178917640414,487,17.15999984741211,-866.9240815065461,0.14999,16,0.0,0.0,1575420030,,,,0,0.0,6,6.0,17.15999984741211,0.0,0.0,-0.2792046658299128,66.7128,C,,
Raw,1730969161000,502645000000,18,188.76973706002397,-1415003876355000064,0.0,188.76973706002397,-3147.6250513718346,0.0,0,9,0.0,17,203640,487,18.54800033569336,-985.5274658203125,0.14999,16,0.0,0.0,1561097980,,,,0,0.0,5,6.0,18.54800033569336,0.0,0.0,159.97267621611087,66.7128,I,,
Raw,1730969161000,502645000000,18,188.76973706002397,-1415003876355000064,0.0,188.76973706002397,-3147.6250513718346,0.0,0,13,0.0,17,635357,396,21.113000869750977,-636.3222045898438,0.14999,16,0.0,0.0,1561097980,,,,0,0.25674449410344435,5,6.0,21.113000869750977,0.0,0.0,159.97267621611087,66.7128,I,,
Raw,1730969161000,502645000000,18,188.76973706002397,-1415003876355000064,0.0,188.76973706002397,-3147.6250513718346,0.0,0,10,0.0,17,263067,797,15.600000381469727,-1090.9786376953125,0.14999,16,0.0,0.0,1561097980,,,,0,0.0,5,6.0,15.600000381469727,0.0,0.0,159.97267621611087,66.7128,I,,
Raw,1730969161000,502645000000,18,188.76973706002397,-1415003876355000064,0.0,188.76973706002397,-3147.6250513718346,0.0,0,27,0.0,17,258087,797,14.899999618530273,-1230.3011474609375,0.14999,16,0.0,0.0,1561097980,,,,0,0.0,5,6.0,14.899999618530273,0.0,0.0,159.97267621611087,66.7128,I,,
Raw,1730969161000,502645000000,18,188.76973706002397,-1415003876355000064,0.0,188.76973706002397,-3147.6250513718346,0.0,0,7,0.0,16431,377178919195645,396,20.700000762939453,-1234.9278863221543,0.14999,16,0.0,0.0,1575420030,,,,0,0.32239992406307627,6,6.0,20.700000762939453,0.0,0.0,-0.2792046658299128,66.7128,C,,
Raw,1730969161000,502645000000,18,188.76973706002397,-1415003876355000064,0.0,188.76973706002397,-3147.6250513718346,0.0,0,7,0.0,32995,42360936041806,487,18.0,-1155.143068717545,0.14999,16,0.0,0.0,1604812540,,,,0,0.0,3,6.0,18.0,0.0,0.0,102.66580234079285,66.7128,C,,
Raw,1730969161000,502645000000,18,188.76973706002397,-1415003876355000064,0.0,188.76973706002397,-3147.6250513718346,0.0,0,4,0.0,16431,377178930524337,487,18.974000930786133,-1282.8058858984218,0.14999,16,0.0,0.0,1575420030,,,,0,0.0,1,6.0,18.974000930786133,0.0,0.0,0.0,66.7128,C,,
Raw,1730969162000,503645000000,18,189.01962001372505,-1415003876355000064,0.0,189.01962001372505,-3149.3023298850912,0.0,0,27,0.0,16431,377179927259228,396,21.940000534057617,-1040.843764262004,0.14999,16,0.0,0.0,1575420030,,,,0,0.0,1,6.0,21.940000534057617,0.0,0.0,0.0,66.7128,C,,
Raw,1730969162000,503645000000,18,189.01962001372505,-1415003876355000064,0.0,189.01962001372505,-3149.3023298850912,0.0,0,16,0.0,16431,377179926493325,797,14.538000106811523,-345.0385734312473,0.14999,16,0.0,0.0,1575420030,,,,0,0.0,1,6.0,14.538000106811523,0.0,0.0,0.0,66.7128,C,,
Raw,1730969162000,503645000000,18,189.01962001372505,-1415003876355000064,0.0,189.01962001372505,-3149.3023298850912,0.0,0,8,0.0,16431,377179928613988,396,23.222999572753906,-1334.8001940677755,0.14999,16,0.0,0.0,1575420030,,,,0,3.6186048969829185,1,6.0,23.222999572753906,0.0,0.0,0.0,66.7128,C,,
Raw,1730969162000,503645000000,18,189.01962001372505,-1415003876355000064,0.0,189.01962001372505,-3149.3023298850912,0.0,0,8,0.0,16431,377179917643308,797,17.07699966430664,-866.0119169626685,0.14999,16,0.0,0.0,1575420030,,,,0,0.0,6,6.0,17.07699966430664,0.0,0.0,-1.5175862853026743,66.7128,C,,
Raw,1730969162000,503645000000,18,189.01962001372505,-1415003876355000064,0.0,189.01962001372505,-3149.3023298850912,0.0,0,9,0.0,17,206927,396,21.399999618530273,-986.0319213867188,0.14999,16,0.0,0.0,1561097980,,,,0,1.3637172349232323,5,6.0,21.399999618530273,0.0,0.0,159.97267621611087,66.7128,I,,
Raw,1730969162000,503645000000,18,189.01962001372505,-1415003876355000064,0.0,189.01962001372505,-3149.3023298850912,0.0,0,13,0.0,17,637481,487,21.031999588012695,-636.9850463867188,0.14999,16,0.0,0.0,1561097980,,,,0,0.0,5,6.0,21.031999588012695,0.0,0.0,159.97267621611087,66.7128,I,,
Raw,1730969162000,503645000000,18,189.01962001372505,-1415003876355000064,0.0,189.01962001372505,-3149.3023298850912,0.0,0,10,0.0,17,266711,797,15.600000381469727,-1093.236328125,0.14999,16,0.0,0.0,1561097980,,,,0,0.0,5,6.0,15.600000381469727,0.0,0.0,159.97267621611087,66.7128,I,,
Raw,1730969162000,503645000000,18,189.01962001372505,-1415003876355000064,0.0,189.01962001372505,-3149.3023298850912,0.0,0,27,0.0,17,262198,797,14.895000457763672,-1231.445068359375,0.14999,16,0.0,0.0,1561097980,,,,0,0.0,5,6.0,14.895000457763672,0.0,0.0,159.97267621611087,66.7128,I,,
Raw,1730969162000,503645000000,18,189.01962001372505,-1415003876355000064,0.0,189.01962001372505,-3149.3023298850912,0.0,0,7,0.0,16431,377179919199766,396,20.684999465942383,-1235.6621151319457,0.14999,16,0.0,0.0,1575420030,,,,0,0.0,6,6.0,20.684999465942383,0.0,0.0,-1.5175862853026743,66.7128,C,,
Raw,1730969162000,503645000000,18,189.01962001372505,-1415003876355000064,0.0,189.01962001372505,-3149.3023298850912,0.0,0,7,0.0,32995,42361936045666,797,17.0,-1155.5247124442606,0.14999,16,0.0,0.0,1604812540,,,,0,0.0,3,6.0,17.0,0.0,0.0,103.26296060807209,66.7128,C,,
Raw,1730969162000,503645000000,18,189.01962001372505,-1415003876355000064,0.0,189.01962001372505,-3149.3023298850912,0.0,0,4,0.0,16431,377179930528618,797,19.003000259399414,-1285.2351035652384,0.14999,16,0.0,0.0,1575420030,,,,0,0.0,1,6.0,19.003000259399414,0.0,0.0,0.0,66.7128,C,,
Raw,1730969163000,504645000000,18,188.95126421235616,-1415003876355000064,0.0,188.95126421235616,-3150.094875555805,0.0,0,27,0.0,16431,377180927262701,487,21.966999053955078,-1041.2784292040699,0.14999,16,0.0,0.0,1575420030,,,,0,1.3180562401587326,1,6.0,21.966999053955078,0.0,0.0,0.0,66.7128,C,,
Raw,1730969163000,504645000000,18,188.95126421235616,-1415003876355000064,0.0,188.95126421235616,-3150.094875555805,0.0,0,16,0.0,16431,377180926494457,797,17.038999557495117,-344.3523361654014,0.14999,16,0.0,0.0,1575420030,,,,0,0.0,1,6.0,17.038999557495117,0.0,0.0,0.0,66.7128,C,,
Raw,1730969163000,504645000000,18,188.95126421235616,-1415003876355000064,0.0,188.95126421235616,-3150.094875555805,0.0,0,8,0.0,16431,377180928618442,396,23.219999313354492,-1335.273419495296,0.14999,16,0.0,0.0,1575420030,,,,0,2.3793476097987307,1,6.0,23.219999313354492,0.0,0.0,0.0,66.7128,C,,
Raw,1730969163000,504645000000,18,188.95126421235616,-1415003876355000064,0.0,188.95126421235616,-3150.094875555805,0.0,0,8,0.0,16431,377180917646199,797,16.99799919128418,-867.1981861621883,0.14999,16,0.0,0.0,1575420030,,,,0,0.0,6,6.0,16.99799919128418,0.0,0.0,-2.64368005908715,66.7128,C,,
Raw,1730969163000,504645000000,18,188.95126421235616,-1415003876355000064,0.0,188.95126421235616,-3150.094875555805,0.0,0,9,0.0,17,210215,487,21.325000762939453,-985.6162109375,0.14999,16,0.0,0.0,1561097980,,,,0,0.0,5,6.0,21.325000762939453,0.0,0.0,159.97267621611087,66.7128,I,,
Raw,1730969163000,504645000000,18,188.95126421235616,-1415003876355000064,0.0,188.95126421235616,-3150.094875555805,0.0,0,13,0.0,17,639606,396,21.0049991607666,-637.9713134765625,0.14999,16,0.0,0.0,1561097980,,,,0,0.0,5,6.0,21.0049991607666,0.0,0.0,159.97267621611087,66.7128,I,,
Raw,1730969163000,504645000000,18,188.95126421235616,-1415003876355000064,0.0,188.95126421235616,-3150.094875555805,0.0,0,10,0.0,17,270360,797,15.600000381469727,-1093.4033203125,0.14999,16,0.0,0.0,1561097980,,,,0,0.0,5,6.0,15.600000381469727,0.0,0.0,159.97267621611087,66.7128,I,,
Raw,1730969163000,504645000000,18,188.95126421235616,-1415003876355000064,0.0,188.95126421235616,-3150.094875555805,0.0,0,32,0.0,16905,377166927454213,797,13.899999618530273,-835.26318359375,0.14999,16,0.0,0.0,1561097980,,,,0,0.0,5,6.0,13.899999618530273,0.0,0.0,159.97267621611087,66.7128,I,,
Raw,1730969163000,504645000000,18,188.95126421235616,-1415003876355000064,0.0,188.95126421235616,-3150.094875555805,0.0,0,27,0.0,17,266305,797,14.890000343322754,-1232.36376953125,0.14999,16,0.0,0.0,1561097980,,,,0,0.0,5,6.0,14.890000343322754,0.0,0.0,159.97267621611087,66.7128,I,,
Raw,1730969163000,504645000000,18,188.95126421235616,-1415003876355000064,0.0,188.95126421235616,-3150.094875555805,0.0,0,7,0.0,16431,377180919203878,487,20.635000228881836,-1234.805607770688,0.14999,16,0.0,0.0,1575420030,,,,0,0.0,6,6.0,20.635000228881836,0.0,0.0,-2.64368005908715,66.7128,C,,
Raw,1730969163000,504645000000,18,188.95126421235616,-1415003876355000064,0.0,188.95126421235616,-3150.094875555805,0.0,0,7,0.0,32995,42362936049527,487,18.0,-1154.948233392434,0.14999,16,0.0,0.0,1604812540,,,,0,0.0,3,6.0,18.0,0.0,0.0,103.36910212031817,66.7128,C,,
Raw,1730969163000,504645000000,18,188.95126421235616,-1415003876355000064,0.0,188.95126421235616,-3150.094875555805,0.0,0,4,0.0,16431,377180930532904,797,19.0310001373291,-1284.0797756709148,0.14999,16,0.0,0.0,1575420030,,,,0,0.0,1,6.0,19.0310001373291,0.0,0.0,0.0,66.7128,C,,
Raw,1730969164000,505645000000,18,189.06517358202373,-1415003876355000064,0.0,189.06517358202373,-3152.2535651619737,0.0,0,27,0.0,16431,377181927266169,487,21.94499969482422,-1041.7077049698553,0.14999,16,0.0,0.0,1575420030,,,,0,0.0,1,6.0,21.94499969482422,0.0,0.0,0.0,66.7128,C,,
Raw,1730969164000,505645000000,18,189.06517358202373,-1415003876355000064,0.0,189.06517358202373,-3152.2535651619737,0.0,0,16,0.0,16431,377181926495610,797,17.038999557495117,-347.1244634022681,0.14999,16,0.0,0.0,1575420030,,,,0,0.0,1,6.0,17.038999557495117,0.0,0.0,0.0,66.7128,C,,
Raw,1730969164000,505645000000,18,189.06517358202373,-1415003876355000064,0.0,189.06517358202373,-3152.2535651619737,0.0,0,8,0.0,16431,377181928622896,396,23.229999542236328,-1335.5007869842304,0.14999,16,0.0,0.0,1575420030,,,,0,2.7594159120754824,1,6.0,23.229999542236328,0.0,0.0,0.0,66.7128,C,,
Raw,1730969164000,505645000000,18,189.06517358202373,-1415003876355000064,0.0,189.06517358202373,-3152.2535651619737,0.0,0,8,0.0,16431,377181917649083,487,16.982999801635742,-866.8530930465764,0.14999,16,0.0,0.0,1575420030,,,,0,0.0,6,6.0,16.982999801635742,0.0,0.0,-3.698975243658187,66.7128,C,,
Raw,1730969164000,505645000000,18,189.06517358202373,-1415003876355000064,0.0,189.06517358202373,-3152.2535651619737,0.0,0,9,0.0,17,213506,487,18.5,-988.8524169921875,0.14999,16,0.0,0.0,1561097980,,,,0,0.0,5,6.0,18.5,0.0,0.0,159.97267621611087,66.7128,I,,
Raw,1730969164000,505645000000,18,189.06517358202373,-1415003876355000064,0.0,189.06517358202373,-3152.2535651619737,0.0,0,13,0.0,17,641734,487,20.93899917602539,-638.132080078125,0.14999,16,0.0,0.0,1561097980,,,,0,0.0,5,6.0,20.93899917602539,0.0,0.0,159.97267621611087,66.7128,I,,
Raw,1730969164000,505645000000,18,189.06517358202373,-1415003876355000064,0.0,189.06517358202373,-3152.2535651619737,0.0,0,10,0.0,17,273996,797,15.585000038146973,-1093.4534912109375,0.14999,16,0.0,0.0,1561097980,,,,0,0.0,5,6.0,15.585000038146973,0.0,0.0,159.97267621611087,66.7128,I,,
Raw,1730969164000,505645000000,18,189.06517358202373,-1415003876355000064,0.0,189.06517358202373,-3152.2535651619737,0.0,0,32,0.0,16905,377167927456997,797,13.899999618530273,-835.1986694335938,0.14999,16,0.0,0.0,1561097980,,,,0,0.0,5,6.0,13.899999618530273,0.0,0.0,159.97267621611087,66.7128,I,,
Raw,1730969164000,505645000000,18,189.06517358202373,-1415003876355000064,0.0,189.06517358202373,-3152.2535651619737,0.0,0,27,0.0,17,270418,1797,14.885000228881836,-1233.5869140625,0.14999,16,0.0,0.0,1561097980,,,,0,0.0,5,6.0,14.885000228881836,0.0,0.0,159.97267621611087,66.7128,I,,
Raw,1730969164000,505645000000,18,189.06517358202373,-1415003876355000064,0.0,189.06517358202373,-3152.2535651619737,0.0,0,7,0.0,16431,377181919207999,396,20.542999267578125,-1235.9622365006658,0.14999,16,0.0,0.0,1575420030,,,,0,0.0,6,6.0,20.542999267578125,0.0,0.0,-3.698975243658187,66.7128,C,,
Raw,1730969164000,505645000000,18,189.06517358202373,-1415003876355000064,0.0,189.06517358202373,-3152.2535651619737,0.0,0,7,0.0,32995,42363936053386,487,20.0,-1157.111033202222,0.14999,16,0.0,0.0,1604812540,,,,0,0.0,3,6.0,20.0,0.0,0.0,103.23582468955988,66.7128,C,,
Raw,1730969164000,505645000000,18,189.06517358202373,-1415003876355000064,0.0,189.06517358202373,-3152.2535651619737,0.0,0,4,0.0,16431,377181930537158,487,18.95599937438965,-1285.2534081812255,0.14999,16,0.0,0.0,1575420030,,,,0,0.0,1,6.0,18.95599937438965,0.0,0.0,0.0,66.7128,C,,
Raw,1730969165000,506645000000,18,189.18813004304897,-1415003876355000064,0.0,189.18813004304897,-3153.160449204791,0.0,0,27,0.0,16431,377182927269643,396,21.89699935913086,-1042.1042740106284,0.14999,16,0.0,0.0,1575420030,,,,0,0.0,1,6.0,21.89699935913086,0.0,0.0,0.0,66.7128,C,,
Raw,1730969165000,506645000000,18,189.18813004304897,-1415003876355000064,0.0,189.18813004304897,-3153.160449204791,0.0,0,16,0.0,16431,377182926496773,797,17.038999557495117,-348.28931527191486,0.14999,16,0.0,0.0,1575420030,,,,0,0.0,1,6.0,17.038999557495117,0.0,0.0,0.0,66.7128,C,,
Raw,1730969165000,506645000000,18,189.18813004304897,-1415003876355000064,0.0,189.18813004304897,-3153.160449204791,0.0,0,8,0.0,16431,377182928627349,487,23.23900032043457,-1335.2156252255302,0.14999,16,0.0,0.0,1575420030,,,,0,2.7594159120754824,1,6.0,23.23900032043457,0.0,0.0,0.0,66.7128,C,,
Raw,1730969165000,506645000000,18,189.18813004304897,-1415003876355000064,0.0,189.18813004304897,-3153.160449204791,0.0,0,8,0.0,16431,377182917651975,396,16.968000411987305,-867.9344591422929,0.14999,16,0.0,0.0,1575420030,,,,0,0.0,6,6.0,16.968000411987305,0.0,0.0,-4.400601056662556,66.7128,C,,
Raw,1730969165000,506645000000,18,189.18813004304897,-1415003876355000064,0.0,189.18813004304897,-3153.160449204791,0.0,0,9,0.0,17,216803,487,18.450000762939453,-988.7312622070312,0.14999,16,0.0,0.0,1561097980,,,,0,0.0,5,6.0,18.450000762939453,0.0,0.0,159.97267621611087,66.7128,I,,
Raw,1730969165000,506645000000,18,189.18813004304897,-1415003876355000064,0.0,189.18813004304897,-3153.160449204791,0.0,0,13,0.0,17,643863,396,20.966999053955078,-639.0061645507812,0.14999,16,0.0,0.0,1561097980,,,,0,1.5109392278506149,5,6.0,20.966999053955078,0.0,0.0,159.97267621611087,66.7128,I,,
Raw,1730969165000,506645000000,18,189.18813004304897,-1415003876355000064,0.0,189.18813004304897,-3153.160449204791,0.0,0,10,0.0,17,277645,797,15.569999694824219,-1095.6572265625,0.14999,16,0.0,0.0,1561097980,,,,0,0.0,5,6.0,15.569999694824219,0.0,0.0,159.97267621611087,66.7128,I,,
Raw,1730969165000,506645000000,18,189.18813004304897,-1415003876355000064,0.0,189.18813004304897,-3153.160449204791,0.0,0,32,0.0,16905,377168927459785,797,13.899999618530273,-836.2392578125,0.14999,16,0.0,0.0,1561097980,,,,0,0.0,5,6.0,13.899999618530273,0.0,0.0,159.97267621611087,66.7128,I,,
Raw,1730969165000,506645000000,18,189.18813004304897,-1415003876355000064,0.0,189.18813004304897,-3153.160449204791,0.0,0,27,0.0,17,274535,1797,14.770000457763672,-1230.8231201171875,0.14999,16,0.0,0.0,1561097980,,,,0,0.0,5,6.0,14.770000457763672,0.0,0.0,159.97267621611087,66.7128,I,,
Raw,1730969165000,506645000000,18,189.18813004304897,-1415003876355000064,0.0,189.18813004304897,-3153.160449204791,0.0,0,7,0.0,16431,377182919212120,487,17.299999237060547,-1236.9726141364126,0.14999,16,0.0,0.0,1575420030,,,,0,0.0,6,6.0,17.299999237060547,0.0,0.0,-4.400601056662556,66.7128,C,,
Raw,1730969165000,506645000000,18,189.18813004304897,-1415003876355000064,0.0,189.18813004304897,-3153.160449204791,0.0,0,7,0.0,32995,42364936057248,487,18.0,-1156.3913465378373,0.14999,16,0.0,0.0,1604812540,,,,0,0.0,3,6.0,18.0,0.0,0.0,102.86329901258722,66.7128,C,,
Raw,1730969165000,506645000000,18,189.18813004304897,-1415003876355000064,0.0,189.18813004304897,-3153.160449204791,0.0,0,4,0.0,16431,377182930541470,797,18.87299919128418,-1285.0357969596953,0.14999,16,0.0,0.0,1575420030,,,,0,0.0,1,6.0,18.87299919128418,0.0,0.0,0.0,66.7128,C,,
Raw,1730969166000,507645000000,18,191.47335406301212,-1415003876355000064,0.0,191.47335406301212,-3155.632115980813,0.0,0,27,0.0,16431,377183927273118,487,21.820999145507812,-1043.137787937648,0.14999,16,0.0,0.0,1575420030,,,,0,0.0,1,6.0,21.820999145507812,0.0,0.0,0.0,66.7128,C,,
Raw,1730969166000,507645000000,18,191.47335406301212,-1415003876355000064,0.0,191.47335406301212,-3155.632115980813,0.0,0,16,0.0,16431,377183926497947,797,14.399999618530273,-344.8326697306022,0.14999,16,0.0,0.0,1575420030,,,,0,0.0,1,6.0,14.399999618530273,0.0,0.0,0.0,66.7128,C,,
Raw,1730969166000,507645000000,18,191.47335406301212,-1415003876355000064,0.0,191.47335406301212,-3155.632115980813,0.0,0,8,0.0,16431,377183928631803,487,20.329999923706055,-1336.3542280900178,0.14999,16,0.0,0.0,1575420030,,,,0,0.0,1,6.0,20.329999923706055,0.0,0.0,0.0,66.7128,C,,
Raw,1730969166000,507645000000,18,191.47335406301212,-1415003876355000064,0.0,191.47335406301212,-3155.632115980813,0.0,0,8,0.0,16431,377183917654865,487,16.95400047302246,-867.6292273477897,0.14999,16,0.0,0.0,1575420030,,,,0,0.0,6,6.0,16.95400047302246,0.0,0.0,-4.611461621782209,66.7128,C,,
Raw,1730969166000,507645000000,18,191.47335406301212,-1415003876355000064,0.0,191.47335406301212,-3155.632115980813,0.0,0,9,0.0,17,220098,797,18.35700035095215,-987.5018310546875,0.14999,16,0.0,0.0,1561097980,,,,0,0.0,5,6.0,18.35700035095215,0.0,0.0,159.97267621611087,66.7128,I,,
Raw,1730969166000,507645000000,18,191.47335406301212,-1415003876355000064,0.0,191.47335406301212,-3155.632115980813,0.0,0,13,0.0,17,645994,487,20.882999420166016,-639.7066040039062,0.14999,16,0.0,0.0,1561097980,,,,0,0.0,5,6.0,20.882999420166016,0.0,0.0,159.97267621611087,66.7128,I,,
Raw,1730969166000,507645000000,18,191.47335406301212,-1415003876355000064,0.0,191.47335406301212,-3155.632115980813,0.0,0,10,0.0,17,281297,797,15.51099967956543,-1094.3160400390625,0.14999,16,0.0,0.0,1561097980,,,,0,0.0,5,6.0,15.51099967956543,0.0,0.0,159.97267621611087,66.7128,I,,
Raw,1730969166000,507645000000,18,191.47335406301212,-1415003876355000064,0.0,191.47335406301212,-3155.632115980813,0.0,0,32,0.0,16905,377169927462566,487,17.700000762939453,-836.8792114257812,0.14999,16,0.0,0.0,1561097980,,,,0,0.0,5,6.0,17.700000762939453,0.0,0.0,159.97267621611087,66.7128,I,,
Raw,1730969166000,507645000000,18,191.47335406301212,-1415003876355000064,0.0,191.47335406301212,-3155.632115980813,0.0,0,27,0.0,17,278648,797,14.66100025177002,-1235.9871826171875,0.14999,16,0.0,0.0,1561097980,,,,0,0.0,5,6.0,14.66100025177002,0.0,0.0,159.97267621611087,66.7128,I,,
Raw,1730969166000,507645000000,18,191.47335406301212,-1415003876355000064,0.0,191.47335406301212,-3155.632115980813,0.0,0,7,0.0,32995,42365936061105,487,19.0,-1157.1517151099931,0.14999,16,0.0,0.0,1604812540,,,,0,0.0,3,6.0,19.0,0.0,0.0,102.84878493861675,66.7128,C,,
Raw,1730969166000,507645000000,18,191.47335406301212,-1415003876355000064,0.0,191.47335406301212,-3155.632115980813,0.0,0,4,0.0,16431,377183930545761,487,18.85099983215332,-1286.256445387211,0.14999,16,0.0,0.0,1575420030,,,,0,0.0,1,6.0,18.85099983215332,0.0,0.0,0.0,66.7128,C,,
Raw,1730969167000,508645000000,18,207.49347517898897,-1415003876355000064,0.0,207.49347517898897,-3156.22263887392,0.0,0,27,0.0,16431,377184927276596,487,21.74799919128418,-1042.059859764731,0.14999,16,0.0,0.0,1575420030,,,,0,0.0,1,6.0,21.74799919128418,0.0,0.0,0.0,66.7128,C,,
Raw,1730969167000,508645000000,18,207.49347517898897,-1415003876355000064,0.0,207.49347517898897,-3156.22263887392,0.0,0,16,0.0,16431,377184926499083,1797,14.399999618530273,-335.9820162335812,0.14999,16,0.0,0.0,1575420030,,,,0,0.0,1,6.0,14.399999618530273,0.0,0.0,0.0,66.7128,C,,
Raw,1730969167000,508645000000,18,207.49347517898897,-1415003876355000064,0.0,207.49347517898897,-3156.22263887392,0.0,0,8,0.0,16431,377184928636261,797,20.329999923706055,-1337.31721814123,0.14999,16,0.0,0.0,1575420030,,,,0,0.0,1,6.0,20.329999923706055,0.0,0.0,0.0,66.7128,C,,
Raw,1730969167000,508645000000,18,207.49347517898897,-1415003876355000064,0.0,207.49347517898897,-3156.22263887392,0.0,0,8,0.0,16431,377184917657754,797,13.800000190734863,-867.076093444387,0.14999,16,0.0,0.0,1575420030,,,,0,0.0,6,6.0,13.800000190734863,0.0,0.0,-4.327470180307924,66.7128,C,,
Raw,1730969167000,508645000000,18,207.49347517898897,-1415003876355000064,0.0,207.49347517898897,-3156.22263887392,0.0,0,9,0.0,17,223395,487,18.268999099731445,-988.22509765625,0.14999,16,0.0,0.0,1561097980,,,,0,0.0,5,6.0,18.268999099731445,0.0,0.0,159.97267621611087,66.7128,I,,
Raw,1730969167000,508645000000,18,207.49347517898897,-1415003876355000064,0.0,207.49347517898897,-3156.22263887392,0.0,0,13,0.0,17,648127,797,16.5,-639.6782836914062,0.14999,16,0.0,0.0,1561097980,,,,0,0.0,5,6.0,16.5,0.0,0.0,159.97267621611087,66.7128,I,,
Raw,1730969167000,508645000000,18,207.49347517898897,-1415003876355000064,0.0,207.49347517898897,-3156.22263887392,0.0,0,10,0.0,17,284948,797,15.454999923706055,-1094.2918701171875,0.14999,16,0.0,0.0,1561097980,,,,0,0.0,5,6.0,15.454999923706055,0.0,0.0,159.97267621611087,66.7128,I,,
Raw,1730969167000,508645000000,18,207.49347517898897,-1415003876355000064,0.0,207.49347517898897,-3156.22263887392,0.0,0,32,0.0,16905,377170927465352,797,17.684999465942383,-834.7263793945312,0.14999,16,0.0,0.0,1561097980,,,,0,0.0,5,6.0,17.684999465942383,0.0,0.0,159.97267621611087,66.7128,I,,
Raw,1730969167000,508645000000,18,207.49347517898897,-1415003876355000064,0.0,207.49347517898897,-3156.22263887392,0.0,0,27,0.0,17,282766,797,14.557000160217285,-1233.5018310546875,0.14999,16,0.0,0.0,1561097980,,,,0,0.0,5,6.0,14.557000160217285,0.0,0.0,159.97267621611087,66.7128,I,,
Raw,1730969167000,508645000000,18,207.49347517898897,-1415003876355000064,0.0,207.49347517898897,-3156.22263887392,0.0,0,7,0.0,32995,42366936064962,487,18.0,-1158.9489250400784,0.14999,16,0.0,0.0,1604812540,,,,0,0.0,3,6.0,18.0,0.0,0.0,103.79446036547228,66.7128,C,,
Raw,1730969167000,508645000000,18,207.49347517898897,-1415003876355000064,0.0,207.49347517898897,-3156.22263887392,0.0,0,7,0.0,16431,377184920344486,1797,12.899999618530273,-1056.2228937801785,0.14999,16,0.0,0.0,1575420030,,,,0,0.0,1,6.0,12.899999618530273,0.0,0.0,0.0,66.7128,C,,
Raw,1730969167000,508645000000,18,207.49347517898897,-1415003876355000064,0.0,207.49347517898897,-3156.22263887392,0.0,0,4,0.0,16431,377184930550076,487,18.927000045776367,-1285.2029543412207,0.14999,16,0.0,0.0,1575420030,,,,0,0.0,1,6.0,18.927000045776367,0.0,0.0,0.0,66.7128,C,,
Raw,1730969168000,509645000000,18,208.18974492863603,-1415003876355000064,0.0,208.18974492863603,-3158.137446217115,0.0,0,27,0.0,16431,377185927280070,797,18.086999893188477,-1040.6893364865202,0.14999,16,0.0,0.0,1575420030,,,,0,0.0,1,6.0,18.086999893188477,0.0,0.0,0.0,66.7128,C,,
Raw,1730969168000,509645000000,18,208.18974492863603,-1415003876355000064,0.0,208.18974492863603,-3158.137446217115,0.0,0,16,0.0,16431,377185926500191,1797,12.300000190734863,-331.2002372866953,0.14999,16,0.0,0.0,1575420030,,,,0,0.0,1,6.0,12.300000190734863,0.0,0.0,0.0,66.7128,C,,
Raw,1730969168000,509645000000,18,208.18974492863603,-1415003876355000064,0.0,208.18974492863603,-3158.137446217115,0.0,0,8,0.0,16431,377185928640706,797,20.20599937438965,-1337.087063147323,0.14999,16,0.0,0.0,1575420030,,,,0,0.0,1,6.0,20.20599937438965,0.0,0.0,0.0,66.7128,C,,
Raw,1730969168000,509645000000,18,208.18974492863603,-1415003876355000064,0.0,208.18974492863603,-3158.137446217115,0.0,0,8,0.0,16431,377185917660646,487,13.800000190734863,-867.5151254775766,0.14999,16,0.0,0.0,1575420030,,,,0,0.0,6,6.0,13.800000190734863,0.0,0.0,-4.08830241138507,66.7128,C,,
Raw,1730969168000,509645000000,18,208.18974492863603,-1415003876355000064,0.0,208.18974492863603,-3158.137446217115,0.0,0,9,0.0,17,226689,797,18.274999618530273,-986.1158447265625,0.14999,16,0.0,0.0,1561097980,,,,0,0.0,5,6.0,18.274999618530273,0.0,0.0,159.97267621611087,66.7128,I,,
Raw,1730969168000,509645000000,18,208.18974492863603,-1415003876355000064,0.0,208.18974492863603,-3158.137446217115,0.0,0,10,0.0,17,288601,797,15.402000427246094,-1095.7117919921875,0.14999,16,0.0,0.0,1561097980,,,,0,0.0,5,6.0,15.402000427246094,0.0,0.0,159.97267621611087,66.7128,I,,
Raw,1730969168000,509645000000,18,208.18974492863603,-1415003876355000064,0.0,208.18974492863603,-3158.137446217115,0.0,0,32,0.0,16905,377171927468134,487,17.655000686645508,-837.4610595703125,0.14999,16,0.0,0.0,1561097980,,,,0,0.0,5,6.0,17.655000686645508,0.0,0.0,159.97267621611087,66.7128,I,,
Raw,1730969168000,509645000000,18,208.18974492863603,-1415003876355000064,0.0,208.18974492863603,-3158.137446217115,0.0,0,27,0.0,17,286874,1797,14.519000053405762,-1226.093994140625,0.14999,16,0.0,0.0,1561097980,,,,0,0.0,5,6.0,14.519000053405762,0.0,0.0,159.97267621611087,66.7128,I,,
Raw,1730969168000,509645000000,18,208.18974492863603,-1415003876355000064,0.0,208.18974492863603,-3158.137446217115,0.0,0,7,0.0,16431,377185919224485,797,15.300000190734863,-1238.666302157784,0.14999,16,0.0,0.0,1575420030,,,,0,0.0,6,6.0,15.300000190734863,0.0,0.0,-4.08830241138507,66.7128,C,,
Raw,1730969168000,509645000000,18,208.18974492863603,-1415003876355000064,0.0,208.18974492863603,-3158.137446217115,0.0,0,7,0.0,32995,42367936068828,797,17.0,-1158.1292666920224,0.14999,16,0.0,0.0,1604812540,,,,0,0.0,3,6.0,17.0,0.0,0.0,103.95296468625196,66.7128,C,,
Raw,1730969168000,509645000000,18,208.18974492863603,-1415003876355000064,0.0,208.18974492863603,-3158.137446217115,0.0,0,7,0.0,16431,377185920348007,1797,12.899999618530273,-1055.4215790173791,0.14999,16,0.0,0.0,1575420030,,,,0,0.0,1,6.0,12.899999618530273,0.0,0.0,0.0,66.7128,C,,
Raw,1730969168000,509645000000,18,208.18974492863603,-1415003876355000064,0.0,208.18974492863603,-3158.137446217115,0.0,0,4,0.0,16431,377185930554359,797,18.999000549316406,-1285.7398277989498,0.14999,16,0.0,0.0,1575420030,,,,0,0.0,1,6.0,18.999000549316406,0.0,0.0,0.0,66.7128,C,,
Raw,1730969169000,510645000000,18,206.35823699382,-1415003876355000064,0.0,206.35823699382,-3157.8207269829427,0.0,0,27,0.0,16431,377186927283534,1797,18.086999893188477,-1038.7938331051303,0.14999,16,0.0,0.0,1575420030,,,,0,0.0,1,6.0,18.086999893188477,0.0,0.0,0.0,66.7128,C,,
Raw,1730969169000,510645000000,18,206.35823699382,-1415003876355000064,0.0,206.35823699382,-3157.8207269829427,0.0,0,16,0.0,16431,377186926501295,1797,12.300000190734863,-331.0562161964427,0.14999,16,0.0,0.0,1575420030,,,,0,0.0,1,6.0,12.300000190734863,0.0,0.0,0.0,66.7128,C,,
Raw,1730969169000,510645000000,18,206.35823699382,-1415003876355000064,0.0,206.35823699382,-3157.8207269829427,0.0,0,8,0.0,16431,377186928645167,396,20.28499984741211,-1337.1194911218379,0.14999,16,0.0,0.0,1575420030,,,,0,0.25178254616040935,1,6.0,20.28499984741211,0.0,0.0,0.0,66.7128,C,,
Raw,1730969169000,510645000000,18,206.35823699382,-1415003876355000064,0.0,206.35823699382,-3157.8207269829427,0.0,0,8,0.0,16431,377186917663542,396,13.800000190734863,-868.411122492613,0.14999,16,0.0,0.0,1575420030,,,,0,0.0,6,6.0,13.800000190734863,0.0,0.0,-4.059211390126483,66.7128,C,,
Raw,1730969169000,510645000000,18,206.35823699382,-1415003876355000064,0.0,206.35823699382,-3157.8207269829427,0.0,0,9,0.0,17,229977,1797,13.100000381469727,-985.7147827148438,0.14999,16,0.0,0.0,1561097980,,,,0,0.0,5,6.0,13.100000381469727,0.0,0.0,159.97267621611087,66.7128,I,,
Raw,1730969169000,510645000000,18,206.35823699382,-1415003876355000064,0.0,206.35823699382,-3157.8207269829427,0.0,0,10,0.0,17,292251,797,15.37600040435791,-1095.1754150390625,0.14999,16,0.0,0.0,1561097980,,,,0,0.0,5,6.0,15.37600040435791,0.0,0.0,159.97267621611087,66.7128,I,,
Raw,1730969169000,510645000000,18,206.35823699382,-1415003876355000064,0.0,206.35823699382,-3157.8207269829427,0.0,0,32,0.0,16905,377172927470928,487,17.75200080871582,-836.6453247070312,0.14999,16,0.0,0.0,1561097980,,,,0,0.0,5,6.0,17.75200080871582,0.0,0.0,159.97267621611087,66.7128,I,,
Raw,1730969169000,510645000000,18,206.35823699382,-1415003876355000064,0.0,206.35823699382,-3157.8207269829427,0.0,0,27,0.0,17,290956,1797,14.482999801635742,-1221.5107421875,0.14999,16,0.0,0.0,1561097980,,,,0,0.0,5,6.0,14.482999801635742,0.0,0.0,159.97267621611087,66.7128,I,,
Raw,1730969169000,510645000000,18,206.35823699382,-1415003876355000064,0.0,206.35823699382,-3157.8207269829427,0.0,0,7,0.0,16431,377186919228618,1797,15.300000190734863,-1238.9202438607906,0.14999,16,0.0,0.0,1575420030,,,,0,0.0,6,6.0,15.300000190734863,0.0,0.0,-4.059211390126483,66.7128,C,,
