# 
# Header Description:
# 
# Version: v3.1.0.3 Platform: 12 Manufacturer: Xiaomi Model: 22120RN86I GNSS Hardware Model Name: MTK_MNLD_default,MNL_VER_default
# 
# Raw,utcTimeMillis,TimeNanos,LeapSecond,TimeUncertaintyNanos,FullBiasNanos,BiasNanos,BiasUncertaintyNanos,DriftNanosPerSecond,DriftUncertaintyNanosPerSecond,HardwareClockDiscontinuityCount,Svid,TimeOffsetNanos,State,ReceivedSvTimeNanos,ReceivedSvTimeUncertaintyNanos,Cn0DbHz,PseudorangeRateMetersPerSecond,PseudorangeRateUncertaintyMetersPerSecond,AccumulatedDeltaRangeState,AccumulatedDeltaRangeMeters,AccumulatedDeltaRangeUncertaintyMeters,CarrierFrequencyHz,CarrierCycles,CarrierPhase,CarrierPhaseUncertainty,MultipathIndicator,SnrInDb,ConstellationType,AgcDb,BasebandCn0DbHz,FullInterSignalBiasNanos,FullInterSignalBiasUncertaintyNanos,SatelliteInterSignalBiasNanos,SatelliteInterSignalBiasUncertaintyNanos,CodeType,ChipsetElapsedRealtimeNanos,IsFullTracking
# 
# UncalAccel,utcTimeMillis,elapsedRealtimeNanos,UncalAccelXMps2,UncalAccelYMps2,UncalAccelZMps2,BiasXMps2,BiasYMps2,BiasZMps2
# 
# Accel,utcTimeMillis,elapsedRealtimeNanos,AccelXMps2,AccelYMps2,AccelZMps2
# 
# UncalGyro,utcTimeMillis,elapsedRealtimeNanos,UncalGyroXRadPerSec,UncalGyroYRadPerSec,UncalGyroZRadPerSec,DriftXRadPerSec,DriftYRadPerSec,DriftZRadPerSec
# 
# Gyro,utcTimeMillis,elapsedRealtimeNanos,GyroXRadPerSec,GyroYRadPerSec,GyroZRadPerSec
# 
# UncalMag,utcTimeMillis,elapsedRealtimeNanos,UncalMagXMicroT,UncalMagYMicroT,UncalMagZMicroT,BiasXMicroT,BiasYMicroT,BiasZMicroT
# 
# Mag,utcTimeMillis,elapsedRealtimeNanos,MagXMicroT,MagYMicroT,MagZMicroT
# 
# Pressure,utcTimeMillis,elapsedRealtimeNanos,PressureHpa
# 
# OrientationDeg,utcTimeMillis,elapsedRealtimeNanos,yawDeg,rollDeg,pitchDeg
# 
# Fix,Provider,LatitudeDegrees,LongitudeDegrees,AltitudeMeters,SpeedMps,AccuracyMeters,BearingDegrees,UnixTimeMillis,SpeedAccuracyMps,BearingAccuracyDegrees,elapsedRealtimeNanos,VerticalAccuracyMeters,MockLocation,NumberOfUsedSignals,VerticalSpeedAccuracyMps,SolutionType
# 
# Nav,Svid,Type,Status,MessageId,Sub-messageId,Data(Bytes)
# 
# Status,UnixTimeMillis,SignalCount,SignalIndex,ConstellationType,Svid,CarrierFrequencyHz,Cn0DbHz,AzimuthDegrees,ElevationDegrees,UsedInFix,HasAlmanacData,HasEphemerisData,BasebandCn0DbHz
# 
# Agc,utcTimeMillis,TimeNanos,LeapSecond,TimeUncertaintyNanos,FullBiasNanos,BiasNanos,BiasUncertaintyNanos,DriftNanosPerSecond,DriftUncertaintyNanosPerSecond,HardwareClockDiscontinuityCount,AgcDb,CarrierFrequencyHz,ConstellationType
# 
Raw,1730968368433,8013000000,18,33353073.878863223,-1415003578420000256,0.0,3060.0580492880513,-2005.848603446635,0.0,0,3,0.0,47,376386362535432,396,24.461999893188477,-297.3717738150729,0.14999,16,0.0,0.0,1575420030,,,,0,4.287398780754606,1,6.0,24.461999893188477,0.0,0.0,0.0,66.7128,C,,
Raw,1730968368433,8013000000,18,33353073.878863223,-1415003578420000256,0.0,3060.0580492880513,-2005.848603446635,0.0,0,16,0.0,47,376386359592239,235,27.14699935913086,-50.77036119428699,0.14999,16,0.0,0.0,1575420030,,,,0,7.958800173440752,1,6.0,27.14699935913086,0.0,0.0,0.0,66.7128,C,,
Raw,1730968368433,8013000000,18,33353073.878863223,-1415003578420000256,0.0,3060.0580492880513,-2005.848603446635,0.0,0,4,0.0,47,376386361151436,396,23.10099983215332,-975.2623206045488,0.14999,16,0.0,0.0,1575420030,,,,0,2.257111519076039,1,6.0,23.10099983215332,0.0,0.0,0.0,66.7128,C,,
Raw,1730968368433,8013000000,18,33353073.878863223,-1415003578420000256,0.0,3060.0580492880513,-2005.848603446635,0.0,0,27,0.0,47,376386358470842,487,19.68199920654297,-778.2701804401161,0.14999,16,0.0,0.0,1575420030,,,,0,0.0,1,6.0,19.68199920654297,0.0,0.0,0.0,66.7128,C,,
Raw,1730968368433,8013000000,18,33353073.878863223,-1415003578420000256,0.0,3060.0580492880513,-2005.848603446635,0.0,0,23,0.0,17,19459,396,20.700000762939453,-170.9642333984375,0.14999,16,0.0,0.0,1561097980,,,,0,0.3406667859756074,5,6.0,20.700000762939453,0.0,0.0,159.97267621611087,66.7128,I,,
Raw,1730968368433,8013000000,18,33353073.878863223,-1415003578420000256,0.0,3060.0580492880513,-2005.848603446635,0.0,0,11,0.0,17,86806,487,20.0,-896.6781512238681,0.14999,16,0.0,0.0,1602000000,,,,0,0.0,3,6.0,20.0,0.0,0.0,111.37357736509722,66.7128,C,,
Raw,1730968368433,8013000000,18,33353073.878863223,-1415003578420000256,0.0,3060.0580492880513,-2005.848603446635,0.0,0,9,0.0,17,34298,51,37.0,-22.13418490416374,0.14999,16,0.0,0.0,1600875010,,,,0,19.821238244244345,3,6.0,37.0,0.0,0.0,111.37357736509722,66.7128,C,,
Raw,1730968369432,9013000000,18,33353073.878863223,-1415003578419000064,0.0,764.2849935572918,-2033.7217486217826,0.0,0,3,0.0,47,376387362536438,396,24.44300079345703,-305.76578753916056,0.14999,16,0.0,0.0,1575420030,,,,0,4.113239770461623,1,6.0,24.44300079345703,0.0,0.0,0.0,66.7128,C,,
Raw,1730968369432,9013000000,18,33353073.878863223,-1415003578419000064,0.0,764.2849935572918,-2033.7217486217826,0.0,0,16,0.0,47,376387359592430,316,25.621000289916992,-59.282054086635924,0.14999,16,0.0,0.0,1575420030,,,,0,5.896132629977691,1,6.0,25.621000289916992,0.0,0.0,0.0,66.7128,C,,
Raw,1730968369432,9013000000,18,33353073.878863223,-1415003578419000064,0.0,764.2849935572918,-2033.7217486217826,0.0,0,4,0.0,47,376387361154715,316,25.670000076293945,-983.6825368753792,0.14999,16,0.0,0.0,1575420030,,,,0,5.967475040404823,1,6.0,25.670000076293945,0.0,0.0,0.0,66.7128,C,,
Raw,1730968369432,9013000000,18,33353073.878863223,-1415003578419000064,0.0,764.2849935572918,-2033.7217486217826,0.0,0,27,0.0,47,376387358473427,487,18.98699951171875,-785.8665960747012,0.14999,16,0.0,0.0,1575420030,,,,0,0.0,1,6.0,18.98699951171875,0.0,0.0,0.0,66.7128,C,,
Raw,1730968369432,9013000000,18,33353073.878863223,-1415003578419000064,0.0,764.2849935572918,-2033.7217486217826,0.0,0,9,0.0,47,376387355572714,235,27.285999298095703,-1156.0067447013348,0.14999,16,0.0,0.0,1575420030,,,,0,8.126648674546747,1,6.0,27.285999298095703,0.0,0.0,0.0,66.7128,C,,
Raw,1730968369432,9013000000,18,33353073.878863223,-1415003578419000064,0.0,764.2849935572918,-2033.7217486217826,0.0,0,7,0.0,47,376387351621828,58,33.698001861572266,-708.8351040748291,0.14999,16,0.0,0.0,1575420030,,,,0,15.89214095501992,1,6.0,33.698001861572266,0.0,0.0,0.0,66.7128,C,,
Raw,1730968369432,9013000000,18,33353073.878863223,-1415003578419000064,0.0,764.2849935572918,-2033.7217486217826,0.0,0,8,0.0,47,376387359093107,487,20.2549991607666,-1046.197539229274,0.14999,16,0.0,0.0,1575420030,,,,0,0.0,1,6.0,20.2549991607666,0.0,0.0,0.0,66.7128,C,,
Raw,1730968369432,9013000000,18,33353073.878863223,-1415003578419000064,0.0,764.2849935572918,-2033.7217486217826,0.0,0,23,0.0,17,20049,487,19.0,-179.72702026367188,0.14999,16,0.0,0.0,1561097980,,,,0,0.0,5,6.0,19.0,0.0,0.0,159.97267621611087,66.7128,I,,
Raw,1730968369432,9013000000,18,33353073.878863223,-1415003578419000064,0.0,764.2849935572918,-2033.7217486217826,0.0,0,11,0.0,17,89846,487,23.399999618530273,-907.3748951326394,0.14999,16,0.0,0.0,1602000000,,,,0,0.0,3,6.0,23.399999618530273,0.0,0.0,50.2674808371177,66.7128,C,,
Raw,1730968369432,9013000000,18,33353073.878863223,-1415003578419000064,0.0,764.2849935572918,-2033.7217486217826,0.0,0,9,0.0,17,34389,316,24.0,-31.487565997343065,0.14999,16,0.0,0.0,1600875010,,,,0,7.382483908508829,3,6.0,24.0,0.0,0.0,50.2674808371177,66.7128,C,,
Raw,1730968369432,9013000000,18,33353073.878863223,-1415003578419000064,0.0,764.2849935572918,-2033.7217486217826,0.0,0,8,0.0,17,618561,396,23.0,-1350.1092866117078,0.14999,16,0.0,0.0,1605374980,,,,0,4.039435560713175,3,6.0,23.0,0.0,0.0,50.2674808371177,66.7128,C,,
Raw,1730968370444,10013000000,18,33353073.878863223,-1415003578431000064,0.0,479.5454673508925,-2053.779259359487,0.0,0,3,0.0,47,376388374537464,74,31.94099998474121,-311.3687422217758,0.14999,16,0.0,0.0,1575420030,,,,0,13.858513875263876,1,6.0,31.94099998474121,0.0,0.0,0.0,66.7128,C,,
Raw,1730968370444,10013000000,18,33353073.878863223,-1415003578431000064,0.0,479.5454673508925,-2053.779259359487,0.0,0,16,0.0,47,376388371592642,487,26.2450008392334,-65.32364590590295,0.14999,16,0.0,0.0,1575420030,,,,0,6.748373498356987,1,6.0,26.2450008392334,0.0,0.0,0.0,66.7128,C,,
Raw,1730968370444,10013000000,18,33353073.878863223,-1415003578431000064,0.0,479.5454673508925,-2053.779259359487,0.0,0,4,0.0,47,376388373158002,316,31.51300048828125,-991.5198858564322,0.14999,16,0.0,0.0,1575420030,,,,0,13.357407591450555,1,6.0,31.51300048828125,0.0,0.0,0.0,66.7128,C,,
Raw,1730968370444,10013000000,18,33353073.878863223,-1415003578431000064,0.0,479.5454673508925,-2053.779259359487,0.0,0,27,0.0,47,376388370476060,487,18.742000579833984,-792.0424062584005,0.14999,16,0.0,0.0,1575420030,,,,0,0.0,1,6.0,18.742000579833984,0.0,0.0,0.0,66.7128,C,,
Raw,1730968370444,10013000000,18,33353073.878863223,-1415003578431000064,0.0,479.5454673508925,-2053.779259359487,0.0,0,9,0.0,47,376388367576558,316,30.361000061035156,-1162.7702538500973,0.14999,16,0.0,0.0,1575420030,,,,0,11.97918913230788,1,6.0,30.361000061035156,0.0,0.0,0.0,66.7128,C,,
Raw,1730968370444,10013000000,18,33353073.878863223,-1415003578431000064,0.0,479.5454673508925,-2053.779259359487,0.0,0,7,0.0,47,376388363624197,51,35.77000045776367,-715.1742155915084,0.14999,16,0.0,0.0,1575420030,,,,0,18.214916843803945,1,6.0,35.77000045776367,0.0,0.0,0.0,66.7128,C,,
Raw,1730968370444,10013000000,18,33353073.878863223,-1415003578431000064,0.0,479.5454673508925,-2053.779259359487,0.0,0,8,0.0,47,376388371096605,316,25.54800033569336,-1052.4490766313966,0.14999,16,0.0,0.0,1575420030,,,,0,5.788008126223683,1,6.0,25.54800033569336,0.0,0.0,0.0,66.7128,C,,
Raw,1730968370444,10013000000,18,33353073.878863223,-1415003578431000064,0.0,479.5454673508925,-2053.779259359487,0.0,0,11,0.0,17,92886,396,29.399999618530273,-909.7173892114788,0.14999,16,0.0,0.0,1602000000,,,,0,4.40474530919554,3,6.0,29.399999618530273,0.0,0.0,71.82889482468742,66.7128,C,,
Raw,1730968370444,10013000000,18,33353073.878863223,-1415003578431000064,0.0,479.5454673508925,-2053.779259359487,0.0,0,9,0.0,17,34507,316,25.0,-37.442464940179505,0.14999,16,0.0,0.0,1600875010,,,,0,5.8855133702910045,3,6.0,25.0,0.0,0.0,71.82889482468742,66.7128,C,,
Raw,1730968370444,10013000000,18,33353073.878863223,-1415003578431000064,0.0,479.5454673508925,-2053.779259359487,0.0,0,8,0.0,17,623083,235,29.0,-1356.8055895985622,0.14999,16,0.0,0.0,1605374980,,,,0,11.269621707888213,3,6.0,29.0,0.0,0.0,71.82889482468742,66.7128,C,,
Raw,1730968370444,10013000000,18,33353073.878863223,-1415003578431000064,0.0,479.5454673508925,-2053.779259359487,0.0,0,7,0.0,17,916079,316,26.0,-935.5689477897656,0.14999,16,0.0,0.0,1604812540,,,,0,7.117573273426524,3,6.0,26.0,0.0,0.0,71.82889482468742,66.7128,C,,
Raw,1730968371441,11013000000,18,33353073.878863223,-1415003578428999936,0.0,463.22853547119064,-2070.517594446329,0.0,0,3,0.0,47,376389372538511,58,32.869998931884766,-316.77694322363647,0.14999,16,0.0,0.0,1575420030,,,,0,14.947351821258048,1,6.0,32.869998931884766,0.0,0.0,0.0,66.7128,C,,
Raw,1730968371441,11013000000,18,33353073.878863223,-1415003578428999936,0.0,463.22853547119064,-2070.517594446329,0.0,0,16,0.0,47,376389369592868,487,21.80299949645996,-70.07838605455429,0.14999,16,0.0,0.0,1575420030,,,,0,0.2437082814487767,1,6.0,21.80299949645996,0.0,0.0,0.0,66.7128,C,,
Raw,1730968371441,11013000000,18,33353073.878863223,-1415003578428999936,0.0,463.22853547119064,-2070.517594446329,0.0,0,4,0.0,47,376389371161320,396,25.764999389648438,-996.0807085758207,0.14999,16,0.0,0.0,1575420030,,,,0,6.108425632599061,1,6.0,25.764999389648438,0.0,0.0,0.0,66.7128,C,,
Raw,1730968371441,11013000000,18,33353073.878863223,-1415003578428999936,0.0,463.22853547119064,-2070.517594446329,0.0,0,27,0.0,47,376389368478706,487,19.736000061035156,-796.1438481582992,0.14999,16,0.0,0.0,1575420030,,,,0,0.0,1,6.0,19.736000061035156,0.0,0.0,0.0,66.7128,C,,
Raw,1730968371441,11013000000,18,33353073.878863223,-1415003578428999936,0.0,463.22853547119064,-2070.517594446329,0.0,0,9,0.0,47,376389365580453,235,28.468000411987305,-1168.871544734195,0.14999,16,0.0,0.0,1575420030,,,,0,9.647709894240393,1,6.0,28.468000411987305,0.0,0.0,0.0,66.7128,C,,
Raw,1730968371441,11013000000,18,33353073.878863223,-1415003578428999936,0.0,463.22853547119064,-2070.517594446329,0.0,0,7,0.0,47,376389361626589,316,23.827999114990234,-720.3170693491826,0.14999,16,0.0,0.0,1575420030,,,,0,3.3314418960455763,1,6.0,23.827999114990234,0.0,0.0,0.0,66.7128,C,,
Raw,1730968371441,11013000000,18,33353073.878863223,-1415003578428999936,0.0,463.22853547119064,-2070.517594446329,0.0,0,8,0.0,47,376389369100126,235,27.06599998474121,-1056.9874134773393,0.14999,16,0.0,0.0,1575420030,,,,0,7.845071679437568,1,6.0,27.06599998474121,0.0,0.0,0.0,66.7128,C,,
Raw,1730968371441,11013000000,18,33353073.878863223,-1415003578428999936,0.0,463.22853547119064,-2070.517594446329,0.0,0,11,0.0,17,95943,487,30.399999618530273,-915.220185217715,0.14999,16,0.0,0.0,1602000000,,,,0,0.0,3,6.0,30.399999618530273,0.0,0.0,80.13176432772813,66.7128,C,,
Raw,1730968371441,11013000000,18,33353073.878863223,-1415003578428999936,0.0,463.22853547119064,-2070.517594446329,0.0,0,9,0.0,17,34635,487,18.0,-41.56775309517713,0.14999,16,0.0,0.0,1600875010,,,,0,8.044165869294218,3,6.0,18.0,0.0,0.0,80.13176432772813,66.7128,C,,
Raw,1730968371441,11013000000,18,33353073.878863223,-1415003578428999936,0.0,463.22853547119064,-2070.517594446329,0.0,0,8,0.0,17,627624,74,31.0,-1362.4491839334487,0.14999,16,0.0,0.0,1605374980,,,,0,12.451187727791753,3,6.0,31.0,0.0,0.0,80.13176432772813,66.7128,C,,
Raw,1730968371441,11013000000,18,33353073.878863223,-1415003578428999936,0.0,463.22853547119064,-2070.517594446329,0.0,0,7,0.0,17,919232,487,20.0,-942.5700669581033,0.14999,16,0.0,0.0,1604812540,,,,0,0.6436936674280247,3,6.0,20.0,0.0,0.0,80.13176432772813,66.7128,C,,
Raw,1730968372440,12013000000,18,33353073.878863223,-1415003578427000064,0.0,453.53712833578646,-2085.557356233169,0.0,0,3,0.0,47,376390370539574,396,25.048999786376953,-320.88070804434574,0.14999,16,0.0,0.0,1575420030,,,,0,5.109372382393809,1,6.0,25.048999786376953,0.0,0.0,0.0,66.7128,C,,
Raw,1730968372440,12013000000,18,33353073.878863223,-1415003578427000064,0.0,453.53712833578646,-2085.557356233169,0.0,0,16,0.0,47,376390367593108,797,21.80299949645996,-74.41430358106761,0.14999,16,0.0,0.0,1575420030,,,,0,0.2437082814487767,1,6.0,21.80299949645996,0.0,0.0,0.0,66.7128,C,,
Raw,1730968372440,12013000000,18,33353073.878863223,-1415003578427000064,0.0,453.53712833578646,-2085.557356233169,0.0,0,4,0.0,47,376390369164650,797,23.827999114990234,-1000.8276437105486,0.14999,16,0.0,0.0,1575420030,,,,0,3.3314418960455763,1,6.0,23.827999114990234,0.0,0.0,0.0,66.7128,C,,
Raw,1730968372440,12013000000,18,33353073.878863223,-1415003578427000064,0.0,453.53712833578646,-2085.557356233169,0.0,0,27,0.0,47,376390366481351,797,18.47800064086914,-801.0810769658256,0.14999,16,0.0,0.0,1575420030,,,,0,0.0,1,6.0,18.47800064086914,0.0,0.0,0.0,66.7128,C,,
Raw,1730968372440,12013000000,18,33353073.878863223,-1415003578427000064,0.0,453.53712833578646,-2085.557356233169,0.0,0,9,0.0,47,376390363584363,396,28.315000534057617,-1173.612347357983,0.14999,16,0.0,0.0,1575420030,,,,0,9.459645397089627,1,6.0,28.315000534057617,0.0,0.0,0.0,66.7128,C,,
Raw,1730968372440,12013000000,18,33353073.878863223,-1415003578427000064,0.0,453.53712833578646,-2085.557356233169,0.0,0,7,0.0,47,376390359629000,396,23.945999145507812,-725.5419222114684,0.14999,16,0.0,0.0,1575420030,,,,0,3.5218251811136247,1,6.0,23.945999145507812,0.0,0.0,0.0,66.7128,C,,
Raw,1730968372440,12013000000,18,33353073.878863223,-1415003578427000064,0.0,453.53712833578646,-2085.557356233169,0.0,0,8,0.0,47,376390367103653,316,25.670000076293945,-1061.562824139418,0.14999,16,0.0,0.0,1575420030,,,,0,5.967475040404823,1,6.0,25.670000076293945,0.0,0.0,0.0,66.7128,C,,
Raw,1730968372440,12013000000,18,33353073.878863223,-1415003578427000064,0.0,453.53712833578646,-2085.557356233169,0.0,0,11,0.0,17,98973,396,21.5,-921.7160466650818,0.14999,16,0.0,0.0,1602000000,,,,0,4.1425098559130005,3,6.0,21.5,0.0,0.0,81.33715666922488,66.7128,C,,
Raw,1730968372440,12013000000,18,33353073.878863223,-1415003578427000064,0.0,453.53712833578646,-2085.557356233169,0.0,0,9,0.0,17,34782,797,17.0,-46.08275593745394,0.14999,16,0.0,0.0,1600875010,,,,0,8.044165869294218,3,6.0,17.0,0.0,0.0,81.33715666922488,66.7128,C,,
Raw,1730968372440,12013000000,18,33353073.878863223,-1415003578427000064,0.0,453.53712833578646,-2085.557356233169,0.0,0,8,0.0,17,632177,797,17.0,-1364.9191511889283,0.14999,16,0.0,0.0,1605374980,,,,0,1.4376401461225072,3,6.0,17.0,0.0,0.0,81.33715666922488,66.7128,C,,
Raw,1730968372440,12013000000,18,33353073.878863223,-1415003578427000064,0.0,453.53712833578646,-2085.557356233169,0.0,0,7,0.0,17,922379,396,22.0,-946.5276138919004,0.14999,16,0.0,0.0,1604812540,,,,0,3.5218251811136247,3,6.0,22.0,0.0,0.0,81.33715666922488,66.7128,C,,
Raw,1730968373438,13013000000,18,33353073.878863223,-1415003578425999872,0.0,442.5416167009977,-2098.3720010085967,0.0,0,3,0.0,47,376391369540653,396,25.20400047302246,-324.75817391969343,0.14999,16,0.0,0.0,1575420030,,,,0,5.341525791074666,1,6.0,25.20400047302246,0.0,0.0,0.0,66.7128,C,,
Raw,1730968373438,13013000000,18,33353073.878863223,-1415003578425999872,0.0,442.5416167009977,-2098.3720010085967,0.0,0,16,0.0,47,376391366593364,797,21.80299949645996,-78.65047488797691,0.14999,16,0.0,0.0,1575420030,,,,0,0.2437082814487767,1,6.0,21.80299949645996,0.0,0.0,0.0,66.7128,C,,
Raw,1730968373438,13013000000,18,33353073.878863223,-1415003578425999872,0.0,442.5416167009977,-2098.3720010085967,0.0,0,4,0.0,47,376391368167994,797,23.827999114990234,-1004.7448315317564,0.14999,16,0.0,0.0,1575420030,,,,0,3.3314418960455763,1,6.0,23.827999114990234,0.0,0.0,0.0,66.7128,C,,
Raw,1730968373438,13013000000,18,33353073.878863223,-1415003578425999872,0.0,442.5416167009977,-2098.3720010085967,0.0,0,27,0.0,47,376391365484027,797,18.47800064086914,-803.5103875494747,0.14999,16,0.0,0.0,1575420030,,,,0,0.0,1,6.0,18.47800064086914,0.0,0.0,0.0,66.7128,C,,
Raw,1730968373438,13013000000,18,33353073.878863223,-1415003578425999872,0.0,442.5416167009977,-2098.3720010085967,0.0,0,9,0.0,47,376391362588284,797,20.871000289916992,-1177.2571959433646,0.14999,16,0.0,0.0,1575420030,,,,0,0.0,1,6.0,20.871000289916992,0.0,0.0,0.0,66.7128,C,,
Raw,1730968373438,13013000000,18,33353073.878863223,-1415003578425999872,0.0,442.5416167009977,-2098.3720010085967,0.0,0,7,0.0,47,376391358631424,396,23.69499969482422,-729.9630909317281,0.14999,16,0.0,0.0,1575420030,,,,0,3.133564360230924,1,6.0,23.69499969482422,0.0,0.0,0.0,66.7128,C,,
Raw,1730968373438,13013000000,18,33353073.878863223,-1415003578425999872,0.0,442.5416167009977,-2098.3720010085967,0.0,0,8,0.0,47,376391366107200,396,24.594999313354492,-1064.585315781243,0.14999,16,0.0,0.0,1575420030,,,,0,4.465406735023011,1,6.0,24.594999313354492,0.0,0.0,0.0,66.7128,C,,
Raw,1730968373438,13013000000,18,33353073.878863223,-1415003578425999872,0.0,442.5416167009977,-2098.3720010085967,0.0,0,11,0.0,17,102066,396,21.0,-925.414731144847,0.14999,16,0.0,0.0,1602000000,,,,0,3.304666629349459,3,6.0,21.0,0.0,0.0,83.82209225985467,66.7128,C,,
Raw,1730968373438,13013000000,18,33353073.878863223,-1415003578425999872,0.0,442.5416167009977,-2098.3720010085967,0.0,0,9,0.0,17,34919,1797,14.0,-50.09561936039861,0.14999,16,0.0,0.0,1600875010,,,,0,0.0,3,6.0,14.0,0.0,0.0,83.82209225985467,66.7128,C,,
Raw,1730968373438,13013000000,18,33353073.878863223,-1415003578425999872,0.0,442.5416167009977,-2098.3720010085967,0.0,0,7,0.0,17,925543,396,23.0,-948.5550505825569,0.14999,16,0.0,0.0,1604812540,,,,0,4.4917757396477045,3,6.0,23.0,0.0,0.0,83.82209225985467,66.7128,C,,
Raw,1730968374438,14013000000,18,33353073.878863223,-1415003578425999872,0.0,423.7164137346545,-2105.972688033952,0.0,0,3,0.0,47,376392369541741,396,22.611000061035156,-327.0005590657194,0.14999,16,0.0,0.0,1575420030,,,,0,1.541649535522331,1,6.0,22.611000061035156,0.0,0.0,0.0,66.7128,C,,
Raw,1730968374438,14013000000,18,33353073.878863223,-1415003578425999872,0.0,423.7164137346545,-2105.972688033952,0.0,0,16,0.0,47,376392366593675,797,13.300000190734863,-81.05446563479123,0.14999,16,0.0,0.0,1575420030,,,,0,0.0,1,6.0,13.300000190734863,0.0,0.0,0.0,66.7128,C,,
Raw,1730968374438,14013000000,18,33353073.878863223,-1415003578425999872,0.0,423.7164137346545,-2105.972688033952,0.0,0,4,0.0,47,376392368171361,235,26.993000030517578,-1006.201581630454,0.14999,16,0.0,0.0,1575420030,,,,0,7.755442298016481,1,6.0,26.993000030517578,0.0,0.0,0.0,66.7128,C,,
Raw,1730968374438,14013000000,18,33353073.878863223,-1415003578425999872,0.0,423.7164137346545,-2105.972688033952,0.0,0,27,0.0,47,376392365486711,797,12.699999809265137,-805.2610335891201,0.14999,16,0.0,0.0,1575420030,,,,0,0.0,1,6.0,12.699999809265137,0.0,0.0,0.0,66.7128,C,,
Raw,1730968374438,14013000000,18,33353073.878863223,-1415003578425999872,0.0,423.7164137346545,-2105.972688033952,0.0,0,9,0.0,47,376392362592213,797,20.871000289916992,-1178.8230304033248,0.14999,16,0.0,0.0,1575420030,,,,0,0.0,1,6.0,20.871000289916992,0.0,0.0,0.0,66.7128,C,,
Raw,1730968374438,14013000000,18,33353073.878863223,-1415003578425999872,0.0,423.7164137346545,-2105.972688033952,0.0,0,7,0.0,47,376392358633863,316,24.702999114990234,-732.629153604386,0.14999,16,0.0,0.0,1575420030,,,,0,4.6005291179127585,1,6.0,24.702999114990234,0.0,0.0,0.0,66.7128,C,,
Raw,1730968374438,14013000000,18,33353073.878863223,-1415003578425999872,0.0,423.7164137346545,-2105.972688033952,0.0,0,8,0.0,47,376392366110754,487,20.341999053955078,-1066.9312799662102,0.14999,16,0.0,0.0,1575420030,,,,0,0.0,1,6.0,20.341999053955078,0.0,0.0,0.0,66.7128,C,,
Raw,1730968374438,14013000000,18,33353073.878863223,-1415003578425999872,0.0,423.7164137346545,-2105.972688033952,0.0,0,11,0.0,17,105156,487,19.0,-929.8636058409983,0.14999,16,0.0,0.0,1602000000,,,,0,0.0,3,6.0,19.0,0.0,0.0,91.34686417653289,66.7128,C,,
Raw,1730968374438,14013000000,18,33353073.878863223,-1415003578425999872,0.0,423.7164137346545,-2105.972688033952,0.0,0,9,0.0,17,35088,1797,14.0,-52.05575987984018,0.14999,16,0.0,0.0,1600875010,,,,0,0.0,3,6.0,14.0,0.0,0.0,91.34686417653289,66.7128,C,,
Raw,1730968374438,14013000000,18,33353073.878863223,-1415003578425999872,0.0,423.7164137346545,-2105.972688033952,0.0,0,7,0.0,17,928713,396,22.0,-952.0663735414275,0.14999,16,0.0,0.0,1604812540,,,,0,2.003919789105681,3,6.0,22.0,0.0,0.0,91.34686417653289,66.7128,C,,
Raw,1730968375443,15013000000,18,33353073.878863223,-1415003578430000128,0.0,411.7910494303138,-2110.219334383645,0.0,0,3,0.0,47,376393373542837,316,24.194000244140625,-328.5981710823674,0.14999,16,0.0,0.0,1575420030,,,,0,3.8964768797528215,1,6.0,24.194000244140625,0.0,0.0,0.0,66.7128,C,,
Raw,1730968375443,15013000000,18,33353073.878863223,-1415003578430000128,0.0,411.7910494303138,-2110.219334383645,0.0,0,16,0.0,47,376393370593953,797,19.009000778198242,-82.05178845558285,0.14999,16,0.0,0.0,1575420030,,,,0,0.0,1,6.0,19.009000778198242,0.0,0.0,0.0,66.7128,C,,
Raw,1730968375443,15013000000,18,33353073.878863223,-1415003578430000128,0.0,411.7910494303138,-2110.219334383645,0.0,0,4,0.0,47,376393372174725,235,27.35700035095215,-1007.7934328034919,0.14999,16,0.0,0.0,1575420030,,,,0,8.213453613574767,1,6.0,27.35700035095215,0.0,0.0,0.0,66.7128,C,,
Raw,1730968375443,15013000000,18,33353073.878863223,-1415003578430000128,0.0,411.7910494303138,-2110.219334383645,0.0,0,27,0.0,47,376393369489396,797,17.781999588012695,-806.6638919250136,0.14999,16,0.0,0.0,1575420030,,,,0,0.0,1,6.0,17.781999588012695,0.0,0.0,0.0,66.7128,C,,
Raw,1730968375443,15013000000,18,33353073.878863223,-1415003578430000128,0.0,411.7910494303138,-2110.219334383645,0.0,0,7,0.0,47,376393362636310,396,22.893999099731445,-735.0410887403723,0.14999,16,0.0,0.0,1575420030,,,,0,1.9525452504374743,1,6.0,22.893999099731445,0.0,0.0,0.0,66.7128,C,,
Raw,1730968375443,15013000000,18,33353073.878863223,-1415003578430000128,0.0,411.7910494303138,-2110.219334383645,0.0,0,8,0.0,47,376393370114313,487,20.341999053955078,-1067.3171635712552,0.14999,16,0.0,0.0,1575420030,,,,0,0.0,1,6.0,20.341999053955078,0.0,0.0,0.0,66.7128,C,,
Raw,1730968375443,15013000000,18,33353073.878863223,-1415003578430000128,0.0,411.7910494303138,-2110.219334383645,0.0,0,11,0.0,17,108256,487,20.0,-927.7137306386683,0.14999,16,0.0,0.0,1602000000,,,,0,1.3389357926122645,3,6.0,20.0,0.0,0.0,97.95552268585458,66.7128,C,,
Raw,1730968375443,15013000000,18,33353073.878863223,-1415003578430000128,0.0,411.7910494303138,-2110.219334383645,0.0,0,9,0.0,17,35264,1797,14.0,-53.28232787964376,0.14999,16,0.0,0.0,1600875010,,,,0,0.0,3,6.0,14.0,0.0,0.0,97.95552268585458,66.7128,C,,
Raw,1730968375443,15013000000,18,33353073.878863223,-1415003578430000128,0.0,411.7910494303138,-2110.219334383645,0.0,0,7,0.0,17,931889,396,23.0,-950.4012429890392,0.14999,16,0.0,0.0,1604812540,,,,0,3.1473754047740026,3,6.0,23.0,0.0,0.0,97.95552268585458,66.7128,C,,
Raw,1730968376444,16013000000,18,33353073.878863223,-1415003578431000064,0.0,406.1754905583637,-2112.6104028989625,0.0,0,3,0.0,47,376394374543934,487,22.790000915527344,-329.1451957040384,0.14999,16,0.0,0.0,1575420030,,,,0,1.7788216667356216,1,6.0,22.790000915527344,0.0,0.0,0.0,66.7128,C,,
Raw,1730968376444,16013000000,18,33353073.878863223,-1415003578431000064,0.0,406.1754905583637,-2112.6104028989625,0.0,0,16,0.0,47,376394371594227,797,19.009000778198242,-82.13383401861066,0.14999,16,0.0,0.0,1575420030,,,,0,0.0,1,6.0,19.009000778198242,0.0,0.0,0.0,66.7128,C,,
Raw,1730968376444,16013000000,18,33353073.878863223,-1415003578431000064,0.0,406.1754905583637,-2112.6104028989625,0.0,0,4,0.0,47,376394373178087,316,24.451000213623047,-1008.2738128271089,0.14999,16,0.0,0.0,1575420030,,,,0,4.255634592920579,1,6.0,24.451000213623047,0.0,0.0,0.0,66.7128,C,,
Raw,1730968376444,16013000000,18,33353073.878863223,-1415003578431000064,0.0,406.1754905583637,-2112.6104028989625,0.0,0,27,0.0,47,376394370492104,396,21.815000534057617,-807.5277397160323,0.14999,16,0.0,0.0,1575420030,,,,0,0.2476796223061014,1,6.0,21.815000534057617,0.0,0.0,0.0,66.7128,C,,
Raw,1730968376444,16013000000,18,33353073.878863223,-1415003578431000064,0.0,406.1754905583637,-2112.6104028989625,0.0,0,7,0.0,47,376394363638759,487,21.27199935913086,-736.472240251738,0.14999,16,0.0,0.0,1575420030,,,,0,0.0,1,6.0,21.27199935913086,0.0,0.0,0.0,66.7128,C,,
Raw,1730968376444,16013000000,18,33353073.878863223,-1415003578431000064,0.0,406.1754905583637,-2112.6104028989625,0.0,0,8,0.0,47,376394371117874,487,21.04800033569336,-1067.5027184855999,0.14999,16,0.0,0.0,1575420030,,,,0,0.0,1,6.0,21.04800033569336,0.0,0.0,0.0,66.7128,C,,
Raw,1730968376444,16013000000,18,33353073.878863223,-1415003578431000064,0.0,406.1754905583637,-2112.6104028989625,0.0,0,11,0.0,17,111355,396,23.0,-927.7965165504886,0.14999,16,0.0,0.0,1602000000,,,,0,4.9673376438272285,3,6.0,23.0,0.0,0.0,99.02182562069247,66.7128,C,,
Raw,1730968376444,16013000000,18,33353073.878863223,-1415003578431000064,0.0,406.1754905583637,-2112.6104028989625,0.0,0,9,0.0,17,35460,1797,14.0,-53.96634024899896,0.14999,16,0.0,0.0,1600875010,,,,0,0.0,3,6.0,14.0,0.0,0.0,99.02182562069247,66.7128,C,,
Raw,1730968376444,16013000000,18,33353073.878863223,-1415003578431000064,0.0,406.1754905583637,-2112.6104028989625,0.0,0,7,0.0,17,935066,396,21.0,-953.1090526619067,0.14999,16,0.0,0.0,1604812540,,,,0,0.7464864604762458,3,6.0,21.0,0.0,0.0,99.02182562069247,66.7128,C,,
Raw,1730968376444,16013000000,18,33353073.878863223,-1415003578431000064,0.0,406.1754905583637,-2112.6104028989625,0.0,0,9,0.0,47,376394367600142,797,17.38599967956543,-1180.975262992694,0.14999,16,0.0,0.0,1575420030,,,,0,0.0,1,6.0,17.38599967956543,0.0,0.0,0.0,66.7128,C,,
Raw,1730968377444,17013000000,18,33353073.878863223,-1415003578431000064,0.0,402.47379232905905,-2120.647668546161,0.0,0,3,0.0,47,376395374545039,487,20.190000534057617,-332.063852785633,0.14999,16,0.0,0.0,1575420030,,,,0,0.0,1,6.0,20.190000534057617,0.0,0.0,0.0,66.7128,C,,
Raw,1730968377444,17013000000,18,33353073.878863223,-1415003578431000064,0.0,402.47379232905905,-2120.647668546161,0.0,0,16,0.0,47,376395371594504,797,19.009000778198242,-84.11876985120591,0.14999,16,0.0,0.0,1575420030,,,,0,0.0,1,6.0,19.009000778198242,0.0,0.0,0.0,66.7128,C,,
Raw,1730968377444,17013000000,18,33353073.878863223,-1415003578431000064,0.0,402.47379232905905,-2120.647668546161,0.0,0,4,0.0,47,376395373181452,316,27.117000579833984,-1010.8927666657294,0.14999,16,0.0,0.0,1575420030,,,,0,7.901182120446165,1,6.0,27.117000579833984,0.0,0.0,0.0,66.7128,C,,
Raw,1730968377444,17013000000,18,33353073.878863223,-1415003578431000064,0.0,402.47379232905905,-2120.647668546161,0.0,0,27,0.0,47,376395370494820,487,23.395999908447266,-809.4928378049057,0.14999,16,0.0,0.0,1575420030,,,,0,2.7202525559057493,1,6.0,23.395999908447266,0.0,0.0,0.0,66.7128,C,,
Raw,1730968377444,17013000000,18,33353073.878863223,-1415003578431000064,0.0,402.47379232905905,-2120.647668546161,0.0,0,7,0.0,47,376395363641215,487,19.600000381469727,-738.9519582169754,0.14999,16,0.0,0.0,1575420030,,,,0,0.0,1,6.0,19.600000381469727,0.0,0.0,0.0,66.7128,C,,
Raw,1730968377444,17013000000,18,33353073.878863223,-1415003578431000064,0.0,402.47379232905905,-2120.647668546161,0.0,0,8,0.0,47,376395371121431,396,21.139999389648438,-1069.9222728018449,0.14999,16,0.0,0.0,1575420030,,,,0,1.9525452504374743,1,6.0,21.139999389648438,0.0,0.0,0.0,66.7128,C,,
Raw,1730968377444,17013000000,18,33353073.878863223,-1415003578431000064,0.0,402.47379232905905,-2120.647668546161,0.0,0,11,0.0,17,114455,74,30.0,-931.068113445432,0.14999,16,0.0,0.0,1602000000,,,,0,12.548834450338388,3,6.0,30.0,0.0,0.0,103.34250321417589,66.7128,C,,
Raw,1730968377444,17013000000,18,33353073.878863223,-1415003578431000064,0.0,402.47379232905905,-2120.647668546161,0.0,0,9,0.0,17,35643,797,15.0,-56.48796435296371,0.14999,16,0.0,0.0,1600875010,,,,0,0.0,3,6.0,15.0,0.0,0.0,103.34250321417589,66.7128,C,,
Raw,1730968377444,17013000000,18,33353073.878863223,-1415003578431000064,0.0,402.47379232905905,-2120.647668546161,0.0,0,7,0.0,17,938249,396,22.0,-955.9275061781075,0.14999,16,0.0,0.0,1604812540,,,,0,0.6436936674280247,3,6.0,22.0,0.0,0.0,103.34250321417589,66.7128,C,,
Raw,1730968377444,17013000000,18,33353073.878863223,-1415003578431000064,0.0,402.47379232905905,-2120.647668546161,0.0,0,9,0.0,47,376395367604064,797,14.699999809265137,-1184.3675636275552,0.14999,16,0.0,0.0,1575420030,,,,0,0.0,1,6.0,14.699999809265137,0.0,0.0,0.0,66.7128,C,,
Raw,1730968378444,18013000000,18,33353073.878863223,-1415003578431000064,0.0,399.1938081669486,-2125.477134797938,0.0,0,3,0.0,47,376396374546148,487,20.246000289916992,-333.69691257384966,0.14999,16,0.0,0.0,1575420030,,,,0,0.0,1,6.0,20.246000289916992,0.0,0.0,0.0,66.7128,C,,
Raw,1730968378444,18013000000,18,33353073.878863223,-1415003578431000064,0.0,399.1938081669486,-2125.477134797938,0.0,0,16,0.0,47,376396371594785,797,18.076000213623047,-85.74848463345538,0.14999,16,0.0,0.0,1575420030,,,,0,0.0,1,6.0,18.076000213623047,0.0,0.0,0.0,66.7128,C,,
Raw,1730968378444,18013000000,18,33353073.878863223,-1415003578431000064,0.0,399.1938081669486,-2125.477134797938,0.0,0,4,0.0,47,376396373184824,74,30.23200035095215,-1011.8828884320084,0.14999,16,0.0,0.0,1575420030,,,,0,11.832328850576634,1,6.0,30.23200035095215,0.0,0.0,0.0,66.7128,C,,
Raw,1730968378444,18013000000,18,33353073.878863223,-1415003578431000064,0.0,399.1938081669486,-2125.477134797938,0.0,0,27,0.0,47,376396370497523,797,23.395999908447266,-810.9502383214302,0.14999,16,0.0,0.0,1575420030,,,,0,2.7202525559057493,1,6.0,23.395999908447266,0.0,0.0,0.0,66.7128,C,,
Raw,1730968378444,18013000000,18,33353073.878863223,-1415003578431000064,0.0,399.1938081669486,-2125.477134797938,0.0,0,7,0.0,47,376396363643683,396,19.600000381469727,-741.154551729517,0.14999,16,0.0,0.0,1575420030,,,,0,0.0,1,6.0,19.600000381469727,0.0,0.0,0.0,66.7128,C,,
Raw,1730968378444,18013000000,18,33353073.878863223,-1415003578431000064,0.0,399.1938081669486,-2125.477134797938,0.0,0,8,0.0,47,376396371125003,487,21.226999282836914,-1071.457073039776,0.14999,16,0.0,0.0,1575420030,,,,0,1.9525452504374743,1,6.0,21.226999282836914,0.0,0.0,0.0,66.7128,C,,
Raw,1730968378444,18013000000,18,33353073.878863223,-1415003578431000064,0.0,399.1938081669486,-2125.477134797938,0.0,0,11,0.0,17,117567,74,30.0,-931.3855508159222,0.14999,16,0.0,0.0,1602000000,,,,0,11.75505052576171,3,6.0,30.0,0.0,0.0,105.29058779671293,66.7128,C,,
Raw,1730968378444,18013000000,18,33353073.878863223,-1415003578431000064,0.0,399.1938081669486,-2125.477134797938,0.0,0,9,0.0,17,35839,797,16.0,-58.024100413251475,0.14999,16,0.0,0.0,1600875010,,,,0,0.0,3,6.0,16.0,0.0,0.0,105.29058779671293,66.7128,C,,
Raw,1730968378444,18013000000,18,33353073.878863223,-1415003578431000064,0.0,399.1938081669486,-2125.477134797938,0.0,0,7,0.0,17,941439,396,22.0,-956.4608405160868,0.14999,16,0.0,0.0,1604812540,,,,0,3.1473754047740026,3,6.0,22.0,0.0,0.0,105.29058779671293,66.7128,C,,
Raw,1730968378444,18013000000,18,33353073.878863223,-1415003578431000064,0.0,399.1938081669486,-2125.477134797938,0.0,0,9,0.0,47,376396367608020,797,14.699999809265137,-1186.596266770007,0.14999,16,0.0,0.0,1575420030,,,,0,0.0,1,6.0,14.699999809265137,0.0,0.0,0.0,66.7128,C,,
Raw,1730968379443,19013000000,18,32441119.649514332,-1415003578430000128,0.0,392.90677951870737,-2130.9113843037035,0.0,0,3,0.0,47,376397373547265,797,20.288000106811523,-335.05117540638685,0.14999,16,0.0,0.0,1575420030,,,,0,0.0,1,6.0,20.288000106811523,0.0,0.0,0.0,66.7128,C,,
Raw,1730968379443,19013000000,18,32441119.649514332,-1415003578430000128,0.0,392.90677951870737,-2130.9113843037035,0.0,0,16,0.0,47,376397370595074,797,18.076000213623047,-87.47487937983898,0.14999,16,0.0,0.0,1575420030,,,,0,0.0,1,6.0,18.076000213623047,0.0,0.0,0.0,66.7128,C,,
Raw,1730968379443,19013000000,18,32441119.649514332,-1415003578430000128,0.0,392.90677951870737,-2130.9113843037035,0.0,0,4,0.0,47,376397372188200,396,24.165000915527344,-1012.9376803136524,0.14999,16,0.0,0.0,1575420030,,,,0,3.850519684507232,1,6.0,24.165000915527344,0.0,0.0,0.0,66.7128,C,,
Raw,1730968379443,19013000000,18,32441119.649514332,-1415003578430000128,0.0,392.90677951870737,-2130.9113843037035,0.0,0,27,0.0,47,376397369500236,797,16.871999740600586,-812.6119629524487,0.14999,16,0.0,0.0,1575420030,,,,0,0.0,1,6.0,16.871999740600586,0.0,0.0,0.0,66.7128,C,,
Raw,1730968379443,19013000000,18,32441119.649514332,-1415003578430000128,0.0,392.90677951870737,-2130.9113843037035,0.0,0,7,0.0,47,376397362646149,487,20.43899917602539,-742.3069527436195,0.14999,16,0.0,0.0,1575420030,,,,0,0.0,1,6.0,20.43899917602539,0.0,0.0,0.0,66.7128,C,,
Raw,1730968379443,19013000000,18,32441119.649514332,-1415003578430000128,0.0,392.90677951870737,-2130.9113843037035,0.0,0,8,0.0,47,376397370128580,797,21.121999740600586,-1072.6465943284309,0.14999,16,0.0,0.0,1575420030,,,,0,0.0,1,6.0,21.121999740600586,0.0,0.0,0.0,66.7128,C,,
Raw,1730968379443,19013000000,18,32441119.649514332,-1415003578430000128,0.0,392.90677951870737,-2130.9113843037035,0.0,0,11,0.0,17,120680,396,23.0,-932.5037088765697,0.14999,16,0.0,0.0,1602000000,,,,0,0.0,3,6.0,23.0,0.0,0.0,106.44713887384346,66.7128,C,,
Raw,1730968379443,19013000000,18,32441119.649514332,-1415003578430000128,0.0,392.90677951870737,-2130.9113843037035,0.0,0,9,0.0,17,36036,797,15.0,-59.49718901298576,0.14999,16,0.0,0.0,1600875010,,,,0,0.0,3,6.0,15.0,0.0,0.0,106.44713887384346,66.7128,C,,
Raw,1730968379443,19013000000,18,32441119.649514332,-1415003578430000128,0.0,392.90677951870737,-2130.9113843037035,0.0,0,7,0.0,17,944634,797,17.0,-956.9782122220931,0.14999,16,0.0,0.0,1604812540,,,,0,0.0,3,6.0,17.0,0.0,0.0,106.44713887384346,66.7128,C,,
Raw,1730968379443,19013000000,18,32441119.649514332,-1415003578430000128,0.0,392.90677951870737,-2130.9113843037035,0.0,0,9,0.0,47,376397366611980,797,14.699999809265137,-1188.113970310773,0.14999,16,0.0,0.0,1575420030,,,,0,0.0,1,6.0,14.699999809265137,0.0,0.0,0.0,66.7128,C,,
Raw,1730968380441,20013000000,18,30689064.232563183,-1415003578428999936,0.0,387.17891455910245,-2132.189515056977,0.0,0,3,0.0,47,376398372548382,797,20.211000442504883,-335.1779139658092,0.14999,16,0.0,0.0,1575420030,,,,0,0.0,1,6.0,20.211000442504883,0.0,0.0,0.0,66.7128,C,,
Raw,1730968380441,20013000000,18,30689064.232563183,-1415003578428999936,0.0,387.17891455910245,-2132.189515056977,0.0,0,16,0.0,47,376398369595391,1797,12.600000381469727,-87.49903775626846,0.14999,16,0.0,0.0,1575420030,,,,0,0.0,1,6.0,12.600000381469727,0.0,0.0,0.0,66.7128,C,,
Raw,1730968380441,20013000000,18,30689064.232563183,-1415003578428999936,0.0,387.17891455910245,-2132.189515056977,0.0,0,4,0.0,47,376398371191582,487,20.958999633789062,-1013.8246643959441,0.14999,16,0.0,0.0,1575420030,,,,0,0.0,1,6.0,20.958999633789062,0.0,0.0,0.0,66.7128,C,,
Raw,1730968380441,20013000000,18,30689064.232563183,-1415003578428999936,0.0,387.17891455910245,-2132.189515056977,0.0,0,27,0.0,47,376398368502945,797,16.871999740600586,-812.3202040986466,0.14999,16,0.0,0.0,1575420030,,,,0,0.0,1,6.0,16.871999740600586,0.0,0.0,0.0,66.7128,C,,
Raw,1730968380441,20013000000,18,30689064.232563183,-1415003578428999936,0.0,387.17891455910245,-2132.189515056977,0.0,0,7,0.0,47,376398361648625,797,20.43899917602539,-742.573205926922,0.14999,16,0.0,0.0,1575420030,,,,0,0.0,1,6.0,20.43899917602539,0.0,0.0,0.0,66.7128,C,,
Raw,1730968380441,20013000000,18,30689064.232563183,-1415003578428999936,0.0,387.17891455910245,-2132.189515056977,0.0,0,8,0.0,47,376398369132160,487,21.02199935913086,-1073.2724821116192,0.14999,16,0.0,0.0,1575420030,,,,0,0.0,1,6.0,21.02199935913086,0.0,0.0,0.0,66.7128,C,,
Raw,1730968380441,20013000000,18,30689064.232563183,-1415003578428999936,0.0,387.17891455910245,-2132.189515056977,0.0,0,11,0.0,17,123751,487,19.0,-934.274468462848,0.14999,16,0.0,0.0,1602000000,,,,0,0.0,3,6.0,19.0,0.0,0.0,108.70787691505886,66.7128,C,,
Raw,1730968380441,20013000000,18,30689064.232563183,-1415003578428999936,0.0,387.17891455910245,-2132.189515056977,0.0,0,9,0.0,17,36234,797,15.0,-59.70439067450021,0.14999,16,0.0,0.0,1600875010,,,,0,0.0,3,6.0,15.0,0.0,0.0,108.70787691505886,66.7128,C,,
Raw,1730968380441,20013000000,18,30689064.232563183,-1415003578428999936,0.0,387.17891455910245,-2132.189515056977,0.0,0,7,0.0,17,947829,797,16.0,-957.8312552747327,0.14999,16,0.0,0.0,1604812540,,,,0,0.0,3,6.0,16.0,0.0,0.0,108.70787691505886,66.7128,C,,
Raw,1730968380441,20013000000,18,30689064.232563183,-1415003578428999936,0.0,387.17891455910245,-2132.189515056977,0.0,0,9,0.0,47,376398365615934,1797,14.65999984741211,-1188.4033133269322,0.14999,16,0.0,0.0,1575420030,,,,0,0.0,1,6.0,14.65999984741211,0.0,0.0,0.0,66.7128,C,,
Raw,1730968381441,21013000000,18,28598104.35924976,-1415003578428000000,0.0,376.29405483211406,-2135.8345528492987,0.0,0,3,0.0,47,376399371549501,487,20.13800048828125,-336.4013963567137,0.14999,16,0.0,0.0,1575420030,,,,0,0.0,1,6.0,20.13800048828125,0.0,0.0,0.0,66.7128,C,,
Raw,1730968381441,21013000000,18,28598104.35924976,-1415003578428000000,0.0,376.29405483211406,-2135.8345528492987,0.0,0,16,0.0,47,376399368595684,797,12.600000381469727,-88.24831909291203,0.14999,16,0.0,0.0,1575420030,,,,0,0.0,1,6.0,12.600000381469727,0.0,0.0,0.0,66.7128,C,,
Raw,1730968381441,21013000000,18,28598104.35924976,-1415003578428000000,0.0,376.29405483211406,-2135.8345528492987,0.0,0,4,0.0,47,376399370194966,396,24.479000091552734,-1014.4874401616036,0.14999,16,0.0,0.0,1575420030,,,,0,4.299502815653676,1,6.0,24.479000091552734,0.0,0.0,0.0,66.7128,C,,
Raw,1730968381441,21013000000,18,28598104.35924976,-1415003578428000000,0.0,376.29405483211406,-2135.8345528492987,0.0,0,27,0.0,47,376399367505656,797,16.871999740600586,-812.7346131712445,0.14999,16,0.0,0.0,1575420030,,,,0,0.0,1,6.0,16.871999740600586,0.0,0.0,0.0,66.7128,C,,
Raw,1730968381441,21013000000,18,28598104.35924976,-1415003578428000000,0.0,376.29405483211406,-2135.8345528492987,0.0,0,7,0.0,47,376399360651104,487,20.43899917602539,-743.6518309760821,0.14999,16,0.0,0.0,1575420030,,,,0,0.0,1,6.0,20.43899917602539,0.0,0.0,0.0,66.7128,C,,
Raw,1730968381441,21013000000,18,28598104.35924976,-1415003578428000000,0.0,376.29405483211406,-2135.8345528492987,0.0,0,8,0.0,47,376399368135739,797,16.20400047302246,-1074.8178748684466,0.14999,16,0.0,0.0,1575420030,,,,0,0.0,1,6.0,16.20400047302246,0.0,0.0,0.0,66.7128,C,,
Raw,1730968381441,21013000000,18,28598104.35924976,-1415003578428000000,0.0,376.29405483211406,-2135.8345528492987,0.0,0,11,0.0,17,126866,487,20.0,-934.8246384132573,0.14999,16,0.0,0.0,1602000000,,,,0,0.0,3,6.0,20.0,0.0,0.0,113.63179418897236,66.7128,C,,
Raw,1730968381441,21013000000,18,28598104.35924976,-1415003578428000000,0.0,376.29405483211406,-2135.8345528492987,0.0,0,9,0.0,17,36434,797,16.0,-60.40472497526773,0.14999,16,0.0,0.0,1600875010,,,,0,0.0,3,6.0,16.0,0.0,0.0,113.63179418897236,66.7128,C,,
Raw,1730968381441,21013000000,18,28598104.35924976,-1415003578428000000,0.0,376.29405483211406,-2135.8345528492987,0.0,0,7,0.0,17,951027,487,20.0,-958.541090714814,0.14999,16,0.0,0.0,1604812540,,,,0,0.48118768386321387,3,6.0,20.0,0.0,0.0,113.63179418897236,66.7128,C,,
Raw,1730968381441,21013000000,18,28598104.35924976,-1415003578428000000,0.0,376.29405483211406,-2135.8345528492987,0.0,0,31,0.0,47,376399357202234,797,15.887999534606934,-320.72137890595167,0.14999,16,0.0,0.0,1575420030,,,,0,0.0,1,6.0,15.887999534606934,0.0,0.0,0.0,66.7128,C,,
Raw,1730968381441,21013000000,18,28598104.35924976,-1415003578428000000,0.0,376.29405483211406,-2135.8345528492987,0.0,0,9,0.0,47,376399364619900,797,14.621999740600586,-1189.5077227970892,0.14999,16,0.0,0.0,1575420030,,,,0,0.0,1,6.0,14.621999740600586,0.0,0.0,0.0,66.7128,C,,
Raw,1730968382437,22013000000,18,27486111.742010534,-1415003578424000000,0.0,370.0479734975,-2138.946561749762,0.0,0,3,0.0,47,376400367550623,487,20.069000244140625,-336.57747375415164,0.14999,16,0.0,0.0,1575420030,,,,0,0.0,1,6.0,20.069000244140625,0.0,0.0,0.0,66.7128,C,,
Raw,1730968382437,22013000000,18,27486111.742010534,-1415003578424000000,0.0,370.0479734975,-2138.946561749762,0.0,0,16,0.0,47,376400364595983,487,21.139999389648438,-89.1880799360188,0.14999,16,0.0,0.0,1575420030,,,,0,0.0,1,6.0,21.139999389648438,0.0,0.0,0.0,66.7128,C,,
Raw,1730968382437,22013000000,18,27486111.742010534,-1415003578424000000,0.0,370.0479734975,-2138.946561749762,0.0,0,4,0.0,47,376400366198347,396,24.339000701904297,-1015.2999049442934,0.14999,16,0.0,0.0,1575420030,,,,0,4.077911980769602,1,6.0,24.339000701904297,0.0,0.0,0.0,66.7128,C,,
Raw,1730968382437,22013000000,18,27486111.742010534,-1415003578424000000,0.0,370.0479734975,-2138.946561749762,0.0,0,27,0.0,47,376400363508376,797,16.905000686645508,-814.0338692389885,0.14999,16,0.0,0.0,1575420030,,,,0,0.0,1,6.0,16.905000686645508,0.0,0.0,0.0,66.7128,C,,
Raw,1730968382437,22013000000,18,27486111.742010534,-1415003578424000000,0.0,370.0479734975,-2138.946561749762,0.0,0,7,0.0,47,376400356653569,487,20.378999710083008,-744.1957196546589,0.14999,16,0.0,0.0,1575420030,,,,0,0.0,1,6.0,20.378999710083008,0.0,0.0,0.0,66.7128,C,,
Raw,1730968382437,22013000000,18,27486111.742010534,-1415003578424000000,0.0,370.0479734975,-2138.946561749762,0.0,0,8,0.0,47,376400364139375,487,19.07200050354004,-1075.5945666706543,0.14999,16,0.0,0.0,1575420030,,,,0,0.0,1,6.0,19.07200050354004,0.0,0.0,0.0,66.7128,C,,
Raw,1730968382437,22013000000,18,27486111.742010534,-1415003578424000000,0.0,370.0479734975,-2138.946561749762,0.0,0,11,0.0,17,129987,316,24.0,-935.5286841644453,0.14999,16,0.0,0.0,1602000000,,,,0,4.149994466146108,3,6.0,24.0,0.0,0.0,116.37376905835258,66.7128,C,,
Raw,1730968382437,22013000000,18,27486111.742010534,-1415003578424000000,0.0,370.0479734975,-2138.946561749762,0.0,0,9,0.0,17,36637,797,15.0,-61.22534779577148,0.14999,16,0.0,0.0,1600875010,,,,0,0.0,3,6.0,15.0,0.0,0.0,116.37376905835258,66.7128,C,,
Raw,1730968382437,22013000000,18,27486111.742010534,-1415003578424000000,0.0,370.0479734975,-2138.946561749762,0.0,0,7,0.0,17,954229,487,20.0,-959.1356303445301,0.14999,16,0.0,0.0,1604812540,,,,0,0.0,3,6.0,20.0,0.0,0.0,116.37376905835258,66.7128,C,,
Raw,1730968382437,22013000000,18,27486111.742010534,-1415003578424000000,0.0,370.0479734975,-2138.946561749762,0.0,0,31,0.0,47,376400353203306,1797,15.887999534606934,-321.34859075400203,0.14999,16,0.0,0.0,1575420030,,,,0,0.0,1,6.0,15.887999534606934,0.0,0.0,0.0,66.7128,C,,
Raw,1730968382437,22013000000,18,27486111.742010534,-1415003578424000000,0.0,370.0479734975,-2138.946561749762,0.0,0,9,0.0,47,376400360623869,1797,12.199999809265137,-1191.1700978459346,0.14999,16,0.0,0.0,1575420030,,,,0,0.0,1,6.0,12.199999809265137,0.0,0.0,0.0,66.7128,C,,
Raw,1730968383435,23013000000,18,26489465.588890832,-1415003578422000128,0.0,367.39576331460313,-2143.267039457149,0.0,0,3,0.0,47,376401365551750,487,19.950000762939453,-337.7759150587187,0.14999,16,0.0,0.0,1575420030,,,,0,0.0,1,6.0,19.950000762939453,0.0,0.0,0.0,66.7128,C,,
Raw,1730968383435,23013000000,18,26489465.588890832,-1415003578422000128,0.0,367.39576331460313,-2143.267039457149,0.0,0,16,0.0,47,376401362596282,396,21.139999389648438,-90.04570229926533,0.14999,16,0.0,0.0,1575420030,,,,0,0.0,1,6.0,21.139999389648438,0.0,0.0,0.0,66.7128,C,,
Raw,1730968383435,23013000000,18,26489465.588890832,-1415003578422000128,0.0,367.39576331460313,-2143.267039457149,0.0,0,4,0.0,47,376401364201732,487,22.39299964904785,-1016.36055058638,0.14999,16,0.0,0.0,1575420030,,,,0,1.173288061680346,1,6.0,22.39299964904785,0.0,0.0,0.0,66.7128,C,,
Raw,1730968383435,23013000000,18,26489465.588890832,-1415003578422000128,0.0,367.39576331460313,-2143.267039457149,0.0,0,27,0.0,47,376401361511093,797,16.93600082397461,-814.9117474717028,0.14999,16,0.0,0.0,1575420030,,,,0,0.0,1,6.0,16.93600082397461,0.0,0.0,0.0,66.7128,C,,
Raw,1730968383435,23013000000,18,26489465.588890832,-1415003578422000128,0.0,367.39576331460313,-2143.267039457149,0.0,0,7,0.0,47,376401354656045,797,20.29800033569336,-745.5982992400551,0.14999,16,0.0,0.0,1575420030,,,,0,0.0,1,6.0,20.29800033569336,0.0,0.0,0.0,66.7128,C,,
Raw,1730968383435,23013000000,18,26489465.588890832,-1415003578422000128,0.0,367.39576331460313,-2143.267039457149,0.0,0,8,0.0,47,376401362142989,487,22.128000259399414,-1077.1322473303906,0.14999,16,0.0,0.0,1575420030,,,,0,0.7886101591275316,1,6.0,22.128000259399414,0.0,0.0,0.0,66.7128,C,,
Raw,1730968383435,23013000000,18,26489465.588890832,-1415003578422000128,0.0,367.39576331460313,-2143.267039457149,0.0,0,11,0.0,17,133111,487,19.0,-937.2432480158786,0.14999,16,0.0,0.0,1602000000,,,,0,0.0,3,6.0,19.0,0.0,0.0,117.60312389850132,66.7128,C,,
Raw,1730968383435,23013000000,18,26489465.588890832,-1415003578422000128,0.0,367.39576331460313,-2143.267039457149,0.0,0,9,0.0,17,36844,797,17.0,-62.641926851456354,0.14999,16,0.0,0.0,1600875010,,,,0,0.0,3,6.0,17.0,0.0,0.0,117.60312389850132,66.7128,C,,
Raw,1730968383435,23013000000,18,26489465.588890832,-1415003578422000128,0.0,367.39576331460313,-2143.267039457149,0.0,0,7,0.0,17,957433,487,18.0,-961.5851190245538,0.14999,16,0.0,0.0,1604812540,,,,0,0.0,3,6.0,18.0,0.0,0.0,117.60312389850132,66.7128,C,,
Raw,1730968383435,23013000000,18,26489465.588890832,-1415003578422000128,0.0,367.39576331460313,-2143.267039457149,0.0,0,31,0.0,47,376401351204396,1797,15.77299976348877,-322.23432045905594,0.14999,16,0.0,0.0,1575420030,,,,0,0.0,1,6.0,15.77299976348877,0.0,0.0,0.0,66.7128,C,,
Raw,1730968383435,23013000000,18,26489465.588890832,-1415003578422000128,0.0,367.39576331460313,-2143.267039457149,0.0,0,9,0.0,47,376401358627845,797,12.199999809265137,-1191.95552383039,0.14999,16,0.0,0.0,1575420030,,,,0,0.0,1,6.0,12.199999809265137,0.0,0.0,0.0,66.7128,C,,
Raw,1730968384435,24013000000,18,25934409.93101968,-1415003578422000128,0.0,365.4882394532462,-2146.0160365620113,0.0,0,3,0.0,47,376402365552821,797,16.690000534057617,-338.91219500239606,0.14999,16,0.0,0.0,1575420030,,,,0,0.0,1,6.0,16.690000534057617,0.0,0.0,0.0,66.7128,C,,
Raw,1730968384435,24013000000,18,25934409.93101968,-1415003578422000128,0.0,365.4882394532462,-2146.0160365620113,0.0,0,16,0.0,47,376402362596582,487,24.194000244140625,-90.14382247430198,0.14999,16,0.0,0.0,1575420030,,,,0,3.8964768797528215,1,6.0,24.194000244140625,0.0,0.0,0.0,66.7128,C,,
Raw,1730968384435,24013000000,18,25934409.93101968,-1415003578422000128,0.0,365.4882394532462,-2146.0160365620113,0.0,0,4,0.0,47,376402364205124,797,20.48699951171875,-1017.4257491532553,0.14999,16,0.0,0.0,1575420030,,,,0,0.0,1,6.0,20.48699951171875,0.0,0.0,0.0,66.7128,C,,
Raw,1730968384435,24013000000,18,25934409.93101968,-1415003578422000128,0.0,365.4882394532462,-2146.0160365620113,0.0,0,27,0.0,47,376402361513813,797,16.965999603271484,-815.7902761222441,0.14999,16,0.0,0.0,1575420030,,,,0,0.0,1,6.0,16.965999603271484,0.0,0.0,0.0,66.7128,C,,
Raw,1730968384435,24013000000,18,25934409.93101968,-1415003578422000128,0.0,365.4882394532462,-2146.0160365620113,0.0,0,7,0.0,47,376402354658512,487,20.30900001525879,-746.5201271345045,0.14999,16,0.0,0.0,1575420030,,,,0,0.0,1,6.0,20.30900001525879,0.0,0.0,0.0,66.7128,C,,
Raw,1730968384435,24013000000,18,25934409.93101968,-1415003578422000128,0.0,365.4882394532462,-2146.0160365620113,0.0,0,8,0.0,47,376402362146559,487,22.070999145507812,-1078.106108650996,0.14999,16,0.0,0.0,1575420030,,,,0,0.0,1,6.0,22.070999145507812,0.0,0.0,0.0,66.7128,C,,
Raw,1730968384435,24013000000,18,25934409.93101968,-1415003578422000128,0.0,365.4882394532462,-2146.0160365620113,0.0,0,11,0.0,17,136242,487,19.0,-938.531638034276,0.14999,16,0.0,0.0,1602000000,,,,0,0.0,3,6.0,19.0,0.0,0.0,119.15941521654024,66.7128,C,,
Raw,1730968384435,24013000000,18,25934409.93101968,-1415003578422000128,0.0,365.4882394532462,-2146.0160365620113,0.0,0,9,0.0,17,37051,797,17.0,-63.10799343077638,0.14999,16,0.0,0.0,1600875010,,,,0,0.0,3,6.0,17.0,0.0,0.0,119.15941521654024,66.7128,C,,
Raw,1730968384435,24013000000,18,25934409.93101968,-1415003578422000128,0.0,365.4882394532462,-2146.0160365620113,0.0,0,7,0.0,17,960638,487,20.0,-962.9190477672613,0.14999,16,0.0,0.0,1604812540,,,,0,0.0,3,6.0,20.0,0.0,0.0,119.15941521654024,66.7128,C,,
Raw,1730968384435,24013000000,18,25934409.93101968,-1415003578422000128,0.0,365.4882394532462,-2146.0160365620113,0.0,0,31,0.0,47,376402351205469,1797,15.663999557495117,-321.89926236134556,0.14999,16,0.0,0.0,1575420030,,,,0,0.0,1,6.0,15.663999557495117,0.0,0.0,0.0,66.7128,C,,
Raw,1730968384435,24013000000,18,25934409.93101968,-1415003578422000128,0.0,365.4882394532462,-2146.0160365620113,0.0,0,9,0.0,47,376402358631821,797,12.199999809265137,-1192.2680960546545,0.14999,16,0.0,0.0,1575420030,,,,0,0.0,1,6.0,12.199999809265137,0.0,0.0,0.0,66.7128,C,,
Raw,1730968385435,25013000000,18,25147675.663008172,-1415003578422000128,0.0,364.7671697302432,-2148.1059095907435,0.0,0,3,0.0,47,376403365553987,396,22.429000854492188,-340.15191460976615,0.14999,16,0.0,0.0,1575420030,,,,0,1.235776745863326,1,6.0,22.429000854492188,0.0,0.0,0.0,66.7128,C,,
Raw,1730968385435,25013000000,18,25147675.663008172,-1415003578422000128,0.0,364.7671697302432,-2148.1059095907435,0.0,0,16,0.0,47,376403362596885,797,24.194000244140625,-90.94439390244199,0.14999,16,0.0,0.0,1575420030,,,,0,3.8964768797528215,1,6.0,24.194000244140625,0.0,0.0,0.0,66.7128,C,,
Raw,1730968385435,25013000000,18,25147675.663008172,-1415003578422000128,0.0,364.7671697302432,-2148.1059095907435,0.0,0,4,0.0,47,376403364208520,797,20.48699951171875,-1018.0222752173986,0.14999,16,0.0,0.0,1575420030,,,,0,0.0,1,6.0,20.48699951171875,0.0,0.0,0.0,66.7128,C,,
Raw,1730968385435,25013000000,18,25147675.663008172,-1415003578422000128,0.0,364.7671697302432,-2148.1059095907435,0.0,0,27,0.0,47,376403361516491,797,16.86199951171875,-816.4629939889727,0.14999,16,0.0,0.0,1575420030,,,,0,0.0,1,6.0,16.86199951171875,0.0,0.0,0.0,66.7128,C,,
Raw,1730968385435,25013000000,18,25147675.663008172,-1415003578422000128,0.0,364.7671697302432,-2148.1059095907435,0.0,0,7,0.0,47,376403354660978,487,24.224000930786133,-746.7724892513602,0.14999,16,0.0,0.0,1575420030,,,,0,3.94219219390376,1,6.0,24.224000930786133,0.0,0.0,0.0,66.7128,C,,
Raw,1730968385435,25013000000,18,25147675.663008172,-1415003578422000128,0.0,364.7671697302432,-2148.1059095907435,0.0,0,8,0.0,47,376403362150124,396,22.125,-1079.096880835102,0.14999,16,0.0,0.0,1575420030,,,,0,2.344877924746404,1,6.0,22.125,0.0,0.0,0.0,66.7128,C,,
Raw,1730968385435,25013000000,18,25147675.663008172,-1415003578422000128,0.0,364.7671697302432,-2148.1059095907435,0.0,0,8,0.0,47,376403352398105,487,19.0,-606.9209489367548,0.14999,16,0.0,0.0,1575420030,,,,0,0.0,6,6.0,19.0,0.0,0.0,-2.3837628398292896,66.7128,C,,
Raw,1730968385435,25013000000,18,25147675.663008172,-1415003578422000128,0.0,364.7671697302432,-2148.1059095907435,0.0,0,11,0.0,17,139373,396,21.0,-939.1838740591924,0.14999,16,0.0,0.0,1602000000,,,,0,0.0,3,6.0,21.0,0.0,0.0,120.16787408850522,66.7128,C,,
Raw,1730968385435,25013000000,18,25147675.663008172,-1415003578422000128,0.0,364.7671697302432,-2148.1059095907435,0.0,0,9,0.0,17,37264,797,16.0,-63.16582884600493,0.14999,16,0.0,0.0,1600875010,,,,0,0.0,3,6.0,16.0,0.0,0.0,120.16787408850522,66.7128,C,,
Raw,1730968385435,25013000000,18,25147675.663008172,-1415003578422000128,0.0,364.7671697302432,-2148.1059095907435,0.0,0,7,0.0,17,963853,487,18.0,-961.9966812843388,0.14999,16,0.0,0.0,1604812540,,,,0,0.0,3,6.0,18.0,0.0,0.0,120.16787408850522,66.7128,C,,
Raw,1730968385435,25013000000,18,25147675.663008172,-1415003578422000128,0.0,364.7671697302432,-2148.1059095907435,0.0,0,31,0.0,47,376403351206542,1797,15.5600004196167,-321.18194441505483,0.14999,16,0.0,0.0,1575420030,,,,0,0.0,1,6.0,15.5600004196167,0.0,0.0,0.0,66.7128,C,,
Raw,1730968385435,25013000000,18,25147675.663008172,-1415003578422000128,0.0,364.7671697302432,-2148.1059095907435,0.0,0,9,0.0,47,376403358635787,487,14.800000190734863,-1192.3538582909791,0.14999,16,0.0,0.0,1575420030,,,,0,0.0,1,6.0,14.800000190734863,0.0,0.0,0.0,66.7128,C,,
Raw,1730968386435,26013000000,18,24332133.13191488,-1415003578422000128,0.0,363.7238912205197,-2149.6107106827662,0.0,0,3,0.0,47,376404365555140,316,25.75200080871582,-341.3390432899859,0.14999,16,0.0,0.0,1575420030,,,,0,6.0742719046840605,1,6.0,25.75200080871582,0.0,0.0,0.0,66.7128,C,,
Raw,1730968386435,26013000000,18,24332133.13191488,-1415003578422000128,0.0,363.7238912205197,-2149.6107106827662,0.0,0,16,0.0,47,376404362597188,797,24.194000244140625,-91.11893817214498,0.14999,16,0.0,0.0,1575420030,,,,0,3.8964768797528215,1,6.0,24.194000244140625,0.0,0.0,0.0,66.7128,C,,
Raw,1730968386435,26013000000,18,24332133.13191488,-1415003578422000128,0.0,363.7238912205197,-2149.6107106827662,0.0,0,4,0.0,47,376404364211916,487,20.48699951171875,-1018.506743581642,0.14999,16,0.0,0.0,1575420030,,,,0,0.0,1,6.0,20.48699951171875,0.0,0.0,0.0,66.7128,C,,
Raw,1730968386435,26013000000,18,24332133.13191488,-1415003578422000128,0.0,363.7238912205197,-2149.6107106827662,0.0,0,27,0.0,47,376404361519219,316,24.479000091552734,-816.897101430044,0.14999,16,0.0,0.0,1575420030,,,,0,4.299502815653676,1,6.0,24.479000091552734,0.0,0.0,0.0,66.7128,C,,
Raw,1730968386435,26013000000,18,24332133.13191488,-1415003578422000128,0.0,363.7238912205197,-2149.6107106827662,0.0,0,7,0.0,47,376404354663470,487,20.777000427246094,-747.0445497366891,0.14999,16,0.0,0.0,1575420030,,,,0,0.0,1,6.0,20.777000427246094,0.0,0.0,0.0,66.7128,C,,
Raw,1730968386435,26013000000,18,24332133.13191488,-1415003578422000128,0.0,363.7238912205197,-2149.6107106827662,0.0,0,8,0.0,47,376404362153743,396,25.506000518798828,-1079.8684622115265,0.14999,16,0.0,0.0,1575420030,,,,0,5.74714953469304,1,6.0,25.506000518798828,0.0,0.0,0.0,66.7128,C,,
Raw,1730968386435,26013000000,18,24332133.13191488,-1415003578422000128,0.0,363.7238912205197,-2149.6107106827662,0.0,0,8,0.0,47,376404352400137,797,15.399999618530273,-607.0792792192003,0.14999,16,0.0,0.0,1575420030,,,,0,0.0,6,6.0,15.399999618530273,0.0,0.0,-2.3837628398292896,66.7128,C,,
Raw,1730968386435,26013000000,18,24332133.13191488,-1415003578422000128,0.0,363.7238912205197,-2149.6107106827662,0.0,0,11,0.0,17,142508,487,18.0,-939.7017885715524,0.14999,16,0.0,0.0,1602000000,,,,0,0.0,3,6.0,18.0,0.0,0.0,121.03379608927528,66.7128,C,,
Raw,1730968386435,26013000000,18,24332133.13191488,-1415003578422000128,0.0,363.7238912205197,-2149.6107106827662,0.0,0,9,0.0,17,37474,1797,14.0,-63.0277096448939,0.14999,16,0.0,0.0,1600875010,,,,0,0.0,3,6.0,14.0,0.0,0.0,121.03379608927528,66.7128,C,,
Raw,1730968386435,26013000000,18,24332133.13191488,-1415003578422000128,0.0,363.7238912205197,-2149.6107106827662,0.0,0,7,0.0,17,967063,396,23.0,-963.4205480563344,0.14999,16,0.0,0.0,1604812540,,,,0,3.6671991124089147,3,6.0,23.0,0.0,0.0,121.03379608927528,66.7128,C,,
Raw,1730968386435,26013000000,18,24332133.13191488,-1415003578422000128,0.0,363.7238912205197,-2149.6107106827662,0.0,0,9,0.0,47,376404358639776,797,18.6299991607666,-1192.667173849903,0.14999,16,0.0,0.0,1575420030,,,,0,0.0,1,6.0,18.6299991607666,0.0,0.0,0.0,66.7128,C,,
Raw,1730968387434,27013000000,18,23472028.10552359,-1415003578421000192,0.0,362.819971001301,-2154.1246259061586,0.0,0,3,0.0,47,376405364556280,487,23.097999572753906,-342.7986505812805,0.14999,16,0.0,0.0,1575420030,,,,0,2.2899037561833846,1,6.0,23.097999572753906,0.0,0.0,0.0,66.7128,C,,
Raw,1730968387434,27013000000,18,23472028.10552359,-1415003578421000192,0.0,362.819971001301,-2154.1246259061586,0.0,0,16,0.0,47,376405361597493,797,18.56100082397461,-91.87040305435043,0.14999,16,0.0,0.0,1575420030,,,,0,0.0,1,6.0,18.56100082397461,0.0,0.0,0.0,66.7128,C,,
Raw,1730968387434,27013000000,18,23472028.10552359,-1415003578421000192,0.0,362.819971001301,-2154.1246259061586,0.0,0,4,0.0,47,376405363215335,396,20.510000228881836,-1019.1409009629159,0.14999,16,0.0,0.0,1575420030,,,,0,0.0,1,6.0,20.510000228881836,0.0,0.0,0.0,66.7128,C,,
Raw,1730968387434,27013000000,18,23472028.10552359,-1415003578421000192,0.0,362.819971001301,-2154.1246259061586,0.0,0,27,0.0,47,376405360521983,316,26.849000930786133,-817.2856796232289,0.14999,16,0.0,0.0,1575420030,,,,0,7.5472089435060035,1,6.0,26.849000930786133,0.0,0.0,0.0,66.7128,C,,
Raw,1730968387434,27013000000,18,23472028.10552359,-1415003578421000192,0.0,362.819971001301,-2154.1246259061586,0.0,0,8,0.0,47,376405351402174,487,19.200000762939453,-608.5853681559136,0.14999,16,0.0,0.0,1575420030,,,,0,0.0,6,6.0,19.200000762939453,0.0,0.0,49.593873577348276,66.7128,C,,
Raw,1730968387434,27013000000,18,23472028.10552359,-1415003578421000192,0.0,362.819971001301,-2154.1246259061586,0.0,0,11,0.0,17,145645,797,17.0,-940.4114082086357,0.14999,16,0.0,0.0,1602000000,,,,0,0.0,3,6.0,17.0,0.0,0.0,122.57383629574664,66.7128,C,,
Raw,1730968387434,27013000000,18,23472028.10552359,-1415003578421000192,0.0,362.819971001301,-2154.1246259061586,0.0,0,7,0.0,17,970265,316,25.0,-963.58902223493,0.14999,16,0.0,0.0,1604812540,,,,0,6.102671922055171,3,6.0,25.0,0.0,0.0,122.57383629574664,66.7128,C,,
Raw,1730968387434,27013000000,18,23472028.10552359,-1415003578421000192,0.0,362.819971001301,-2154.1246259061586,0.0,0,9,0.0,47,376405357643729,797,18.42799949645996,-1193.9555586482536,0.14999,16,0.0,0.0,1575420030,,,,0,0.0,1,6.0,18.42799949645996,0.0,0.0,0.0,66.7128,C,,
Raw,1730968387434,27013000000,18,23472028.10552359,-1415003578421000192,0.0,362.819971001301,-2154.1246259061586,0.0,0,7,0.0,47,376405353666070,396,23.395999908447266,-748.8511317094521,0.14999,16,0.0,0.0,1575420030,,,,0,2.7202525559057493,1,6.0,23.395999908447266,0.0,0.0,0.0,66.7128,C,,
Raw,1730968388434,28013000000,18,22642282.415256757,-1415003578421000192,0.0,361.8743908986717,-2160.5719912558743,0.0,0,3,0.0,47,376406364557422,797,18.076000213623047,-344.4112686663645,0.14999,16,0.0,0.0,1575420030,,,,0,0.0,1,6.0,18.076000213623047,0.0,0.0,0.0,66.7128,C,,
Raw,1730968388434,28013000000,18,22642282.415256757,-1415003578421000192,0.0,361.8743908986717,-2160.5719912558743,0.0,0,16,0.0,47,376406361597801,487,18.56100082397461,-93.70137569562395,0.14999,16,0.0,0.0,1575420030,,,,0,0.0,1,6.0,18.56100082397461,0.0,0.0,0.0,66.7128,C,,
