# 
# Header Description:
# 
# Version: v3.1.0.3 Platform: 12 Manufacturer: Xiaomi Model: 22120RN86I GNSS Hardware Model Name: MTK_MNLD_default,MNL_VER_default
# 
# Raw,utcTimeMillis,TimeNanos,LeapSecond,TimeUncertaintyNanos,FullBiasNanos,BiasNanos,BiasUncertaintyNanos,DriftNanosPerSecond,DriftUncertaintyNanosPerSecond,HardwareClockDiscontinuityCount,Svid,TimeOffsetNanos,State,ReceivedSvTimeNanos,ReceivedSvTimeUncertaintyNanos,Cn0DbHz,PseudorangeRateMetersPerSecond,PseudorangeRateUncertaintyMetersPerSecond,AccumulatedDeltaRangeState,AccumulatedDeltaRangeMeters,AccumulatedDeltaRangeUncertaintyMeters,CarrierFrequencyHz,CarrierCycles,CarrierPhase,CarrierPhaseUncertainty,MultipathIndicator,SnrInDb,ConstellationType,AgcDb,BasebandCn0DbHz,FullInterSignalBiasNanos,FullInterSignalBiasUncertaintyNanos,SatelliteInterSignalBiasNanos,SatelliteInterSignalBiasUncertaintyNanos,CodeType,ChipsetElapsedRealtimeNanos,IsFullTracking
# 
# UncalAccel,utcTimeMillis,elapsedRealtimeNanos,UncalAccelXMps2,UncalAccelYMps2,UncalAccelZMps2,BiasXMps2,BiasYMps2,BiasZMps2
# 
# Accel,utcTimeMillis,elapsedRealtimeNanos,AccelXMps2,AccelYMps2,AccelZMps2
# 
# UncalGyro,utcTimeMillis,elapsedRealtimeNanos,UncalGyroXRadPerSec,UncalGyroYRadPerSec,UncalGyroZRadPerSec,DriftXRadPerSec,DriftYRadPerSec,DriftZRadPerSec
# 
# Gyro,utcTimeMillis,elapsedRealtimeNanos,GyroXRadPerSec,GyroYRadPerSec,GyroZRadPerSec
# 
# UncalMag,utcTimeMillis,elapsedRealtimeNanos,UncalMagXMicroT,UncalMagYMicroT,UncalMagZMicroT,BiasXMicroT,BiasYMicroT,BiasZMicroT
# 
# Mag,utcTimeMillis,elapsedRealtimeNanos,MagXMicroT,MagYMicroT,MagZMicroT
# 
# Pressure,utcTimeMillis,elapsedRealtimeNanos,PressureHpa
# 
# OrientationDeg,utcTimeMillis,elapsedRealtimeNanos,yawDeg,rollDeg,pitchDeg
# 
# Fix,Provider,LatitudeDegrees,LongitudeDegrees,AltitudeMeters,SpeedMps,AccuracyMeters,BearingDegrees,UnixTimeMillis,SpeedAccuracyMps,BearingAccuracyDegrees,elapsedRealtimeNanos,VerticalAccuracyMeters,MockLocation,NumberOfUsedSignals,VerticalSpeedAccuracyMps,SolutionType
# 
# Nav,Svid,Type,Status,MessageId,Sub-messageId,Data(Bytes)
# 
# Status,UnixTimeMillis,SignalCount,SignalIndex,ConstellationType,Svid,CarrierFrequencyHz,Cn0DbHz,AzimuthDegrees,ElevationDegrees,UsedInFix,HasAlmanacData,HasEphemerisData,BasebandCn0DbHz
# 
# Agc,utcTimeMillis,TimeNanos,LeapSecond,TimeUncertaintyNanos,FullBiasNanos,BiasNanos,BiasUncertaintyNanos,DriftNanosPerSecond,DriftUncertaintyNanosPerSecond,HardwareClockDiscontinuityCount,AgcDb,CarrierFrequencyHz,ConstellationType
# 
Raw,1730975370001,2445041000000,18,692780.6244211787,-1415008142960000000,0.0,65.23146916884447,-3283.958590434087,0.0,0,4,0.0,47,383387932884008,58,33.00400161743164,-733.8507776586421,0.14999,16,0.0,0.0,1575420030,,,,0,15.088548507341828,1,6.0,33.00400161743164,0.0,0.0,0.0,66.7128,C,,
Raw,1730975370001,2445041000000,18,692780.6244211787,-1415008142960000000,0.0,65.23146916884447,-3283.958590434087,0.0,0,8,0.0,47,383387931056481,487,24.628000259399414,-698.8458477133203,0.14999,16,0.0,0.0,1575420030,,,,0,4.511532442711991,1,6.0,24.628000259399414,0.0,0.0,0.0,66.7128,C,,
Raw,1730975370001,2445041000000,18,692780.6244211787,-1415008142960000000,0.0,65.23146916884447,-3283.958590434087,0.0,0,30,0.0,47,383387919833959,74,30.013999938964844,-1315.168632797018,0.14999,16,0.0,0.0,1575420030,,,,0,11.560130620304056,1,6.0,30.013999938964844,0.0,0.0,0.0,66.7128,C,,
Raw,1730975370001,2445041000000,18,692780.6244211787,-1415008142960000000,0.0,65.23146916884447,-3283.958590434087,0.0,0,21,0.0,47,383387915698621,316,22.5,-1122.6626102187072,0.14999,16,0.0,0.0,1575420030,,,,0,2.8473577360986253,6,6.0,22.5,0.0,0.0,7.538799483275665,66.7128,C,,
Raw,1730975370001,2445041000000,18,692780.6244211787,-1415008142960000000,0.0,65.23146916884447,-3283.958590434087,0.0,0,14,0.0,47,383387924262221,316,26.763999938964844,-1251.5729147652335,0.14999,16,0.0,0.0,1575420030,,,,0,7.4340931562767505,1,6.0,26.763999938964844,0.0,0.0,0.0,66.7128,C,,
Raw,1730975370001,2445041000000,18,692780.6244211787,-1415008142960000000,0.0,65.23146916884447,-3283.958590434087,0.0,0,27,0.0,17,250055,58,35.0,-1331.96337890625,0.14999,16,0.0,0.0,1561097980,,,,0,16.976094021036076,5,6.0,35.0,0.0,0.0,131.93997003788385,66.7128,I,,
Raw,1730975370001,2445041000000,18,692780.6244211787,-1415008142960000000,0.0,65.23146916884447,-3283.958590434087,0.0,0,9,0.0,47,383387934102352,235,27.878999710083008,-1093.9949799118324,0.14999,16,0.0,0.0,1575420030,,,,0,8.894890662083688,1,6.0,27.878999710083008,0.0,0.0,0.0,66.7128,C,,
Raw,1730975370001,2445041000000,18,692780.6244211787,-1415008142960000000,0.0,65.23146916884447,-3283.958590434087,0.0,0,7,0.0,47,383387923024015,396,26.399999618530273,-931.4154248860373,0.14999,16,0.0,0.0,1575420030,,,,0,7.777207016402383,6,6.0,26.399999618530273,0.0,0.0,7.538799483275665,66.7128,C,,
Raw,1730975370001,2445041000000,18,692780.6244211787,-1415008142960000000,0.0,65.23146916884447,-3283.958590434087,0.0,0,8,0.0,17,334569,235,29.0,-954.5101287777132,0.14999,16,0.0,0.0,1605374980,,,,0,10.633175727369114,3,6.0,29.0,0.0,0.0,118.40748597965937,66.7128,C,,
Raw,1730975370001,2445041000000,18,692780.6244211787,-1415008142960000000,0.0,65.23146916884447,-3283.958590434087,0.0,0,7,0.0,17,262835,396,23.0,-310.09081842868983,0.14999,16,0.0,0.0,1604812540,,,,0,3.6880673779291224,3,6.0,23.0,0.0,0.0,118.40748597965937,66.7128,C,,
Raw,1730975370001,2445041000000,18,692780.6244211787,-1415008142960000000,0.0,65.23146916884447,-3283.958590434087,0.0,0,20,0.0,47,383373925860932,235,23.90999984741211,-885.7939453125,0.14999,16,0.0,0.0,1561097980,,,,0,7.3471184205203794,5,6.0,23.90999984741211,0.0,0.0,131.93997003788385,66.7128,I,,
Raw,1730975370001,2445041000000,18,692780.6244211787,-1415008142960000000,0.0,65.23146916884447,-3283.958590434087,0.0,0,32,0.0,47,383373920400391,235,30.847999572753906,-426.72674560546875,0.14999,16,0.0,0.0,1561097980,,,,0,11.077660532877488,5,6.0,30.847999572753906,0.0,0.0,131.93997003788385,66.7128,I,,
Raw,1730975370001,2445041000000,18,692780.6244211787,-1415008142960000000,0.0,65.23146916884447,-3283.958590434087,0.0,0,2,0.0,47,383387922047687,74,29.849000930786133,-1255.0546013928838,0.14999,16,0.0,0.0,1575420030,,,,0,11.359986059156116,1,6.0,29.849000930786133,0.0,0.0,0.0,66.7128,C,,
Raw,1730975371001,2446041000000,18,690522.916690586,-1415008142960000000,0.0,69.0812673929616,-3285.670568206066,0.0,0,4,0.0,47,383388932886456,487,28.527000427246094,-734.821247514864,0.14999,16,0.0,0.0,1575420030,,,,0,9.715407276563512,1,6.0,28.527000427246094,0.0,0.0,0.0,66.7128,C,,
Raw,1730975371001,2446041000000,18,690522.916690586,-1415008142960000000,0.0,69.0812673929616,-3285.670568206066,0.0,0,8,0.0,47,383388931058822,487,20.152000427246094,-700.4077332079023,0.14999,16,0.0,0.0,1575420030,,,,0,0.0,1,6.0,20.152000427246094,0.0,0.0,0.0,66.7128,C,,
Raw,1730975371001,2446041000000,18,690522.916690586,-1415008142960000000,0.0,69.0812673929616,-3285.670568206066,0.0,0,30,0.0,47,383388919838342,396,24.090999603271484,-1315.095135582573,0.14999,16,0.0,0.0,1575420030,,,,0,3.71924026163951,1,6.0,24.090999603271484,0.0,0.0,0.0,66.7128,C,,
Raw,1730975371001,2446041000000,18,690522.916690586,-1415008142960000000,0.0,69.0812673929616,-3285.670568206066,0.0,0,21,0.0,47,383388915702364,235,27.600000381469727,-1123.4864108549525,0.14999,16,0.0,0.0,1575420030,,,,0,9.263438232888404,6,6.0,27.600000381469727,0.0,0.0,7.8107481413128115,66.7128,C,,
Raw,1730975371001,2446041000000,18,690522.916690586,-1415008142960000000,0.0,69.0812673929616,-3285.670568206066,0.0,0,14,0.0,47,383388924266390,487,21.049999237060547,-1252.895864625245,0.14999,16,0.0,0.0,1575420030,,,,0,0.0,1,6.0,21.049999237060547,0.0,0.0,0.0,66.7128,C,,
Raw,1730975371001,2446041000000,18,690522.916690586,-1415008142960000000,0.0,69.0812673929616,-3285.670568206066,0.0,0,27,0.0,47,383374923254406,51,35.5,-1307.71728515625,0.14999,16,0.0,0.0,1561097980,,,,0,18.01826135475338,5,6.0,35.5,0.0,0.0,130.85517733777155,66.7128,I,,
Raw,1730975371001,2446041000000,18,690522.916690586,-1415008142960000000,0.0,69.0812673929616,-3285.670568206066,0.0,0,9,0.0,47,383388934106014,235,27.858999252319336,-1094.3692489128246,0.14999,16,0.0,0.0,1575420030,,,,0,8.867957649378248,1,6.0,27.858999252319336,0.0,0.0,0.0,66.7128,C,,
Raw,1730975371001,2446041000000,18,690522.916690586,-1415008142960000000,0.0,69.0812673929616,-3285.670568206066,0.0,0,7,0.0,47,383388923027121,396,26.399999618530273,-931.807255168357,0.14999,16,0.0,0.0,1575420030,,,,0,7.777207016402383,6,6.0,26.399999618530273,0.0,0.0,7.8107481413128115,66.7128,C,,
Raw,1730975371001,2446041000000,18,690522.916690586,-1415008142960000000,0.0,69.0812673929616,-3285.670568206066,0.0,0,8,0.0,17,337776,74,30.0,-954.6492741569167,0.14999,16,0.0,0.0,1605374980,,,,0,12.164406000655617,3,6.0,30.0,0.0,0.0,122.53824038485543,66.7128,C,,
Raw,1730975371001,2446041000000,18,690522.916690586,-1415008142960000000,0.0,69.0812673929616,-3285.670568206066,0.0,0,7,0.0,17,263865,316,25.0,-310.9396655894964,0.14999,16,0.0,0.0,1604812540,,,,0,5.535228418740888,3,6.0,25.0,0.0,0.0,122.53824038485543,66.7128,C,,
Raw,1730975371001,2446041000000,18,690522.916690586,-1415008142960000000,0.0,69.0812673929616,-3285.670568206066,0.0,0,20,0.0,47,383374925863860,316,27.299999237060547,-878.54296875,0.14999,16,0.0,0.0,1561097980,,,,0,8.880895918361524,5,6.0,27.299999237060547,0.0,0.0,130.85517733777155,66.7128,I,,
Raw,1730975371001,2446041000000,18,690522.916690586,-1415008142960000000,0.0,69.0812673929616,-3285.670568206066,0.0,0,32,0.0,47,383374920401815,316,24.799999237060547,-426.9300537109375,0.14999,16,0.0,0.0,1561097980,,,,0,5.889324523231858,5,6.0,24.799999237060547,0.0,0.0,130.85517733777155,66.7128,I,,
Raw,1730975371001,2446041000000,18,690522.916690586,-1415008142960000000,0.0,69.0812673929616,-3285.670568206066,0.0,0,22,0.0,47,383388919911253,487,18.90999984741211,-1387.198318790831,0.14999,16,0.0,0.0,1575420030,,,,0,0.0,1,6.0,18.90999984741211,0.0,0.0,0.0,66.7128,C,,
Raw,1730975371001,2446041000000,18,690522.916690586,-1415008142960000000,0.0,69.0812673929616,-3285.670568206066,0.0,0,2,0.0,47,383388922051874,235,28.437999725341797,-1255.4985580181917,0.14999,16,0.0,0.0,1575420030,,,,0,9.592201102467143,1,6.0,28.437999725341797,0.0,0.0,0.0,66.7128,C,,
Raw,1730975372001,2447041000000,18,69.92348034138014,-1415008142960000000,0.0,69.92348034138014,-3287.1235785874796,0.0,0,4,0.0,47,383389932888909,316,27.08799934387207,-734.3945734203865,0.14999,16,0.0,0.0,1575420030,,,,0,7.868478150141477,1,6.0,27.08799934387207,0.0,0.0,0.0,66.7128,C,,
Raw,1730975372001,2447041000000,18,69.92348034138014,-1415008142960000000,0.0,69.92348034138014,-3287.1235785874796,0.0,0,8,0.0,47,383389931061158,487,20.90999984741211,-701.1058173698818,0.14999,16,0.0,0.0,1575420030,,,,0,0.0,1,6.0,20.90999984741211,0.0,0.0,0.0,66.7128,C,,
Raw,1730975372001,2447041000000,18,69.92348034138014,-1415008142960000000,0.0,69.92348034138014,-3287.1235785874796,0.0,0,30,0.0,47,383389919842729,316,26.143999099731445,-1315.840607329087,0.14999,16,0.0,0.0,1575420030,,,,0,6.599873831985955,1,6.0,26.143999099731445,0.0,0.0,0.0,66.7128,C,,
Raw,1730975372001,2447041000000,18,69.92348034138014,-1415008142960000000,0.0,69.92348034138014,-3287.1235785874796,0.0,0,21,0.0,47,383389915706109,396,21.0,-1124.1412886898563,0.14999,16,0.0,0.0,1575420030,,,,0,0.7869146345807678,6,6.0,21.0,0.0,0.0,11.838784712270549,66.7128,C,,
Raw,1730975372001,2447041000000,18,69.92348034138014,-1415008142960000000,0.0,69.92348034138014,-3287.1235785874796,0.0,0,14,0.0,47,383389924270564,487,20.617000579833984,-1253.1321521300915,0.14999,16,0.0,0.0,1575420030,,,,0,0.0,1,6.0,20.617000579833984,0.0,0.0,0.0,66.7128,C,,
Raw,1730975372001,2447041000000,18,69.92348034138014,-1415008142960000000,0.0,69.92348034138014,-3287.1235785874796,0.0,0,27,0.0,47,383375923258764,316,26.200000762939453,-1295.760986328125,0.14999,16,0.0,0.0,1561097980,,,,0,7.531539141130239,5,6.0,26.200000762939453,0.0,0.0,128.45524908164666,66.7128,I,,
Raw,1730975372001,2447041000000,18,69.92348034138014,-1415008142960000000,0.0,69.92348034138014,-3287.1235785874796,0.0,0,9,0.0,16431,383389934109658,316,28.527000427246094,-1094.8394080848752,0.14999,16,0.0,0.0,1575420030,,,,0,9.715407276563512,1,6.0,28.527000427246094,0.0,0.0,0.0,66.7128,C,,
Raw,1730975372001,2447041000000,18,69.92348034138014,-1415008142960000000,0.0,69.92348034138014,-3287.1235785874796,0.0,0,7,0.0,47,383389923030264,396,19.299999237060547,-932.0060042729057,0.14999,16,0.0,0.0,1575420030,,,,0,0.0,6,6.0,19.299999237060547,0.0,0.0,11.838784712270549,66.7128,C,,
Raw,1730975372001,2447041000000,18,69.92348034138014,-1415008142960000000,0.0,69.92348034138014,-3287.1235785874796,0.0,0,8,0.0,17,340959,487,18.0,-952.6478967466049,0.14999,16,0.0,0.0,1605374980,,,,0,0.0,3,6.0,18.0,0.0,0.0,125.72892410209117,66.7128,C,,
Raw,1730975372001,2447041000000,18,69.92348034138014,-1415008142960000000,0.0,69.92348034138014,-3287.1235785874796,0.0,0,7,0.0,17,264905,396,23.0,-311.63878326239586,0.14999,16,0.0,0.0,1604812540,,,,0,6.238146982461074,3,6.0,23.0,0.0,0.0,125.72892410209117,66.7128,C,,
Raw,1730975372001,2447041000000,18,69.92348034138014,-1415008142960000000,0.0,69.92348034138014,-3287.1235785874796,0.0,0,20,0.0,47,383375925866717,316,22.5,-891.6024169921875,0.14999,16,0.0,0.0,1561097980,,,,0,2.860296005081901,5,6.0,22.5,0.0,0.0,128.45524908164666,66.7128,I,,
Raw,1730975372001,2447041000000,18,69.92348034138014,-1415008142960000000,0.0,69.92348034138014,-3287.1235785874796,0.0,0,32,0.0,47,383375920403242,316,24.844999313354492,-428.0688781738281,0.14999,16,0.0,0.0,1561097980,,,,0,7.004960366683257,5,6.0,24.844999313354492,0.0,0.0,128.45524908164666,66.7128,I,,
Raw,1730975372001,2447041000000,18,69.92348034138014,-1415008142960000000,0.0,69.92348034138014,-3287.1235785874796,0.0,0,2,0.0,47,383389922056062,316,25.780000686645508,-1255.8873220450414,0.14999,16,0.0,0.0,1575420030,,,,0,6.095157363664487,1,6.0,25.780000686645508,0.0,0.0,0.0,66.7128,C,,
Raw,1730975373000,2448040000000,18,71.43998789630275,-1415008142960000000,0.0,71.43998789630275,-3289.172508310544,0.0,0,4,0.0,47,383390931891364,316,24.799999237060547,-735.3308963406937,0.14999,16,0.0,0.0,1575420030,,,,0,4.731440128741254,1,6.0,24.799999237060547,0.0,0.0,0.0,66.7128,C,,
Raw,1730975373000,2448040000000,18,71.43998789630275,-1415008142960000000,0.0,71.43998789630275,-3289.172508310544,0.0,0,8,0.0,47,383390930063498,797,20.90999984741211,-702.6985047944115,0.14999,16,0.0,0.0,1575420030,,,,0,0.0,1,6.0,20.90999984741211,0.0,0.0,0.0,66.7128,C,,
Raw,1730975373000,2448040000000,18,71.43998789630275,-1415008142960000000,0.0,71.43998789630275,-3289.172508310544,0.0,0,30,0.0,47,383390918847119,396,26.447999954223633,-1316.8552591391253,0.14999,16,0.0,0.0,1575420030,,,,0,7.010307174877989,1,6.0,26.447999954223633,0.0,0.0,0.0,66.7128,C,,
Raw,1730975373000,2448040000000,18,71.43998789630275,-1415008142960000000,0.0,71.43998789630275,-3289.172508310544,0.0,0,21,0.0,47,383390914709854,487,18.799999237060547,-1125.5478636990465,0.14999,16,0.0,0.0,1575420030,,,,0,0.0,6,6.0,18.799999237060547,0.0,0.0,11.699583700442144,66.7128,C,,
Raw,1730975373000,2448040000000,18,71.43998789630275,-1415008142960000000,0.0,71.43998789630275,-3289.172508310544,0.0,0,14,0.0,47,383390923274740,797,20.617000579833984,-1252.0960365317642,0.14999,16,0.0,0.0,1575420030,,,,0,0.0,1,6.0,20.617000579833984,0.0,0.0,0.0,66.7128,C,,
Raw,1730975373000,2448040000000,18,71.43998789630275,-1415008142960000000,0.0,71.43998789630275,-3289.172508310544,0.0,0,27,0.0,47,383376922263124,316,25.5,-1319.2703857421875,0.14999,16,0.0,0.0,1561097980,,,,0,6.648769198312107,5,6.0,25.5,0.0,0.0,130.37376864708253,66.7128,I,,
Raw,1730975373000,2448040000000,18,71.43998789630275,-1415008142960000000,0.0,71.43998789630275,-3289.172508310544,0.0,0,9,0.0,16431,383390933113308,396,22.253000259399414,-1094.633039800068,0.14999,16,0.0,0.0,1575420030,,,,0,0.9226344214466092,1,6.0,22.253000259399414,0.0,0.0,0.0,66.7128,C,,
Raw,1730975373000,2448040000000,18,71.43998789630275,-1415008142960000000,0.0,71.43998789630275,-3289.172508310544,0.0,0,7,0.0,47,383390922033397,487,17.5,-933.2300906232209,0.14999,16,0.0,0.0,1575420030,,,,0,0.0,6,6.0,17.5,0.0,0.0,11.699583700442144,66.7128,C,,
Raw,1730975373000,2448040000000,18,71.43998789630275,-1415008142960000000,0.0,71.43998789630275,-3289.172508310544,0.0,0,8,0.0,17,344129,487,19.0,-952.9683140877064,0.14999,16,0.0,0.0,1605374980,,,,0,0.0,3,6.0,19.0,0.0,0.0,128.14882971132118,66.7128,C,,
Raw,1730975373000,2448040000000,18,71.43998789630275,-1415008142960000000,0.0,71.43998789630275,-3289.172508310544,0.0,0,7,0.0,17,265949,316,24.0,-312.013585861123,0.14999,16,0.0,0.0,1604812540,,,,0,4.549536692495649,3,6.0,24.0,0.0,0.0,128.14882971132118,66.7128,C,,
Raw,1730975373000,2448040000000,18,71.43998789630275,-1415008142960000000,0.0,71.43998789630275,-3289.172508310544,0.0,0,32,0.0,47,383376919404669,316,24.86199951171875,-428.7588195800781,0.14999,16,0.0,0.0,1561097980,,,,0,6.361266699255231,5,6.0,24.86199951171875,0.0,0.0,130.37376864708253,66.7128,I,,
Raw,1730975373000,2448040000000,18,71.43998789630275,-1415008142960000000,0.0,71.43998789630275,-3289.172508310544,0.0,0,21,0.0,47,383390922331636,487,21.097999572753906,-1225.9626199123418,0.14999,16,0.0,0.0,1575420030,,,,0,0.0,1,6.0,21.097999572753906,0.0,0.0,0.0,66.7128,C,,
Raw,1730975373000,2448040000000,18,71.43998789630275,-1415008142960000000,0.0,71.43998789630275,-3289.172508310544,0.0,0,2,0.0,47,383390921060248,396,23.106000900268555,-1255.2434083963633,0.14999,16,0.0,0.0,1575420030,,,,0,2.2326653965752556,1,6.0,23.106000900268555,0.0,0.0,0.0,66.7128,C,,
Raw,1730975374000,2449040000000,18,68.02388381886402,-1415008142960000000,0.0,68.02388381886402,-3289.172838697673,0.0,0,4,0.0,47,383391931893821,74,30.013999938964844,-735.1616483304387,0.14999,16,0.0,0.0,1575420030,,,,0,11.560130620304056,1,6.0,30.013999938964844,0.0,0.0,0.0,66.7128,C,,
Raw,1730975374000,2449040000000,18,68.02388381886402,-1415008142960000000,0.0,68.02388381886402,-3289.172838697673,0.0,0,8,0.0,47,383391930065841,487,20.90999984741211,-702.4506956023446,0.14999,16,0.0,0.0,1575420030,,,,0,0.0,1,6.0,20.90999984741211,0.0,0.0,0.0,66.7128,C,,
Raw,1730975374000,2449040000000,18,68.02388381886402,-1415008142960000000,0.0,68.02388381886402,-3289.172838697673,0.0,0,30,0.0,47,383391918851513,487,20.041000366210938,-1316.2441451322918,0.14999,16,0.0,0.0,1575420030,,,,0,0.0,1,6.0,20.041000366210938,0.0,0.0,0.0,66.7128,C,,
Raw,1730975374000,2449040000000,18,68.02388381886402,-1415008142960000000,0.0,68.02388381886402,-3289.172838697673,0.0,0,21,0.0,47,383391914713609,316,15.5,-1124.0400093425174,0.14999,16,0.0,0.0,1575420030,,,,0,0.0,6,6.0,15.5,0.0,0.0,10.532134452057289,66.7128,C,,
Raw,1730975374000,2449040000000,18,68.02388381886402,-1415008142960000000,0.0,68.02388381886402,-3289.172838697673,0.0,0,14,0.0,47,383391923278919,487,20.617000579833984,-1253.0129398340955,0.14999,16,0.0,0.0,1575420030,,,,0,0.0,1,6.0,20.617000579833984,0.0,0.0,0.0,66.7128,C,,
Raw,1730975374000,2449040000000,18,68.02388381886402,-1415008142960000000,0.0,68.02388381886402,-3289.172838697673,0.0,0,9,0.0,16431,383391933116956,396,25.291000366210938,-1094.916157388455,0.14999,16,0.0,0.0,1575420030,,,,0,5.44003489243222,1,6.0,25.291000366210938,0.0,0.0,0.0,66.7128,C,,
Raw,1730975374000,2449040000000,18,68.02388381886402,-1415008142960000000,0.0,68.02388381886402,-3289.172838697673,0.0,0,7,0.0,47,383391922036517,74,20.5,-932.4958618134295,0.14999,16,0.0,0.0,1575420030,,,,0,0.0,6,6.0,20.5,0.0,0.0,10.532134452057289,66.7128,C,,
Raw,1730975374000,2449040000000,18,68.02388381886402,-1415008142960000000,0.0,68.02388381886402,-3289.172838697673,0.0,0,8,0.0,17,347309,487,20.0,-953.1401030093442,0.14999,16,0.0,0.0,1605374980,,,,0,0.0,3,6.0,20.0,0.0,0.0,128.3131770942461,66.7128,C,,
Raw,1730975374000,2449040000000,18,68.02388381886402,-1415008142960000000,0.0,68.02388381886402,-3289.172838697673,0.0,0,7,0.0,17,267001,74,30.0,-311.5369416704078,0.14999,16,0.0,0.0,1604812540,,,,0,11.834193575710044,3,6.0,30.0,0.0,0.0,128.3131770942461,66.7128,C,,
Raw,1730975374000,2449040000000,18,68.02388381886402,-1415008142960000000,0.0,68.02388381886402,-3289.172838697673,0.0,0,32,0.0,47,383377919406099,316,24.85300064086914,-428.6601257324219,0.14999,16,0.0,0.0,1561097980,,,,0,5.666024574070992,5,6.0,24.85300064086914,0.0,0.0,133.35441326709233,66.7128,I,,
Raw,1730975374000,2449040000000,18,68.02388381886402,-1415008142960000000,0.0,68.02388381886402,-3289.172838697673,0.0,0,21,0.0,47,383391922335716,396,23.714000701904297,-1227.5259456178264,0.14999,16,0.0,0.0,1575420030,,,,0,3.1651696384132966,1,6.0,23.714000701904297,0.0,0.0,0.0,66.7128,C,,
Raw,1730975374000,2449040000000,18,68.02388381886402,-1415008142960000000,0.0,68.02388381886402,-3289.172838697673,0.0,0,19,0.0,17,1088,235,26.600000381469727,-1348.8675537109375,0.14999,16,0.0,0.0,1561097980,,,,0,7.993474429620761,5,6.0,26.600000381469727,0.0,0.0,133.35441326709233,66.7128,I,,
Raw,1730975374000,2449040000000,18,68.02388381886402,-1415008142960000000,0.0,68.02388381886402,-3289.172838697673,0.0,0,2,0.0,47,383391921064438,487,23.106000900268555,-1257.3974064055487,0.14999,16,0.0,0.0,1575420030,,,,0,2.2326653965752556,1,6.0,23.106000900268555,0.0,0.0,0.0,66.7128,C,,
Raw,1730975375000,2450040000000,18,78.12638009701291,-1415008142960000000,0.0,78.12638009701291,-3287.4568504823055,0.0,0,22,0.0,47,383392918929697,487,21.003000259399414,-1386.4528470443167,0.14999,16,0.0,0.0,1575420030,,,,0,0.0,1,6.0,21.003000259399414,0.0,0.0,0.0,66.7128,C,,
Raw,1730975375000,2450040000000,18,78.12638009701291,-1415008142960000000,0.0,78.12638009701291,-3287.4568504823055,0.0,0,4,0.0,47,383392931896270,316,26.829999923706055,-734.2940374077069,0.14999,16,0.0,0.0,1575420030,,,,0,7.529021856765985,1,6.0,26.829999923706055,0.0,0.0,0.0,66.7128,C,,
Raw,1730975375000,2450040000000,18,78.12638009701291,-1415008142960000000,0.0,78.12638009701291,-3287.4568504823055,0.0,0,8,0.0,47,383392930068160,487,20.92099952697754,-701.0919727618511,0.14999,16,0.0,0.0,1575420030,,,,0,0.0,1,6.0,20.92099952697754,0.0,0.0,0.0,66.7128,C,,
Raw,1730975375000,2450040000000,18,78.12638009701291,-1415008142960000000,0.0,78.12638009701291,-3287.4568504823055,0.0,0,30,0.0,47,383392918855906,797,21.238000869750977,-1315.451750385405,0.14999,16,0.0,0.0,1575420030,,,,0,0.0,1,6.0,21.238000869750977,0.0,0.0,0.0,66.7128,C,,
Raw,1730975375000,2450040000000,18,78.12638009701291,-1415008142960000000,0.0,78.12638009701291,-3287.4568504823055,0.0,0,21,0.0,47,383392914717356,235,27.200000762939453,-1123.934455820887,0.14999,16,0.0,0.0,1575420030,,,,0,8.786653876605254,6,6.0,27.200000762939453,0.0,0.0,9.16476590033825,66.7128,C,,
Raw,1730975375000,2450040000000,18,78.12638009701291,-1415008142960000000,0.0,78.12638009701291,-3287.4568504823055,0.0,0,14,0.0,47,383392923283068,487,23.614999771118164,-1251.8221177097869,0.14999,16,0.0,0.0,1575420030,,,,0,3.007717176415588,1,6.0,23.614999771118164,0.0,0.0,0.0,66.7128,C,,
Raw,1730975375000,2450040000000,18,78.12638009701291,-1415008142960000000,0.0,78.12638009701291,-3287.4568504823055,0.0,0,9,0.0,16431,383392933120605,487,21.41699981689453,-1094.4086456497712,0.14999,16,0.0,0.0,1575420030,,,,0,0.0,1,6.0,21.41699981689453,0.0,0.0,0.0,66.7128,C,,
Raw,1730975375000,2450040000000,18,78.12638009701291,-1415008142960000000,0.0,78.12638009701291,-3287.4568504823055,0.0,0,7,0.0,47,383392922039631,74,28.799999237060547,-931.7248379379995,0.14999,16,0.0,0.0,1575420030,,,,0,10.620764651973113,6,6.0,28.799999237060547,0.0,0.0,9.16476590033825,66.7128,C,,
Raw,1730975375000,2450040000000,18,78.12638009701291,-1415008142960000000,0.0,78.12638009701291,-3287.4568504823055,0.0,0,8,0.0,17,350488,487,20.0,-953.5607305547343,0.14999,16,0.0,0.0,1605374980,,,,0,1.9876926427182355,3,6.0,20.0,0.0,0.0,127.5941696295682,66.7128,C,,
Raw,1730975375000,2450040000000,18,78.12638009701291,-1415008142960000000,0.0,78.12638009701291,-3287.4568504823055,0.0,0,7,0.0,17,268040,235,29.0,-311.27779974220545,0.14999,16,0.0,0.0,1604812540,,,,0,9.60513937145042,3,6.0,29.0,0.0,0.0,127.5941696295682,66.7128,C,,
Raw,1730975375000,2450040000000,18,78.12638009701291,-1415008142960000000,0.0,78.12638009701291,-3287.4568504823055,0.0,0,10,0.0,16905,383378878603805,316,25.299999237060547,-986.739013671875,0.14999,16,0.0,0.0,1561097980,,,,0,6.4197799585683715,5,6.0,25.299999237060547,0.0,0.0,132.55349809957198,66.7128,I,,
Raw,1730975375000,2450040000000,18,78.12638009701291,-1415008142960000000,0.0,78.12638009701291,-3287.4568504823055,0.0,0,20,0.0,16905,383378924875520,316,24.299999237060547,-880.7738647460938,0.14999,16,0.0,0.0,1561097980,,,,0,5.186293896109312,5,6.0,24.299999237060547,0.0,0.0,132.55349809957198,66.7128,I,,
Raw,1730975375000,2450040000000,18,78.12638009701291,-1415008142960000000,0.0,78.12638009701291,-3287.4568504823055,0.0,0,32,0.0,47,383378919407525,396,20.899999618530273,-427.2599792480469,0.14999,16,0.0,0.0,1561097980,,,,0,0.5417418093796317,5,6.0,20.899999618530273,0.0,0.0,132.55349809957198,66.7128,I,,
Raw,1730975375000,2450040000000,18,78.12638009701291,-1415008142960000000,0.0,78.12638009701291,-3287.4568504823055,0.0,0,21,0.0,47,383392922339813,396,23.513999938964844,-1225.627190147302,0.14999,16,0.0,0.0,1575420030,,,,0,2.8473577360986253,1,6.0,23.513999938964844,0.0,0.0,0.0,66.7128,C,,
Raw,1730975375000,2450040000000,18,78.12638009701291,-1415008142960000000,0.0,78.12638009701291,-3287.4568504823055,0.0,0,3,0.0,47,383392919459094,797,18.57200050354004,-492.2947490383207,0.14999,16,0.0,0.0,1575420030,,,,0,0.0,1,6.0,18.57200050354004,0.0,0.0,0.0,66.7128,C,,
Raw,1730975375000,2450040000000,18,78.12638009701291,-1415008142960000000,0.0,78.12638009701291,-3287.4568504823055,0.0,0,19,0.0,17,5591,316,26.600000381469727,-1359.65869140625,0.14999,16,0.0,0.0,1561097980,,,,0,8.06139061376178,5,6.0,26.600000381469727,0.0,0.0,132.55349809957198,66.7128,I,,
Raw,1730975375000,2450040000000,18,78.12638009701291,-1415008142960000000,0.0,78.12638009701291,-3287.4568504823055,0.0,0,2,0.0,47,383392921068632,396,23.246999740600586,-1256.38349793017,0.14999,16,0.0,0.0,1575420030,,,,0,2.4612546321908924,1,6.0,23.246999740600586,0.0,0.0,0.0,66.7128,C,,
Raw,1730975376000,2451040000000,18,77.97654321335334,-1415008142960000000,0.0,77.97654321335334,-3287.093793619954,0.0,0,22,0.0,47,383393918934369,797,21.763999938964844,-1385.5165241240095,0.14999,16,0.0,0.0,1575420030,,,,0,0.1484803615841375,1,6.0,21.763999938964844,0.0,0.0,0.0,66.7128,C,,
Raw,1730975376000,2451040000000,18,77.97654321335334,-1415008142960000000,0.0,77.97654321335334,-3287.093793619954,0.0,0,4,0.0,47,383393931898715,316,24.96500015258789,-734.2167306031325,0.14999,16,0.0,0.0,1575420030,,,,0,4.988184622844699,1,6.0,24.96500015258789,0.0,0.0,0.0,66.7128,C,,
Raw,1730975376000,2451040000000,18,77.97654321335334,-1415008142960000000,0.0,77.97654321335334,-3287.093793619954,0.0,0,8,0.0,47,383393930070553,396,22.292999267578125,-700.8559640075016,0.14999,16,0.0,0.0,1575420030,,,,0,0.9897072615983651,1,6.0,22.292999267578125,0.0,0.0,0.0,66.7128,C,,
Raw,1730975376000,2451040000000,18,77.97654321335334,-1415008142960000000,0.0,77.97654321335334,-3287.093793619954,0.0,0,30,0.0,47,383393918860291,797,21.238000869750977,-1314.4377489931937,0.14999,16,0.0,0.0,1575420030,,,,0,0.0,1,6.0,21.238000869750977,0.0,0.0,0.0,66.7128,C,,
Raw,1730975376000,2451040000000,18,77.97654321335334,-1415008142960000000,0.0,77.97654321335334,-3287.093793619954,0.0,0,21,0.0,47,383393914721105,316,25.5,-1123.6544974048022,0.14999,16,0.0,0.0,1575420030,,,,0,6.704314645082393,6,6.0,25.5,0.0,0.0,8.180816200842582,66.7128,C,,
Raw,1730975376000,2451040000000,18,77.97654321335334,-1415008142960000000,0.0,77.97654321335334,-3287.093793619954,0.0,0,14,0.0,47,383393923287260,487,20.667999267578125,-1251.2703775588705,0.14999,16,0.0,0.0,1575420030,,,,0,0.0,1,6.0,20.667999267578125,0.0,0.0,0.0,66.7128,C,,
Raw,1730975376000,2451040000000,18,77.97654321335334,-1415008142960000000,0.0,77.97654321335334,-3287.093793619954,0.0,0,9,0.0,16431,383393933124260,396,22.292999267578125,-1094.2631378901997,0.14999,16,0.0,0.0,1575420030,,,,0,0.9897072615983651,1,6.0,22.292999267578125,0.0,0.0,0.0,66.7128,C,,
Raw,1730975376000,2451040000000,18,77.97654321335334,-1415008142960000000,0.0,77.97654321335334,-3287.093793619954,0.0,0,7,0.0,47,383393922042747,316,24.200000762939453,-931.4158894701994,0.14999,16,0.0,0.0,1575420030,,,,0,5.113765937682711,6,6.0,24.200000762939453,0.0,0.0,8.180816200842582,66.7128,C,,
Raw,1730975376000,2451040000000,18,77.97654321335334,-1415008142960000000,0.0,77.97654321335334,-3287.093793619954,0.0,0,8,0.0,17,353669,487,18.0,-953.8653732230952,0.14999,16,0.0,0.0,1605374980,,,,0,0.0,3,6.0,18.0,0.0,0.0,128.32168584350683,66.7128,C,,
Raw,1730975376000,2451040000000,18,77.97654321335334,-1415008142960000000,0.0,77.97654321335334,-3287.093793619954,0.0,0,1,0.0,17,126872,487,20.0,-1621.8631601714867,0.14999,16,0.0,0.0,1602562560,,,,0,0.3197621076826071,3,6.0,20.0,0.0,0.0,128.32168584350683,66.7128,C,,
Raw,1730975376000,2451040000000,18,77.97654321335334,-1415008142960000000,0.0,77.97654321335334,-3287.093793619954,0.0,0,7,0.0,17,269067,235,29.0,-310.8507309256466,0.14999,16,0.0,0.0,1604812540,,,,0,10.810164671681108,3,6.0,29.0,0.0,0.0,128.32168584350683,66.7128,C,,
Raw,1730975376000,2451040000000,18,77.97654321335334,-1415008142960000000,0.0,77.97654321335334,-3287.093793619954,0.0,0,10,0.0,16905,383379878607093,235,27.100000381469727,-986.5966796875,0.14999,16,0.0,0.0,1561097980,,,,0,8.588969202844464,5,6.0,27.100000381469727,0.0,0.0,132.0584130155318,66.7128,I,,
Raw,1730975376000,2451040000000,18,77.97654321335334,-1415008142960000000,0.0,77.97654321335334,-3287.093793619954,0.0,0,20,0.0,16905,383379924878466,316,24.799999237060547,-879.7763061523438,0.14999,16,0.0,0.0,1561097980,,,,0,5.780823618576059,5,6.0,24.799999237060547,0.0,0.0,132.0584130155318,66.7128,I,,
Raw,1730975376000,2451040000000,18,77.97654321335334,-1415008142960000000,0.0,77.97654321335334,-3287.093793619954,0.0,0,32,0.0,47,383379919408948,396,20.920000076293945,-427.1285400390625,0.14999,16,0.0,0.0,1561097980,,,,0,1.0896822578652836,5,6.0,20.920000076293945,0.0,0.0,132.0584130155318,66.7128,I,,
Raw,1730975376000,2451040000000,18,77.97654321335334,-1415008142960000000,0.0,77.97654321335334,-3287.093793619954,0.0,0,21,0.0,47,383393922343885,487,21.238000869750977,-1226.3870640028413,0.14999,16,0.0,0.0,1575420030,,,,0,0.0,1,6.0,21.238000869750977,0.0,0.0,0.0,66.7128,C,,
Raw,1730975376000,2451040000000,18,77.97654321335334,-1415008142960000000,0.0,77.97654321335334,-3287.093793619954,0.0,0,3,0.0,47,383393919460759,797,13.399999618530273,-490.8358153940611,0.14999,16,0.0,0.0,1575420030,,,,0,0.0,1,6.0,13.399999618530273,0.0,0.0,0.0,66.7128,C,,
Raw,1730975376000,2451040000000,18,77.97654321335334,-1415008142960000000,0.0,77.97654321335334,-3287.093793619954,0.0,0,19,0.0,17,10106,235,27.5,-1342.2562255859375,0.14999,16,0.0,0.0,1561097980,,,,0,9.056065050415324,5,6.0,27.5,0.0,0.0,132.0584130155318,66.7128,I,,
Raw,1730975376000,2451040000000,18,77.97654321335334,-1415008142960000000,0.0,77.97654321335334,-3287.093793619954,0.0,0,2,0.0,47,383393921072831,316,25.854000091552734,-1256.048532749292,0.14999,16,0.0,0.0,1575420030,,,,0,6.205807135663708,1,6.0,25.854000091552734,0.0,0.0,0.0,66.7128,C,,
Raw,1730975377000,2452040000000,18,73.9765581829151,-1415008142960000000,0.0,73.9765581829151,-3287.9405781513374,0.0,0,22,0.0,47,383394918939001,487,20.20599937438965,-1386.9056307687047,0.14999,16,0.0,0.0,1575420030,,,,0,0.0,1,6.0,20.20599937438965,0.0,0.0,0.0,66.7128,C,,
Raw,1730975377000,2452040000000,18,73.9765581829151,-1415008142960000000,0.0,73.9765581829151,-3287.9405781513374,0.0,0,4,0.0,47,383394931901162,316,25.878000259399414,-734.1468571451519,0.14999,16,0.0,0.0,1575420030,,,,0,6.24237935659187,1,6.0,25.878000259399414,0.0,0.0,0.0,66.7128,C,,
Raw,1730975377000,2452040000000,18,73.9765581829151,-1415008142960000000,0.0,73.9765581829151,-3287.9405781513374,0.0,0,8,0.0,47,383394930072881,396,22.332000732421875,-699.7524372472527,0.14999,16,0.0,0.0,1575420030,,,,0,1.0562661285769164,1,6.0,22.332000732421875,0.0,0.0,0.0,66.7128,C,,
Raw,1730975377000,2452040000000,18,73.9765581829151,-1415008142960000000,0.0,73.9765581829151,-3287.9405781513374,0.0,0,30,0.0,47,383394918864683,487,21.215999603271484,-1317.7803391227096,0.14999,16,0.0,0.0,1575420030,,,,0,0.0,1,6.0,21.215999603271484,0.0,0.0,0.0,66.7128,C,,
Raw,1730975377000,2452040000000,18,73.9765581829151,-1415008142960000000,0.0,73.9765581829151,-3287.9405781513374,0.0,0,21,0.0,47,383394914724854,316,22.299999237060547,-1123.492729199557,0.14999,16,0.0,0.0,1575420030,,,,0,2.628833263646305,6,6.0,22.299999237060547,0.0,0.0,4.728740686510673,66.7128,C,,
Raw,1730975377000,2452040000000,18,73.9765581829151,-1415008142960000000,0.0,73.9765581829151,-3287.9405781513374,0.0,0,10,0.0,16905,383380878610399,316,25.700000762939453,-986.7186889648438,0.14999,16,0.0,0.0,1561097980,,,,0,6.899123073706255,5,6.0,25.700000762939453,0.0,0.0,135.60905057727626,66.7128,I,,
Raw,1730975377000,2452040000000,18,73.9765581829151,-1415008142960000000,0.0,73.9765581829151,-3287.9405781513374,0.0,0,14,0.0,47,383394923291435,797,20.667999267578125,-1254.1754223245155,0.14999,16,0.0,0.0,1575420030,,,,0,0.0,1,6.0,20.667999267578125,0.0,0.0,0.0,66.7128,C,,
Raw,1730975377000,2452040000000,18,73.9765581829151,-1415008142960000000,0.0,73.9765581829151,-3287.9405781513374,0.0,0,9,0.0,16431,383394933127902,797,22.445999145507812,-1093.0745457698692,0.14999,16,0.0,0.0,1575420030,,,,0,1.2529361827577827,1,6.0,22.445999145507812,0.0,0.0,0.0,66.7128,C,,
Raw,1730975377000,2452040000000,18,73.9765581829151,-1415008142960000000,0.0,73.9765581829151,-3287.9405781513374,0.0,0,7,0.0,47,383394922045855,235,24.274999618530273,-931.4654141418798,0.14999,16,0.0,0.0,1575420030,,,,0,7.010307174877989,6,6.0,24.274999618530273,0.0,0.0,4.728740686510673,66.7128,C,,
Raw,1730975377000,2452040000000,18,73.9765581829151,-1415008142960000000,0.0,73.9765581829151,-3287.9405781513374,0.0,0,8,0.0,17,356853,797,16.0,-956.2360421050803,0.14999,16,0.0,0.0,1605374980,,,,0,0.0,3,6.0,16.0,0.0,0.0,127.33076538670645,66.7128,C,,
Raw,1730975377000,2452040000000,18,73.9765581829151,-1415008142960000000,0.0,73.9765581829151,-3287.9405781513374,0.0,0,1,0.0,17,132172,487,20.0,-1620.9367583915507,0.14999,16,0.0,0.0,1602562560,,,,0,0.0,3,6.0,20.0,0.0,0.0,127.33076538670645,66.7128,C,,
Raw,1730975377000,2452040000000,18,73.9765581829151,-1415008142960000000,0.0,73.9765581829151,-3287.9405781513374,0.0,0,7,0.0,17,270098,74,30.0,-310.89433171469295,0.14999,16,0.0,0.0,1604812540,,,,0,11.296701666340754,3,6.0,30.0,0.0,0.0,127.33076538670645,66.7128,C,,
Raw,1730975377000,2452040000000,18,73.9765581829151,-1415008142960000000,0.0,73.9765581829151,-3287.9405781513374,0.0,0,7,0.0,47,383394923800576,235,28.08799934387207,-1254.5084362519126,0.14999,16,0.0,0.0,1575420030,,,,0,9.159724885588027,1,6.0,28.08799934387207,0.0,0.0,0.0,66.7128,C,,
Raw,1730975377000,2452040000000,18,73.9765581829151,-1415008142960000000,0.0,73.9765581829151,-3287.9405781513374,0.0,0,20,0.0,16905,383380924881392,235,27.899999618530273,-880.08837890625,0.14999,16,0.0,0.0,1561097980,,,,0,9.556746432572677,5,6.0,27.899999618530273,0.0,0.0,135.60905057727626,66.7128,I,,
Raw,1730975377000,2452040000000,18,73.9765581829151,-1415008142960000000,0.0,73.9765581829151,-3287.9405781513374,0.0,0,32,0.0,47,383380919410369,74,29.899999618530273,-427.89080810546875,0.14999,16,0.0,0.0,1561097980,,,,0,11.856502281021054,5,6.0,29.899999618530273,0.0,0.0,135.60905057727626,66.7128,I,,
Raw,1730975377000,2452040000000,18,73.9765581829151,-1415008142960000000,0.0,73.9765581829151,-3287.9405781513374,0.0,0,21,0.0,47,383394922347919,396,21.32900047302246,-1226.19742074787,0.14999,16,0.0,0.0,1575420030,,,,0,0.0,1,6.0,21.32900047302246,0.0,0.0,0.0,66.7128,C,,
Raw,1730975377000,2452040000000,18,73.9765581829151,-1415008142960000000,0.0,73.9765581829151,-3287.9405781513374,0.0,0,3,0.0,47,383394919462461,487,22.292999267578125,-493.66136980956986,0.14999,16,0.0,0.0,1575420030,,,,0,0.9897072615983651,1,6.0,22.292999267578125,0.0,0.0,0.0,66.7128,C,,
Raw,1730975377000,2452040000000,18,73.9765581829151,-1415008142960000000,0.0,73.9765581829151,-3287.9405781513374,0.0,0,19,0.0,17,14585,235,26.600000381469727,-1343.4482421875,0.14999,16,0.0,0.0,1561097980,,,,0,8.06139061376178,5,6.0,26.600000381469727,0.0,0.0,135.60905057727626,66.7128,I,,
Raw,1730975377000,2452040000000,18,73.9765581829151,-1415008142960000000,0.0,73.9765581829151,-3287.9405781513374,0.0,0,2,0.0,47,383394921077023,316,25.871999740600586,-1256.4097004769128,0.14999,16,0.0,0.0,1575420030,,,,0,6.704314645082393,1,6.0,25.871999740600586,0.0,0.0,0.0,66.7128,C,,
Raw,1730975378000,2453040000000,18,74.18109752191438,-1415008142960000000,0.0,74.18109752191438,-3290.5730362763443,0.0,0,22,0.0,47,383395918943547,396,20.32900047302246,-1387.1770408362067,0.14999,16,0.0,0.0,1575420030,,,,0,1.571136220543532,1,6.0,20.32900047302246,0.0,0.0,0.0,66.7128,C,,
Raw,1730975378000,2453040000000,18,74.18109752191438,-1415008142960000000,0.0,74.18109752191438,-3290.5730362763443,0.0,0,4,0.0,47,383395931903605,316,26.239999771118164,-735.17916315335,0.14999,16,0.0,0.0,1575420030,,,,0,6.738851031092513,1,6.0,26.239999771118164,0.0,0.0,0.0,66.7128,C,,
Raw,1730975378000,2453040000000,18,74.18109752191438,-1415008142960000000,0.0,74.18109752191438,-3290.5730362763443,0.0,0,8,0.0,47,383395930075245,487,21.590999603271484,-703.5024212285188,0.14999,16,0.0,0.0,1575420030,,,,0,0.0,1,6.0,21.590999603271484,0.0,0.0,0.0,66.7128,C,,
Raw,1730975378000,2453040000000,18,74.18109752191438,-1415008142960000000,0.0,74.18109752191438,-3290.5730362763443,0.0,0,30,0.0,47,383395918869095,487,21.214000701904297,-1316.3761799511622,0.14999,16,0.0,0.0,1575420030,,,,0,0.0,1,6.0,21.214000701904297,0.0,0.0,0.0,66.7128,C,,
Raw,1730975378000,2453040000000,18,74.18109752191438,-1415008142960000000,0.0,74.18109752191438,-3290.5730362763443,0.0,0,21,0.0,47,383395914728605,396,22.18000030517578,-1123.2303320648,0.14999,16,0.0,0.0,1575420030,,,,0,0.0,6,6.0,22.18000030517578,0.0,0.0,3.209761077749545,66.7128,C,,
Raw,1730975378000,2453040000000,18,74.18109752191438,-1415008142960000000,0.0,74.18109752191438,-3290.5730362763443,0.0,0,10,0.0,16905,383381878613686,316,26.0,-987.7669067382812,0.14999,16,0.0,0.0,1561097980,,,,0,7.279310222389768,5,6.0,26.0,0.0,0.0,136.90406345198983,66.7128,I,,
Raw,1730975378000,2453040000000,18,74.18109752191438,-1415008142960000000,0.0,74.18109752191438,-3290.5730362763443,0.0,0,14,0.0,47,383395923295614,797,20.667999267578125,-1252.391047474701,0.14999,16,0.0,0.0,1575420030,,,,0,0.0,1,6.0,20.667999267578125,0.0,0.0,0.0,66.7128,C,,
Raw,1730975378000,2453040000000,18,74.18109752191438,-1415008142960000000,0.0,74.18109752191438,-3290.5730362763443,0.0,0,9,0.0,16431,383395933131539,797,22.445999145507812,-1089.6765772082306,0.14999,16,0.0,0.0,1575420030,,,,0,1.2529361827577827,1,6.0,22.445999145507812,0.0,0.0,0.0,66.7128,C,,
Raw,1730975378000,2453040000000,18,74.18109752191438,-1415008142960000000,0.0,74.18109752191438,-3290.5730362763443,0.0,0,7,0.0,47,383395922048961,316,24.31599998474121,-932.5386964731757,0.14999,16,0.0,0.0,1575420030,,,,0,6.24237935659187,6,6.0,24.31599998474121,0.0,0.0,3.209761077749545,66.7128,C,,
Raw,1730975378000,2453040000000,18,74.18109752191438,-1415008142960000000,0.0,74.18109752191438,-3290.5730362763443,0.0,0,8,0.0,17,360036,487,18.0,-954.2990399488431,0.14999,16,0.0,0.0,1605374980,,,,0,0.0,3,6.0,18.0,0.0,0.0,125.63086194647326,66.7128,C,,
Raw,1730975378000,2453040000000,18,74.18109752191438,-1415008142960000000,0.0,74.18109752191438,-3290.5730362763443,0.0,0,1,0.0,17,137596,487,19.0,-1621.375570672246,0.14999,16,0.0,0.0,1602562560,,,,0,0.0,3,6.0,19.0,0.0,0.0,125.63086194647326,66.7128,C,,
Raw,1730975378000,2453040000000,18,74.18109752191438,-1415008142960000000,0.0,74.18109752191438,-3290.5730362763443,0.0,0,7,0.0,17,271134,235,29.0,-312.24545449241145,0.14999,16,0.0,0.0,1604812540,,,,0,10.633175727369114,3,6.0,29.0,0.0,0.0,125.63086194647326,66.7128,C,,
Raw,1730975378000,2453040000000,18,74.18109752191438,-1415008142960000000,0.0,74.18109752191438,-3290.5730362763443,0.0,0,21,0.0,17,387834,487,20.0,-1476.6177190863625,0.14999,16,0.0,0.0,1604249980,,,,0,0.0,3,6.0,20.0,0.0,0.0,125.63086194647326,66.7128,C,,
Raw,1730975378000,2453040000000,18,74.18109752191438,-1415008142960000000,0.0,74.18109752191438,-3290.5730362763443,0.0,0,7,0.0,47,383395923804777,235,28.809999465942383,-1255.337347313941,0.14999,16,0.0,0.0,1575420030,,,,0,10.07487469680153,1,6.0,28.809999465942383,0.0,0.0,0.0,66.7128,C,,
Raw,1730975378000,2453040000000,18,74.18109752191438,-1415008142960000000,0.0,74.18109752191438,-3290.5730362763443,0.0,0,20,0.0,16905,383381924884324,235,28.100000381469727,-880.7539672851562,0.14999,16,0.0,0.0,1561097980,,,,0,9.865985519972902,5,6.0,28.100000381469727,0.0,0.0,136.90406345198983,66.7128,I,,
Raw,1730975378000,2453040000000,18,74.18109752191438,-1415008142960000000,0.0,74.18109752191438,-3290.5730362763443,0.0,0,32,0.0,47,383381919411793,74,29.889999389648438,-428.7873229980469,0.14999,16,0.0,0.0,1561097980,,,,0,11.611499407096144,5,6.0,29.889999389648438,0.0,0.0,136.90406345198983,66.7128,I,,
Raw,1730975378000,2453040000000,18,74.18109752191438,-1415008142960000000,0.0,74.18109752191438,-3290.5730362763443,0.0,0,21,0.0,47,383395922352013,396,21.929000854492188,-1228.4328139022562,0.14999,16,0.0,0.0,1575420030,,,,0,0.43803682895659496,1,6.0,21.929000854492188,0.0,0.0,0.0,66.7128,C,,
Raw,1730975378000,2453040000000,18,74.18109752191438,-1415008142960000000,0.0,74.18109752191438,-3290.5730362763443,0.0,0,3,0.0,47,383395919464110,487,22.292999267578125,-494.4894446201065,0.14999,16,0.0,0.0,1575420030,,,,0,0.9897072615983651,1,6.0,22.292999267578125,0.0,0.0,0.0,66.7128,C,,
Raw,1730975378000,2453040000000,18,74.18109752191438,-1415008142960000000,0.0,74.18109752191438,-3290.5730362763443,0.0,0,19,0.0,17,19072,235,26.6299991607666,-1354.2841796875,0.14999,16,0.0,0.0,1561097980,,,,0,8.77883227352105,5,6.0,26.6299991607666,0.0,0.0,136.90406345198983,66.7128,I,,
Raw,1730975378000,2453040000000,18,74.18109752191438,-1415008142960000000,0.0,74.18109752191438,-3290.5730362763443,0.0,0,2,0.0,16431,383395921081216,316,25.770000457763672,-1256.8634133696248,0.14999,16,0.0,0.0,1575420030,,,,0,3.370762423304707,1,6.0,25.770000457763672,0.0,0.0,0.0,66.7128,C,,
Raw,1730975379000,2454040000000,18,74.71304995194545,-1415008142960000000,0.0,74.71304995194545,-3291.816348664044,0.0,0,22,0.0,47,383396918948174,487,20.445999145507812,-1387.5042010031611,0.14999,16,0.0,0.0,1575420030,,,,0,1.571136220543532,1,6.0,20.445999145507812,0.0,0.0,0.0,66.7128,C,,
Raw,1730975379000,2454040000000,18,74.71304995194545,-1415008142960000000,0.0,74.71304995194545,-3291.816348664044,0.0,0,4,0.0,47,383396931906060,396,24.305999755859375,-736.0285159185111,0.14999,16,0.0,0.0,1575420030,,,,0,4.00719667565236,1,6.0,24.305999755859375,0.0,0.0,0.0,66.7128,C,,
Raw,1730975379000,2454040000000,18,74.71304995194545,-1415008142960000000,0.0,74.71304995194545,-3291.816348664044,0.0,0,8,0.0,47,383396930077589,487,20.36400032043457,-700.908554934652,0.14999,16,0.0,0.0,1575420030,,,,0,0.0,1,6.0,20.36400032043457,0.0,0.0,0.0,66.7128,C,,
Raw,1730975379000,2454040000000,18,74.71304995194545,-1415008142960000000,0.0,74.71304995194545,-3291.816348664044,0.0,0,30,0.0,47,383396918873502,487,21.22599983215332,-1316.6628283791813,0.14999,16,0.0,0.0,1575420030,,,,0,0.0,1,6.0,21.22599983215332,0.0,0.0,0.0,66.7128,C,,
Raw,1730975379000,2454040000000,18,74.71304995194545,-1415008142960000000,0.0,74.71304995194545,-3291.816348664044,0.0,0,21,0.0,47,383396914732356,396,20.799999237060547,-1124.8135419724229,0.14999,16,0.0,0.0,1575420030,,,,0,0.43803682895659496,6,6.0,20.799999237060547,0.0,0.0,1.9224400501951893,66.7128,C,,
Raw,1730975379000,2454040000000,18,74.71304995194545,-1415008142960000000,0.0,74.71304995194545,-3291.816348664044,0.0,0,8,0.0,16431,383396911890293,797,12.600000381469727,-543.5442358789869,0.14999,16,0.0,0.0,1575420030,,,,0,0.0,6,6.0,12.600000381469727,0.0,0.0,1.9224400501951893,66.7128,C,,
Raw,1730975379000,2454040000000,18,74.71304995194545,-1415008142960000000,0.0,74.71304995194545,-3291.816348664044,0.0,0,10,0.0,16905,383382878616979,235,28.5,-988.181396484375,0.14999,16,0.0,0.0,1561097980,,,,0,10.297001800780329,5,6.0,28.5,0.0,0.0,135.47357294816112,66.7128,I,,
Raw,1730975379000,2454040000000,18,74.71304995194545,-1415008142960000000,0.0,74.71304995194545,-3291.816348664044,0.0,0,14,0.0,47,383396923299787,487,20.611000061035156,-1253.2875090738996,0.14999,16,0.0,0.0,1575420030,,,,0,0.0,1,6.0,20.611000061035156,0.0,0.0,0.0,66.7128,C,,
Raw,1730975379000,2454040000000,18,74.71304995194545,-1415008142960000000,0.0,74.71304995194545,-3291.816348664044,0.0,0,28,0.0,16905,383382918817077,797,17.399999618530273,-949.9692993164062,0.14999,16,0.0,0.0,1561097980,,,,0,0.0,5,6.0,17.399999618530273,0.0,0.0,135.47357294816112,66.7128,I,,
Raw,1730975379000,2454040000000,18,74.71304995194545,-1415008142960000000,0.0,74.71304995194545,-3291.816348664044,0.0,0,9,0.0,16431,383396933135177,797,16.086999893188477,-1095.64016534668,0.14999,16,0.0,0.0,1575420030,,,,0,0.0,1,6.0,16.086999893188477,0.0,0.0,0.0,66.7128,C,,
Raw,1730975379000,2454040000000,18,74.71304995194545,-1415008142960000000,0.0,74.71304995194545,-3291.816348664044,0.0,0,7,0.0,47,383396922052070,235,24.364999771118164,-932.6741692148456,0.14999,16,0.0,0.0,1575420030,,,,0,6.458636742236219,6,6.0,24.364999771118164,0.0,0.0,1.9224400501951893,66.7128,C,,
Raw,1730975379000,2454040000000,18,74.71304995194545,-1415008142960000000,0.0,74.71304995194545,-3291.816348664044,0.0,0,8,0.0,17,363217,487,20.0,-954.786687057611,0.14999,16,0.0,0.0,1605374980,,,,0,0.0,3,6.0,20.0,0.0,0.0,124.00235783713214,66.7128,C,,
Raw,1730975379000,2454040000000,18,74.71304995194545,-1415008142960000000,0.0,74.71304995194545,-3291.816348664044,0.0,0,1,0.0,17,142984,396,21.0,-1621.603928436971,0.14999,16,0.0,0.0,1602562560,,,,0,2.7660539633256294,3,6.0,21.0,0.0,0.0,124.00235783713214,66.7128,C,,
Raw,1730975379000,2454040000000,18,74.71304995194545,-1415008142960000000,0.0,74.71304995194545,-3291.816348664044,0.0,0,7,0.0,17,272188,74,31.0,-312.0174625003164,0.14999,16,0.0,0.0,1604812540,,,,0,12.731735427847205,3,6.0,31.0,0.0,0.0,124.00235783713214,66.7128,C,,
Raw,1730975379000,2454040000000,18,74.71304995194545,-1415008142960000000,0.0,74.71304995194545,-3291.816348664044,0.0,0,21,0.0,17,392862,487,20.0,-1480.0887558290724,0.14999,16,0.0,0.0,1604249980,,,,0,0.0,3,6.0,20.0,0.0,0.0,124.00235783713214,66.7128,C,,
Raw,1730975379000,2454040000000,18,74.71304995194545,-1415008142960000000,0.0,74.71304995194545,-3291.816348664044,0.0,0,7,0.0,47,383396923808977,74,30.222999572753906,-1256.1040970150798,0.14999,16,0.0,0.0,1575420030,,,,0,11.813608911689272,1,6.0,30.222999572753906,0.0,0.0,0.0,66.7128,C,,
Raw,1730975379000,2454040000000,18,74.71304995194545,-1415008142960000000,0.0,74.71304995194545,-3291.816348664044,0.0,0,20,0.0,16905,383382924887261,235,27.200000762939453,-881.2644653320312,0.14999,16,0.0,0.0,1561097980,,,,0,8.810076514542102,5,6.0,27.200000762939453,0.0,0.0,135.47357294816112,66.7128,I,,
Raw,1730975379000,2454040000000,18,74.71304995194545,-1415008142960000000,0.0,74.71304995194545,-3291.816348664044,0.0,0,32,0.0,47,383382919413221,316,24.5,-429.20843505859375,0.14999,16,0.0,0.0,1561097980,,,,0,5.51147212457991,5,6.0,24.5,0.0,0.0,135.47357294816112,66.7128,I,,
Raw,1730975379000,2454040000000,18,74.71304995194545,-1415008142960000000,0.0,74.71304995194545,-3291.816348664044,0.0,0,21,0.0,47,383396922356120,396,21.951000213623047,-1227.3928887137995,0.14999,16,0.0,0.0,1575420030,,,,0,1.1223188395786283,1,6.0,21.951000213623047,0.0,0.0,0.0,66.7128,C,,
Raw,1730975379000,2454040000000,18,74.71304995194545,-1415008142960000000,0.0,74.71304995194545,-3291.816348664044,0.0,0,3,0.0,47,383396919465726,316,25.854000091552734,-493.7018350900892,0.14999,16,0.0,0.0,1575420030,,,,0,6.205807135663708,1,6.0,25.854000091552734,0.0,0.0,0.0,66.7128,C,,
Raw,1730975379000,2454040000000,18,74.71304995194545,-1415008142960000000,0.0,74.71304995194545,-3291.816348664044,0.0,0,19,0.0,17,23593,316,26.542999267578125,-1346.9510498046875,0.14999,16,0.0,0.0,1561097980,,,,0,5.999073533889714,5,6.0,26.542999267578125,0.0,0.0,135.47357294816112,66.7128,I,,
Raw,1730975379000,2454040000000,18,74.71304995194545,-1415008142960000000,0.0,74.71304995194545,-3291.816348664044,0.0,0,2,0.0,16431,383396921085407,316,25.743000030517578,-1258.0043391549232,0.14999,16,0.0,0.0,1575420030,,,,0,5.359609413773737,1,6.0,25.743000030517578,0.0,0.0,0.0,66.7128,C,,
Raw,1730975380000,2455040000000,18,75.67623434556391,-1415008142960000000,0.0,75.67623434556391,-3293.7186247625987,0.0,0,22,0.0,47,383397918952780,797,20.351999282836914,-1387.8643466456253,0.14999,16,0.0,0.0,1575420030,,,,0,0.0,1,6.0,20.351999282836914,0.0,0.0,0.0,66.7128,C,,
Raw,1730975380000,2455040000000,18,75.67623434556391,-1415008142960000000,0.0,75.67623434556391,-3293.7186247625987,0.0,0,4,0.0,47,383397931908504,316,24.96500015258789,-734.2570565084033,0.14999,16,0.0,0.0,1575420030,,,,0,4.988184622844699,1,6.0,24.96500015258789,0.0,0.0,0.0,66.7128,C,,
Raw,1730975380000,2455040000000,18,75.67623434556391,-1415008142960000000,0.0,75.67623434556391,-3293.7186247625987,0.0,0,8,0.0,47,383397930079927,487,22.3700008392334,-702.8238960597638,0.14999,16,0.0,0.0,1575420030,,,,0,1.1223188395786283,1,6.0,22.3700008392334,0.0,0.0,0.0,66.7128,C,,
Raw,1730975380000,2455040000000,18,75.67623434556391,-1415008142960000000,0.0,75.67623434556391,-3293.7186247625987,0.0,0,30,0.0,47,383397918877880,487,21.155000686645508,-1317.760547837404,0.14999,16,0.0,0.0,1575420030,,,,0,0.0,1,6.0,21.155000686645508,0.0,0.0,0.0,66.7128,C,,
Raw,1730975380000,2455040000000,18,75.67623434556391,-1415008142960000000,0.0,75.67623434556391,-3293.7186247625987,0.0,0,21,0.0,47,383397914736110,235,26.399999618530273,-1125.9671973637628,0.14999,16,0.0,0.0,1575420030,,,,0,7.838160878042491,6,6.0,26.399999618530273,0.0,0.0,-0.3477588675468608,66.7128,C,,
Raw,1730975380000,2455040000000,18,75.67623434556391,-1415008142960000000,0.0,75.67623434556391,-3293.7186247625987,0.0,0,8,0.0,16431,383397911892107,797,12.600000381469727,-543.6094634953465,0.14999,16,0.0,0.0,1575420030,,,,0,0.0,6,6.0,12.600000381469727,0.0,0.0,-0.3477588675468608,66.7128,C,,
Raw,1730975380000,2455040000000,18,75.67623434556391,-1415008142960000000,0.0,75.67623434556391,-3293.7186247625987,0.0,0,10,0.0,16905,383383878620274,235,26.299999237060547,-988.5125732421875,0.14999,16,0.0,0.0,1561097980,,,,0,7.679149793539929,5,6.0,26.299999237060547,0.0,0.0,134.45111505203403,66.7128,I,,
Raw,1730975380000,2455040000000,18,75.67623434556391,-1415008142960000000,0.0,75.67623434556391,-3293.7186247625987,0.0,0,14,0.0,47,383397923303953,797,20.60300064086914,-1254.6811686433834,0.14999,16,0.0,0.0,1575420030,,,,0,0.0,1,6.0,20.60300064086914,0.0,0.0,0.0,66.7128,C,,
Raw,1730975380000,2455040000000,18,75.67623434556391,-1415008142960000000,0.0,75.67623434556391,-3293.7186247625987,0.0,0,28,0.0,16905,383383918820251,1797,17.399999618530273,-954.8339233398438,0.14999,16,0.0,0.0,1561097980,,,,0,0.0,5,6.0,17.399999618530273,0.0,0.0,134.45111505203403,66.7128,I,,
Raw,1730975380000,2455040000000,18,75.67623434556391,-1415008142960000000,0.0,75.67623434556391,-3293.7186247625987,0.0,0,9,0.0,16431,383397933138834,487,16.086999893188477,-1095.3334468828582,0.14999,16,0.0,0.0,1575420030,,,,0,0.0,1,6.0,16.086999893188477,0.0,0.0,0.0,66.7128,C,,
Raw,1730975380000,2455040000000,18,75.67623434556391,-1415008142960000000,0.0,75.67623434556391,-3293.7186247625987,0.0,0,7,0.0,47,383397922055185,487,20.399999618530273,-933.3207774516638,0.14999,16,0.0,0.0,1575420030,,,,0,0.0,6,6.0,20.399999618530273,0.0,0.0,-0.3477588675468608,66.7128,C,,
Raw,1730975380000,2455040000000,18,75.67623434556391,-1415008142960000000,0.0,75.67623434556391,-3293.7186247625987,0.0,0,8,0.0,17,366401,487,20.0,-955.5559986987245,0.14999,16,0.0,0.0,1605374980,,,,0,0.0,3,6.0,20.0,0.0,0.0,124.73422218403556,66.7128,C,,
Raw,1730975380000,2455040000000,18,75.67623434556391,-1415008142960000000,0.0,75.67623434556391,-3293.7186247625987,0.0,0,1,0.0,17,148396,797,17.0,-1623.0829560075417,0.14999,16,0.0,0.0,1602562560,,,,0,0.0,3,6.0,17.0,0.0,0.0,124.73422218403556,66.7128,C,,
Raw,1730975380000,2455040000000,18,75.67623434556391,-1415008142960000000,0.0,75.67623434556391,-3293.7186247625987,0.0,0,7,0.0,17,273211,235,28.0,-311.9873159296473,0.14999,16,0.0,0.0,1604812540,,,,0,9.562790612839349,3,6.0,28.0,0.0,0.0,124.73422218403556,66.7128,C,,
Raw,1730975380000,2455040000000,18,75.67623434556391,-1415008142960000000,0.0,75.67623434556391,-3293.7186247625987,0.0,0,21,0.0,17,397798,487,18.0,-1477.8205373393173,0.14999,16,0.0,0.0,1604249980,,,,0,0.0,3,6.0,18.0,0.0,0.0,124.73422218403556,66.7128,C,,
Raw,1730975380000,2455040000000,18,75.67623434556391,-1415008142960000000,0.0,75.67623434556391,-3293.7186247625987,0.0,0,7,0.0,47,383397923813174,316,24.628000259399414,-1257.149875963979,0.14999,16,0.0,0.0,1575420030,,,,0,4.511532442711991,1,6.0,24.628000259399414,0.0,0.0,0.0,66.7128,C,,
Raw,1730975380000,2455040000000,18,75.67623434556391,-1415008142960000000,0.0,75.67623434556391,-3293.7186247625987,0.0,0,20,0.0,16905,383383924890198,74,29.700000762939453,-881.9683837890625,0.14999,16,0.0,0.0,1561097980,,,,0,11.634060172086665,5,6.0,29.700000762939453,0.0,0.0,134.45111505203403,66.7128,I,,
Raw,1730975380000,2455040000000,18,75.67623434556391,-1415008142960000000,0.0,75.67623434556391,-3293.7186247625987,0.0,0,32,0.0,47,383383919414649,396,24.399999618530273,-428.1780700683594,0.14999,16,0.0,0.0,1561097980,,,,0,2.805056676539475,5,6.0,24.399999618530273,0.0,0.0,134.45111505203403,66.7128,I,,
Raw,1730975380000,2455040000000,18,75.67623434556391,-1415008142960000000,0.0,75.67623434556391,-3293.7186247625987,0.0,0,21,0.0,47,383397922360213,487,21.968000411987305,-1226.633665276087,0.14999,16,0.0,0.0,1575420030,,,,0,0.9897072615983651,1,6.0,21.968000411987305,0.0,0.0,0.0,66.7128,C,,
Raw,1730975380000,2455040000000,18,75.67623434556391,-1415008142960000000,0.0,75.67623434556391,-3293.7186247625987,0.0,0,3,0.0,47,383397919467367,316,27.31999969482422,-494.65056240752466,0.14999,16,0.0,0.0,1575420030,,,,0,8.165969201805877,1,6.0,27.31999969482422,0.0,0.0,0.0,66.7128,C,,
Raw,1730975380000,2455040000000,18,75.67623434556391,-1415008142960000000,0.0,75.67623434556391,-3293.7186247625987,0.0,0,19,0.0,17,28100,235,23.0,-1354.20166015625,0.14999,16,0.0,0.0,1561097980,,,,0,3.5218251811136247,5,6.0,23.0,0.0,0.0,134.45111505203403,66.7128,I,,
Raw,1730975380000,2455040000000,18,75.67623434556391,-1415008142960000000,0.0,75.67623434556391,-3293.7186247625987,0.0,0,2,0.0,16431,383397921089602,396,25.70800018310547,-1258.6947112198118,0.14999,16,0.0,0.0,1575420030,,,,0,5.072106914716862,1,6.0,25.70800018310547,0.0,0.0,0.0,66.7128,C,,
Raw,1730975381000,2456040000000,18,76.26772452589374,-1415008142960000000,0.0,76.26772452589374,-3296.803263519455,0.0,0,22,0.0,47,383398918957415,797,20.26300048828125,-1391.6211600140743,0.14999,16,0.0,0.0,1575420030,,,,0,0.0,1,6.0,20.26300048828125,0.0,0.0,0.0,66.7128,C,,
Raw,1730975381000,2456040000000,18,76.26772452589374,-1415008142960000000,0.0,76.26772452589374,-3296.803263519455,0.0,0,4,0.0,47,383398931910957,396,24.090999603271484,-735.1410672520574,0.14999,16,0.0,0.0,1575420030,,,,0,3.71924026163951,1,6.0,24.090999603271484,0.0,0.0,0.0,66.7128,C,,
Raw,1730975381000,2456040000000,18,76.26772452589374,-1415008142960000000,0.0,76.26772452589374,-3296.803263519455,0.0,0,8,0.0,47,383398930082251,396,23.966999053955078,-702.9773946669234,0.14999,16,0.0,0.0,1575420030,,,,0,3.5218251811136247,1,6.0,23.966999053955078,0.0,0.0,0.0,66.7128,C,,
Raw,1730975381000,2456040000000,18,76.26772452589374,-1415008142960000000,0.0,76.26772452589374,-3296.803263519455,0.0,0,30,0.0,47,383398918882269,487,21.099000930786133,-1321.017375730595,0.14999,16,0.0,0.0,1575420030,,,,0,0.0,1,6.0,21.099000930786133,0.0,0.0,0.0,66.7128,C,,
Raw,1730975381000,2456040000000,18,76.26772452589374,-1415008142960000000,0.0,76.26772452589374,-3296.803263519455,0.0,0,21,0.0,47,383398914739870,396,21.399999618530273,-1126.826027645831,0.14999,16,0.0,0.0,1575420030,,,,0,1.2529361827577827,6,6.0,21.399999618530273,0.0,0.0,-0.10657154743106204,66.7128,C,,
Raw,1730975381000,2456040000000,18,76.26772452589374,-1415008142960000000,0.0,76.26772452589374,-3296.803263519455,0.0,0,8,0.0,16431,383398911893907,487,17.100000381469727,-545.6171174934688,0.14999,16,0.0,0.0,1575420030,,,,0,0.0,6,6.0,17.100000381469727,0.0,0.0,-0.10657154743106204,66.7128,C,,
Raw,1730975381000,2456040000000,18,76.26772452589374,-1415008142960000000,0.0,76.26772452589374,-3296.803263519455,0.0,0,10,0.0,16905,383384878623567,235,27.799999237060547,-989.2215576171875,0.14999,16,0.0,0.0,1561097980,,,,0,9.499318853870552,5,6.0,27.799999237060547,0.0,0.0,135.3154393863605,66.7128,I,,
Raw,1730975381000,2456040000000,18,76.26772452589374,-1415008142960000000,0.0,76.26772452589374,-3296.803263519455,0.0,0,14,0.0,47,383398923308134,797,20.59600067138672,-1254.6921328296091,0.14999,16,0.0,0.0,1575420030,,,,0,0.0,1,6.0,20.59600067138672,0.0,0.0,0.0,66.7128,C,,
Raw,1730975381000,2456040000000,18,76.26772452589374,-1415008142960000000,0.0,76.26772452589374,-3296.803263519455,0.0,0,28,0.0,16905,383384918823440,797,17.399999618530273,-956.5358276367188,0.14999,16,0.0,0.0,1561097980,,,,0,0.0,5,6.0,17.399999618530273,0.0,0.0,135.3154393863605,66.7128,I,,
Raw,1730975381000,2456040000000,18,76.26772452589374,-1415008142960000000,0.0,76.26772452589374,-3296.803263519455,0.0,0,9,0.0,16431,383398933142548,487,22.63599967956543,-1096.0942499067219,0.14999,16,0.0,0.0,1575420030,,,,0,1.508421943486361,1,6.0,22.63599967956543,0.0,0.0,0.0,66.7128,C,,
Raw,1730975381000,2456040000000,18,76.26772452589374,-1415008142960000000,0.0,76.26772452589374,-3296.803263519455,0.0,0,8,0.0,17,369600,396,21.0,-956.6709853939402,0.14999,16,0.0,0.0,1605374980,,,,0,0.300579807302392,3,6.0,21.0,0.0,0.0,125.54646856530098,66.7128,C,,
Raw,1730975381000,2456040000000,18,76.26772452589374,-1415008142960000000,0.0,76.26772452589374,-3296.803263519455,0.0,0,1,0.0,17,153811,797,17.0,-1622.0219144895236,0.14999,16,0.0,0.0,1602562560,,,,0,0.0,3,6.0,17.0,0.0,0.0,125.54646856530098,66.7128,C,,
Raw,1730975381000,2456040000000,18,76.26772452589374,-1415008142960000000,0.0,76.26772452589374,-3296.803263519455,0.0,0,7,0.0,17,274260,396,23.0,-312.28855359873864,0.14999,16,0.0,0.0,1604812540,,,,0,6.467656878827464,3,6.0,23.0,0.0,0.0,125.54646856530098,66.7128,C,,
Raw,1730975381000,2456040000000,18,76.26772452589374,-1415008142960000000,0.0,76.26772452589374,-3296.803263519455,0.0,0,21,0.0,17,402769,487,20.0,-1480.2492593419647,0.14999,16,0.0,0.0,1604249980,,,,0,0.0,3,6.0,20.0,0.0,0.0,125.54646856530098,66.7128,C,,
Raw,1730975381000,2456040000000,18,76.26772452589374,-1415008142960000000,0.0,76.26772452589374,-3296.803263519455,0.0,0,7,0.0,47,383398923817374,487,25.395999908447266,-1257.5028670103466,0.14999,16,0.0,0.0,1575420030,,,,0,5.559293831905755,1,6.0,25.395999908447266,0.0,0.0,0.0,66.7128,C,,
Raw,1730975381000,2456040000000,18,76.26772452589374,-1415008142960000000,0.0,76.26772452589374,-3296.803263519455,0.0,0,20,0.0,16905,383384924893140,316,27.100000381469727,-883.4561157226562,0.14999,16,0.0,0.0,1561097980,,,,0,8.684419500069364,5,6.0,27.100000381469727,0.0,0.0,135.3154393863605,66.7128,I,,
Raw,1730975381000,2456040000000,18,76.26772452589374,-1415008142960000000,0.0,76.26772452589374,-3296.803263519455,0.0,0,32,0.0,47,383384919416080,487,19.899999618530273,-430.5704345703125,0.14999,16,0.0,0.0,1561097980,,,,0,0.0,5,6.0,19.899999618530273,0.0,0.0,135.3154393863605,66.7128,I,,
